SALE TYPE,SOLD DATE,PROPERTY TYPE,ADDRESS,CITY,STATE OR PROVINCE,ZIP OR POSTAL CODE,PRICE,BEDS,BATHS,LOCATION,SQUARE FEET,LOT SIZE,YEAR BUILT,DAYS ON MARKET,$/SQUARE FEET,HOA/MONTH,STATUS,NEXT OPEN HOUSE START TIME,NEXT OPEN HOUSE END TIME,URL (SEE https://www.redfin.com/buy-a-home/comparative-market-analysis FOR INFO ON PRICING),SOURCE,MLS#,FAVORITE,INTERESTED,LATITUDE,LONGITUDE
MLS Listing,,Single Family Residential,3419 Miami Dr,Tallahassee,FL,32311,250000,3,1.5,NORWOOD ESTATES,1326,8276,1961,26,189,,Active,,,https://www.redfin.com/FL/Tallahassee/3419-Miami-Dr-32311/home/139729684,CATRS,353155,N,Y,30.4293808,-84.2169904
MLS Listing,,Single Family Residential,10535 Winters Run,Tallahassee,FL,32312,480000,4,3.5,KINHEGA LANDINGS,2675,20037,1994,148,179,10,Active,,,https://www.redfin.com/FL/Tallahassee/10535-Winters-Run-32312/home/139600901,CATRS,349088,N,Y,30.6182406,-84.232634
MLS Listing,,Vacant Land,00 Cotton St,Graceville,FL,32440,14900,,,N/A,,24829,,1,,,Active,,,https://www.redfin.com/FL/GRACEVILLE/COTTON-ST-32440/home/177335447,CPARMLS,735440,N,Y,30.958523,-85.517924
MLS Listing,,Single Family Residential,3490 Seminole Ln,Marianna,FL,32448,325000,3,1.5,Strickland Lake Estates,1271,30492,1999,1,256,,Active,,,https://www.redfin.com/FL/Marianna/3490-Seminole-Ln-32448/home/142196897,CPARMLS,734605,N,Y,30.5716523,-85.311885
MLS Listing,,Single Family Residential,0 Brown Rd,Graceville,FL,32440,665000,2,2.0,[No Recorded Subdiv],2036,3793640,2020,1,327,,Active,,,https://www.redfin.com/FL/GRACEVILLE/BROWN-ST-32440/home/142201742,CPARMLS,727013,N,Y,30.959323,-85.515322
MLS Listing,,Single Family Residential,5372 Cooper St,Graceville,FL,32440,199999,3,2.0,No Named Subdivision,1269,13460,1989,1,158,,Active,,,https://www.redfin.com/FL/Graceville/5372-Cooper-St-32440/home/142222853,CPARMLS,734818,N,Y,30.9588703,-85.5078311
MLS Listing,,Vacant Land,Lot 3 Brighton Ave,Chipley,FL,32428,4499,,,Sunny Hills Unit 11,,9975,,1,,,Active,,,https://www.redfin.com/FL/Unknown/LOT-3-Brighton-Ave-32428/home/178406655,CPARMLS,734944,N,Y,30.521992,-85.516192
MLS Listing,,Mobile/Manufactured Home,940 Virginia Ct,Panama City,FL,32404,120000,3,2.0,Callaway,1935,7405,2004,1,62,,Active,,,https://www.redfin.com/FL/Panama-City/940-Virginia-Ct-32404/home/117494254,CPARMLS,735291,N,Y,30.1647605,-85.5663803
MLS Listing,,Single Family Residential,3230 Elkcam Blvd,Chipley,FL,32428,279000,3,2.0,Sunny Hills,1681,9975,2005,1,166,,Active,,,https://www.redfin.com/FL/Chipley/3230-Elkcam-Blvd-32428/home/139169048,CPARMLS,735095,N,Y,30.580612,-85.574139
MLS Listing,,Vacant Land,0000 Adirondack Dr,Chipley,FL,32428,8000,,,Sunny Hills,,9583,,1,,,Active,,,https://www.redfin.com/FL/CHIPLEY/ADIRONDACK-DR-32428/home/139258870,CPARMLS,725392,N,Y,30.585073,-85.544415
MLS Listing,,Single Family Residential,533 N Bright Ave,Panama City,FL,32404,279500,3,2.0,No Named Subdivision,1216,97139,1952,1,230,,Active,,,https://www.redfin.com/FL/Panama-City/533-N-Bright-Ave-32404/home/117897449,CPARMLS,731183,N,Y,30.1575822,-85.5643057
MLS Listing,,Vacant Land,1821 Gap Blvd Lot 34,Chipley,FL,32428,15000,,,White Oak,,44344,,1,,,Active,,,https://www.redfin.com/FL/Chipley/1821-Gap-Blvd-32428/unit-34/home/179280062,CPARMLS,725942,N,Y,30.543538,-85.554224
MLS Listing,,Single Family Residential,26214 NE Canton Rd Lot 21,Altha,FL,32421,325000,3,2.0,Arboles,1832,23958,2022,1,177,,Active,,,https://www.redfin.com/FL/Altha/26214-NE-Canton-Rd-32421/unit-21/home/182228228,CPARMLS,733222,N,Y,30.5786521,-85.069678
MLS Listing,,Vacant Land,5371 Florida St,Graceville,FL,32440,8900,,,No Named Subdivision,,22041,,1,,,Active,,,https://www.redfin.com/FL/Graceville/5371-Florida-St-32440/home/142225261,CPARMLS,714065,N,Y,30.958702,-85.518563
MLS Listing,,Vacant Land,0000 Jefferson St,Marianna,FL,32446,325000,,,[No Recorded Subdiv],,152460,,1,,,Active,,,https://www.redfin.com/FL/MARIANNA/JEFFERSON-ST-32446/home/142187081,CPARMLS,707068,N,Y,30.783193,-85.226294
MLS Listing,,Vacant Land,XXX Forrest Ave Lot 2,Chipley,FL,32428,29999,,,,,23958,,1,,,Active,,,https://www.redfin.com/FL/Chipley/2-Forrest-Ave-32428/unit-2/home/182483165,CPARMLS,733859,N,Y,30.7748287,-85.5390636
MLS Listing,,Vacant Land,0 Mcduff Dr,Alford,FL,32420,39500,,,Highlands At Compass Lake,,65340,,1,,,Active,,,https://www.redfin.com/FL/ALFORD/MCDUFF-DR-32420/home/142210778,CPARMLS,734244,N,Y,30.598966,-85.357867
MLS Listing,,Single Family Residential,233 Avenue D,Port St. Joe,FL,32456,199999,3,1.0,[No Recorded Subdiv],1064,5881,1900,1,188,,Active,,,https://www.redfin.com/FL/Port-St-Joe/233-Ave-D-32456/home/138404170,CPARMLS,730621,N,Y,29.8206889,-85.3030589
MLS Listing,,Vacant Land,5 Cape San Blas Rd,Port St. Joe,FL,32456,1289000,,,Hibiscus,,13068,,1,,208,Active,,,https://www.redfin.com/FL/Port-St-Joe/5-Cape-San-Blas-Rd-32456/home/181454816,CPARMLS,731807,N,Y,29.721613,-85.38708
MLS Listing,,Vacant Land,Lot 23 Deltona Blvd,Chipley,FL,32428,8000,,,Sunny Hills Unit 8,,10019,,1,,,Active,,,https://www.redfin.com/FL/Unknown/Lot-23-Deltona-Blvd-32428/home/182807860,CPARMLS,734546,N,Y,30.588742,-85.56869
MLS Listing,,Vacant Land,3790 Kynesville Rd,Marianna,FL,32448,11900000,,,[No Recorded Subdiv],,30386585,,1,,,Active,,,https://www.redfin.com/FL/Marianna/3790-Kynesville-Rd-32448/home/180807427,CPARMLS,730348,N,Y,30.7494161,-85.2808577
MLS Listing,,Single Family Residential,928 Backwater Rd Lot 12,Port St. Joe,FL,32456,489900,5,3.0,Windmark,2511,5663,2022,1,195,200,Active,,,https://www.redfin.com/FL/Cape-San-Blas/928-Backwater-Rd-32456/unit-12/home/182751067,CPARMLS,734451,N,Y,29.8698854,-85.340587
MLS Listing,,Single Family Residential,715 Mill Rd,Carrabelle,FL,32322,349000,1,,Breezy Point,666,125453,2016,1,524,,Active,,,https://www.redfin.com/FL/Carrabelle/715-Mill-Rd-32322/home/137885794,CPARMLS,732087,N,Y,29.8722651,-84.7098002
MLS Listing,,Vacant Land,601 Garrison Ave,Port St. Joe,FL,32456,79000,,,455 Harrison Avenue Group,,13460,,1,,,Active,,,https://www.redfin.com/FL/Port-St-Joe/601-Garrison-Ave-32456/home/138457094,CPARMLS,732080,N,Y,29.813103,-85.2939687
MLS Listing,,Single Family Residential,114 Pond Cypress Cv #74,Port St. Joe,FL,32456,479900,4,3.0,Windmark,2197,5663,2022,1,218,200,Active,,,https://www.redfin.com/FL/Port-St-Joe/114-Pond-Cypress-Cv-32456/unit-74/home/183039636,CPARMLS,734928,N,Y,29.8823904,-85.3498874
MLS Listing,,Vacant Land,Lot 3 Briarwood Dr,Chipley,FL,32428,6800,,,Sunny Hills,,10890,,1,,,Active,,,https://www.redfin.com/FL/Unknown/LOT-3-Briarwood-Dr-32428/home/178405422,CPARMLS,726436,N,Y,30.526436,-85.518125
MLS Listing,,Vacant Land,0 Lake Lillian Ave,Fountain,FL,32438,56900,,,No Named Subdivision,,435600,,1,,,Active,,,https://www.redfin.com/FL/Fountain/Lake-Lillian-Ave-32438/home/179840066,CPARMLS,728623,N,Y,30.533918,-85.352625
MLS Listing,,Vacant Land,0 Peacock Ave,Altha,FL,32421,17000,,,Lake Center,,20038,,1,,,Active,,,https://www.redfin.com/FL/ALTHA/NW-PEACOCK-AVE-32421/home/127905892,CPARMLS,722159,N,Y,30.546201,-85.337238
MLS Listing,,Vacant Land,3779 Foxhunt Rd,Chipley,FL,32428,36900,,,No Named Subdivision,,216493,,1,,,Active,,,https://www.redfin.com/FL/Chipley/3779-Fox-Hunt-Rd-32428/home/139190022,CPARMLS,713286,N,Y,30.558204,-85.488971
MLS Listing,,Single Family Residential,247 Pond Cypress Cv Lot 91,Port St. Joe,FL,32456,447835,4,2.0,Windmark,1835,4792,2022,1,244,200,Active,,,https://www.redfin.com/FL/Port-St-Joe/247-Pond-Cypress-Cv-32456/unit-91/home/181411138,CPARMLS,731676,N,Y,29.8812757,-85.348616
MLS Listing,,Single Family Residential,800 Backwater Rd #33,Port St. Joe,FL,32456,492252,4,3.0,Windmark,2197,5663,2022,1,224,200,Active,,,https://www.redfin.com/FL/Cape-San-Blas/800-Backwater-Rd-32456/unit-33/home/183045397,CPARMLS,734946,N,Y,29.8668717,-85.3401086
MLS Listing,,Vacant Land,151-4 Challenger Blvd,Chipley,FL,32428,40000,,,Sunny Hills Unit 4,,40075,,1,,,Active,,,https://www.redfin.com/FL/Unknown/151-154-Challenger-Blvd-32428/home/178377047,CPARMLS,399449,N,Y,30.533958,-85.593716
MLS Listing,,Single Family Residential,2534 Woodsview Dr,Marianna,FL,32446,229900,3,2.0,Camellia Acres,1388,11761,1994,1,166,26,Active,,,https://www.redfin.com/FL/Marianna/2534-Woods-View-Dr-32446/home/142230757,CPARMLS,729824,N,Y,30.7494458,-85.1827045
MLS Listing,,Vacant Land,1015 Monument Ave,Port St. Joe,FL,32456,199900,,,No Named Subdivision,,13504,,1,,,Active,,,https://www.redfin.com/FL/Port-St-Joe/1015-Monument-Ave-32456/home/138389757,CPARMLS,731212,N,Y,29.8055096,-85.3005744
MLS Listing,,Vacant Land,Lots 19-20 Hancock Ct,Chipley,FL,32428,100000,,,Sunny Hills Unit 4,,31746,,1,,,Active,,,https://www.redfin.com/FL/Chipley/1920-Hancock-Ct-32428/home/182148355,CPARMLS,733014,N,Y,30.5382314,-85.5888065
MLS Listing,,Vacant Land,LOT 6 Hazel Ln,Chipley,FL,32428,45900,,,Sunny Hills Unit 8,,26572,,1,,,Active,,,https://www.redfin.com/FL/Unknown/LOT-6-Hazel-Ln-32428/home/178377049,CPARMLS,385892,N,Y,30.572984,-85.559418
MLS Listing,,Mobile/Manufactured Home,1969 Hwy 90,Cottondale,FL,32431,129900,3,2.0,No Named Subdivision,1500,217800,1983,1,87,,Active,,,https://www.redfin.com/FL/Cottondale/1969-US-90-32431/home/183361490,CPARMLS,735458,N,Y,30.7868658,-85.4344246
MLS Listing,,Single Family Residential,5002 Land Dr,Marianna,FL,32448,142500,3,1.0,[No Recorded Subdiv],1296,326700,1985,1,110,,Active,,,https://www.redfin.com/FL/Marianna/5002-Land-Dr-32448/home/162555119,CPARMLS,733890,N,Y,30.7051825,-85.1796153
MLS Listing,,Vacant Land,0000 Old Cottondale Rd,Marianna,FL,32448,149900,,,No Named Subdivision,,261360,,1,,,Active,,,https://www.redfin.com/FL/MARIANNA/OLD-COTTONDALE-RD-32448/home/142204542,CPARMLS,732682,N,Y,30.778194,-85.249187
MLS Listing,,Single Family Residential,2646 Generals Ct,Marianna,FL,32446,299900,4,2.0,Indian Springs,2120,54450,2005,1,141,,Active,,,https://www.redfin.com/FL/Marianna/2646-Generals-Ct-32446/home/142188565,CPARMLS,732445,N,Y,30.755155,-85.1733129
MLS Listing,,Vacant Land,0 Dumont Ave Lot 8,Chipley,FL,32428,15000,,,Sunny Hills Unit 9,,13504,,1,,,Active,,,https://www.redfin.com/FL/Unknown/Dumont-Ave-32428/unit-8/home/178376881,CPARMLS,708719,N,Y,30.596942,-85.566995
MLS Listing,,Mobile/Manufactured Home,1965 Us Highway 90,Cottondale,FL,32431,69900,3,2.0,No Named Subdivision,980,69260,1987,1,71,,Active,,,https://www.redfin.com/FL/Cottondale/1965-US-90-32431/home/142211110,CPARMLS,727372,N,Y,30.7869424,-85.4349984
MLS Listing,,Single Family Residential,736 5th St,Chipley,FL,32428,280000,3,2.0,[No Recorded Subdiv],1801,36000,1923,1,155,,Active,,,https://www.redfin.com/FL/Chipley/736-5th-St-32428/home/139363062,CPARMLS,733956,N,Y,30.7761448,-85.5394746
MLS Listing,,Single Family Residential,827 3rd St,Chipley,FL,32428,139900,3,2.0,Chipley,1823,17860,1975,1,77,,Active,,,https://www.redfin.com/FL/Chipley/827-3rd-St-32428/home/139349928,CPARMLS,730307,N,Y,30.7698774,-85.5422096
MLS Listing,,Mobile/Manufactured Home,6807 Welcome Church Rd,Sneads,FL,32460,199000,3,2.0,No Named Subdivision,1850,60984,1996,1,108,,Active,,,https://www.redfin.com/FL/Sneads/6807-Welcome-Church-Rd-32460/home/142190561,CPARMLS,733659,N,Y,30.8314017,-85.0258227
MLS Listing,,Vacant Land,2915 N Wynn St,Marianna,FL,32446,19000,,,West End Park,,7841,,1,,,Active,,,https://www.redfin.com/FL/Marianna/2915-Wynn-St-32446/home/142207798,CPARMLS,697842,N,Y,30.7770429,-85.2315493
MLS Listing,,Mobile/Manufactured Home,580 Welton Dr,Port St. Joe,FL,32456,259000,2,2.0,Rochelle Estates,1152,11587,2012,1,225,,Active,,,https://www.redfin.com/FL/Port-St-Joe/580-Welton-Dr-32456/home/138382677,CPARMLS,731022,N,Y,29.7881818,-85.296403
MLS Listing,,Vacant Land,00 Hwy 90,Marianna,FL,32446,749900,,,No Named Subdivision,,435600,,1,,,Active,,,https://www.redfin.com/FL/MARIANNA/Unknown-32446/home/142222991,CPARMLS,731065,N,Y,30.763178,-85.197994
MLS Listing,,Single Family Residential,4211 Dairy Farm Rd,Panama City,FL,32404,335000,3,2.0,Bylsma Manor Estates,1417,7405,2022,1,236,,Active,,,https://www.redfin.com/FL/Panama-City/4211-Dairy-Farm-Rd-32404/home/118170551,CPARMLS,733698,N,Y,30.2251402,-85.5848703
MLS Listing,,Vacant Land,0 Loblolly Dr,Marianna,FL,32448,9995,,,No Named Subdivision,,34412,,1,,,Active,,,https://www.redfin.com/FL/MARIANNA/LOBLOLLY-DR-32448/home/142205699,CPARMLS,729707,N,Y,30.7352,-85.231642
MLS Listing,,Single Family Residential,162 Pond Cypress Cv Lot 78,Port St. Joe,FL,32456,499900,4,2.0,Windmark,1835,4792,2022,1,272,200,Active,,,https://www.redfin.com/FL/Port-St-Joe/162-Pond-Cypress-Cv-32456/unit-78/home/183040071,CPARMLS,734930,N,Y,29.881919,-85.3495616
MLS Listing,,Single Family Residential,327 Sea Grove Way Lot 48,Port St. Joe,FL,32456,557360,4,2.0,Windmark,1835,4792,2022,1,304,200,Active,,,https://www.redfin.com/FL/Port-St-Joe/327-Sea-Grove-Way-32456/unit-48/home/183065069,CPARMLS,735042,N,Y,29.8852468,-85.3518197
MLS Listing,,Vacant Land,1279 E Gulf Beach Dr,St. George Island,FL,32328,359000,,,,,49049,,1,,,Active,,,https://www.redfin.com/FL/Eastpoint/1279-E-Gulf-Beach-Dr-32328/home/137913807,CPARMLS,729057,N,Y,29.677042,-84.825604
MLS Listing,,Vacant Land,0 N Fox Ave,Panama City,FL,32404,30000,,,North Callaway Estates,,8364,,1,,,Active,,,https://www.redfin.com/FL/PANAMA-CITY/FOX-AVE-N-32404/home/162313957,CPARMLS,735486,N,Y,30.155894,-85.56974
MLS Listing,,Single Family Residential,339 N Comet Ave Ave,Panama City,FL,32404,385000,5,3.0,No Named Subdivision,3000,29969,1978,1,128,,Active,,,https://www.redfin.com/FL/Panama-City/339-N-Comet-Ave-32404/home/117717610,CPARMLS,728342,N,Y,30.1546671,-85.5786763
MLS Listing,,Vacant Land,LOT 29 Glenridge Cir,Chipley,FL,32428,4500,,,Sunny Hills,,10019,,1,,,Active,,,https://www.redfin.com/FL/Chipley/LOT-29-Glenridge-CIR-32428/home/182493598,CPARMLS,733896,N,Y,30.528728,-85.514226
MLS Listing,,Single Family Residential,927 Rainelli Ct,Panama City,FL,32404,200000,3,2.0,No Named Subdivision,1670,21840,1984,1,120,,Active,,,https://www.redfin.com/FL/Panama-City/927-Rainelli-Ct-32404/home/117952255,CPARMLS,734926,N,Y,30.1645647,-85.5691499
MLS Listing,,Vacant Land,00 Carters Mill Rd,Marianna,FL,32446,49900,,,[No Recorded Subdiv],,19558,,1,,,Active,,,https://www.redfin.com/FL/MARIANNA/CARTERS-MILL-RD-32446/home/142219879,CPARMLS,730124,N,Y,30.784199,-85.242371
MLS Listing,,Single Family Residential,112 Clifton Beach Dr,Cape San Blas,FL,32456,2399000,5,4.5,Clifton Place Phase 1,3075,16117,2014,1,780,167,Active,,,https://www.redfin.com/FL/Port-St-Joe/112-Cliffton-Beach-Dr-32456/home/138390366,CPARMLS,728154,N,Y,29.6948707,-85.3755644
MLS Listing,,Single Family Residential,542 J H Crews Cir,Panama City,FL,32404,298000,3,2.0,Shadow Bay Unit 5,1444,,1998,1,206,,Active,,,https://www.redfin.com/FL/Panama-City/542-J-H-Crews-Cir-32404/home/117846758,CPARMLS,734486,N,Y,30.158359,-85.5613105
MLS Listing,,Single Family Residential,333 Sea Grove Way Lot 49,Port St. Joe,FL,32456,623095,4,3.0,Windmark,2197,4792,2022,1,284,200,Active,,,https://www.redfin.com/FL/Port-St-Joe/333-Sea-Grove-Way-32456/unit-49/home/183065324,CPARMLS,735045,N,Y,29.8851272,-85.3517411
MLS Listing,,Vacant Land,0 Helmet St,Port St. Joe,FL,32456,500000,,,[No Recorded Subdiv],,19602,,1,,,Active,,,https://www.redfin.com/FL/PORT-ST-JOE/HELMET-ST-32456/home/138429713,CPARMLS,733656,N,Y,29.924642,-85.383671
MLS Listing,,Vacant Land,132 White Blossom Trl,Port St. Joe,FL,32456,118500,,,No Named Subdivision,,10857,,1,,25,Active,,,https://www.redfin.com/FL/Port-St-Joe/132-White-Blossom-Trl-32456/home/138424684,CPARMLS,731904,N,Y,29.896601,-85.351499
MLS Listing,,Vacant Land,10 Eventide Dr,Port St. Joe,FL,32456,119000,,,Eventide,,9148,,1,,,Active,,,https://www.redfin.com/FL/Unknown/10-Eventide-Dr-32456/home/181453982,CPARMLS,731798,N,Y,29.68333,-85.331969
MLS Listing,,Single Family Residential,420 Sea Grove Way #24,Port St. Joe,FL,32456,599900,4,3.0,Windmark,2197,5663,2022,1,273,200,Active,December-17-2022 11:00 AM,December-17-2022 06:00 PM,https://www.redfin.com/FL/Port-St-Joe/420-Sea-Grove-Way-32456/unit-24/home/181413551,CPARMLS,731694,N,Y,29.8835742,-85.3514011
MLS Listing,,Single Family Residential,4009 Oak Forest Dr,Panama City,FL,32404,362900,4,3.0,Riverside Ph I,2670,7841,2006,1,136,110,Active,,,https://www.redfin.com/FL/Panama-City/4009-Oak-Forest-Dr-32404/home/117369822,CPARMLS,733849,N,Y,30.2326849,-85.5970008
MLS Listing,,Single Family Residential,396 Sea Grove Way #21,Port St. Joe,FL,32456,599900,4,3.0,Windmark,2197,5663,2022,1,273,200,Active,,,https://www.redfin.com/FL/Port-St-Joe/396-Sea-Grove-Way-32456/unit-21/home/183039294,CPARMLS,734923,N,Y,29.8839479,-85.3516015
MLS Listing,,Vacant Land,0 Lure Ln,Sneads,FL,32460,80000,,,No Named Subdivision,,436036,,1,,,Active,,,https://www.redfin.com/FL/SNEADS/LURE-LN-32460/home/142199546,CPARMLS,735408,N,Y,30.733238,-84.933101
MLS Listing,,Vacant Land,83 Conch St,Port St. Joe,FL,32456,105000,,,Sunset Village,,12197,,1,,67,Active,,,https://www.redfin.com/FL/Port-St-Joe/83-Conch-St-32456/home/181476544,CPARMLS,731850,N,Y,29.8929381,-85.3535381
MLS Listing,,Single Family Residential,900 Backwater Rd Lot 17,Port St. Joe,FL,32456,429900,4,2.0,Windmark,1835,4792,2022,1,234,200,Active,,,https://www.redfin.com/FL/Cape-San-Blas/900-Backwater-Rd-32456/unit-17/home/182751164,CPARMLS,734450,N,Y,29.8692122,-85.3405831
MLS Listing,,Single Family Residential,963 Hwy 277,Chipley,FL,32428,259900,3,2.0,[No Recorded Subdiv],1881,52272,1981,1,138,,Active,,,https://www.redfin.com/FL/Chipley/963-FL-277-32428/home/139205900,CPARMLS,730533,N,Y,30.7623503,-85.5723658
MLS Listing,,Vacant Land,369-4 Elkcam Blvd,Chipley,FL,32428,15000,,,Sunny Hills Unit 6,,30056,,1,,,Active,,,https://www.redfin.com/FL/Chipley/369-Elkcam-Blvd-32428/home/178377042,CPARMLS,616454,N,Y,30.5682235,-85.487763
MLS Listing,,Vacant Land,0 Bethlehem Rd,Cottondale,FL,32431,199000,,,Alford,,1228392,,1,,,Active,,,https://www.redfin.com/FL/COTTONDALE/BETHLEHEM-RD-32431/home/162547152,CPARMLS,733590,N,Y,30.729142,-85.352617
MLS Listing,,Vacant Land,15 Magnolia Blossom Ln,Marianna,FL,32446,39900,,,Magnolia Oaks,,30056,,1,,,Active,,,https://www.redfin.com/FL/Unknown/15-Magnolia-Blossom-Ln-32446/home/178375238,CPARMLS,640718,N,Y,30.774421,-85.164659
MLS Listing,,Single Family Residential,894 Backwater Rd #18,Port St. Joe,FL,32456,492252,4,3.0,Windmark,2197,5663,2022,1,224,200,Active,,,https://www.redfin.com/FL/Cape-San-Blas/894-Backwater-Rd-32456/unit-18/home/183041260,CPARMLS,734936,N,Y,29.8690679,-85.3405822
MLS Listing,,Single Family Residential,818 Backwater Rd #30,Port St. Joe,FL,32456,479900,4,3.0,Windmark,2197,5663,2022,1,218,200,Active,,,https://www.redfin.com/FL/Cape-San-Blas/818-Backwater-Rd-32456/unit-30/home/182265378,CPARMLS,733271,N,Y,29.8672798,-85.3402697
MLS Listing,,Single Family Residential,4084 Little Dothan Rd,Sneads,FL,32460,287500,2,2.0,No Named Subdivision,2058,16988,1962,1,140,,Active,,,https://www.redfin.com/FL/Sneads/4084-Little-Dothan-Rd-32460/home/142193244,CPARMLS,735445,N,Y,30.8600383,-84.9452747
MLS Listing,,Single Family Residential,460 Sea Grove Way #29,Port St. Joe,FL,32456,639900,4,3.0,Windmark,2197,4792,2022,1,291,200,Active,,,https://www.redfin.com/FL/Port-St-Joe/460-Sea-Grove-Way-32456/unit-29/home/181414619,CPARMLS,731701,N,Y,29.8829286,-85.3510885
MLS Listing,,Vacant Land,Lot 13 Greenview Dr,Chipley,FL,32428,6995,,,Sunny Hills Unit 10,,10019,,1,,,Active,,,https://www.redfin.com/FL/Unknown/LOT-13-Greenview-Dr-32428/home/178388479,CPARMLS,724790,N,Y,30.556595,-85.533988
MLS Listing,,Vacant Land,00 Hwy 90,Chipley,FL,32428,39900,,,,,217800,,1,,,Active,,,https://www.redfin.com/FL/Chipley/00-Hwy-90-HWY-32428/home/178397769,CPARMLS,733231,N,Y,30.782334,-85.513196
MLS Listing,,Single Family Residential,794 Backwater Rd Lot 34,Port St. Joe,FL,32456,442081,4,2.0,Windmark,1835,4792,2022,1,241,200,Active,,,https://www.redfin.com/FL/Cape-San-Blas/794-Backwater-Rd-32456/unit-34/home/183045633,CPARMLS,734952,N,Y,29.8667476,-85.3400237
MLS Listing,,Vacant Land,000 Donnell Rd,Chipley,FL,32428,84900,,,No Named Subdivision,,287060,,1,,,Active,,,https://www.redfin.com/FL/CHIPLEY/DONNELL-RD-32428/home/139303229,CPARMLS,719048,N,Y,30.756314,-85.518594
MLS Listing,,Mobile/Manufactured Home,12728 Scott Rd,Fountain,FL,32438,150000,3,2.0,[No Recorded Subdiv],1152,283140,1998,1,130,,Active,,,https://www.redfin.com/FL/Fountain/12728-Scott-Rd-32438/home/117478262,CPARMLS,728142,N,Y,30.540452,-85.4083035
MLS Listing,,Vacant Land,000 Woodgate Way,Marianna,FL,32446,37995,,,Indian Springs Golf Course,,45302,,1,,,Active,,,https://www.redfin.com/FL/MARIANNA/WOODGATE-WAY-32446/home/142210849,CPARMLS,690215,N,Y,30.767954,-85.164839
MLS Listing,,Vacant Land,130B Santa Anna St,Port St. Joe,FL,32456,249900,,,No Named Subdivision,,14810,,1,,,Active,,,https://www.redfin.com/FL/Port-St-Joe/130-Santa-Anna-St-32456/home/170429582,CPARMLS,731812,N,Y,29.8989937,-85.3621282
MLS Listing,,Single Family Residential,2485 Highway 71,Marianna,FL,32448,145000,3,1.0,No Named Subdivision,1092,17468,1956,1,133,,Active,,,https://www.redfin.com/FL/Marianna/2485-FL-71-32448/home/142190401,CPARMLS,682052,N,Y,30.7458587,-85.1874411
MLS Listing,,Vacant Land,11 Gulf Terrace Ln,Mexico Beach,FL,32456,109900,,,No Named Subdivision,,10890,,1,,50,Active,,,https://www.redfin.com/FL/Port-St-Joe/11-Gulf-Terrace-Ln-32456/home/183357056,CPARMLS,735455,N,Y,29.8956488,-85.3548802
MLS Listing,,Vacant Land,XXX Forrest Ave Lot 4 and 5,Chipley,FL,32428,34999,,,[No Recorded Subdiv],,42689,,1,,,Active,,,https://www.redfin.com/FL/Chipley/4-Forrest-Ave-32428/unit-4-and-5/home/181292810,CPARMLS,731428,N,Y,30.7748287,-85.5390636
MLS Listing,,Vacant Land,TBD Oak Dr,Marianna,FL,32446,36000,,,Indian Springs Golf Course,,30056,,1,,,Active,,,https://www.redfin.com/FL/Unknown/TBD-Oak-Dr-32446/home/182735518,CPARMLS,734416,N,Y,30.773037,-85.161801
MLS Listing,,Vacant Land,Lot 7&8 NW Lake Mckenzie Rd,Altha,FL,32421,25000,,,No Named Subdivision,,19602,,1,,,Active,,,https://www.redfin.com/FL/Unknown/Lot-7-8-Lake-McKenzie-Blvd-32421/home/182119819,CPARMLS,732999,N,Y,30.505841,-85.306555
MLS Listing,,Vacant Land,00 Hwy 73,Marianna,FL,32446,2618000,,,[No Recorded Subdiv],,20734560,,1,,,Active,,,https://www.redfin.com/FL/Marianna/0-Florida-73-32448/home/178377216,CPARMLS,721568,N,Y,30.5652184,-85.1835211
MLS Listing,,Vacant Land,0000 NW Porter Grade Rd,Altha,FL,32421,159000,,,[No Recorded Subdiv],,1089000,,1,,,Active,,,https://www.redfin.com/FL/ALTHA/NW-PORTER-GRADE-RD-32421/home/127847739,CPARMLS,730921,N,Y,30.514973,-85.313226
MLS Listing,,Single Family Residential,1191 Shores Rd,Alford,FL,32420,385000,7,3.5,Round Lake,3935,290110,1925,1,98,,Active,,,https://www.redfin.com/FL/Alford/1191-Shores-Rd-32420/home/142189405,CPARMLS,723869,N,Y,30.656785,-85.3910889
MLS Listing,,Vacant Land,8 Yvette Dr,Alford,FL,32420,14900,,,Compass Lake In The Hills,,69696,,1,,,Active,,,https://www.redfin.com/FL/Unknown/8-Yvette-Dr-32420/home/181074895,CPARMLS,730946,N,Y,30.596976,-85.347191
MLS Listing,,Vacant Land,000 Davis Dr,Marianna,FL,32446,35000,,,[No Recorded Subdiv],,87120,,1,,,Active,,,https://www.redfin.com/FL/Unknown/Davis-Dr-32446/home/178388920,CPARMLS,727919,N,Y,30.761725,-85.18681
MLS Listing,,Single Family Residential,2 S Highway 73,Marianna,FL,32448,4000000,3,4.5,[No Recorded Subdiv],4050,13068000,1996,1,988,,Active,,,https://www.redfin.com/FL/Marianna/2-Florida-73-32448/home/178812661,CPARMLS,727720,N,Y,30.5652184,-85.1835211
MLS Listing,,Condo/Co-op,4000 W Highway 98 Unit B3 206,Mexico Beach,FL,32456,1450000,3,3.0,No Named Subdivision,2315,,2007,1,626,936,Active,,,https://www.redfin.com/FL/Mexico-Beach/4000-U-S-98-32456/unit-B3-206/home/178385422,CPARMLS,732364,N,Y,29.953041,-85.425287
MLS Listing,,Vacant Land,0 W Hwy 98,Port St. Joe,FL,32456,590000,,,Highland View,,18165,,1,,,Active,,,https://www.redfin.com/FL/PORT-ST-JOE/HWY-98-32456/home/138428676,CPARMLS,727447,N,Y,29.84317,-85.32146
MLS Listing,,Vacant Land,Lot 2 Franklin Dr,Fountain,FL,32438,59950,,,No Named Subdivision,,435600,,1,,,Active,,,https://www.redfin.com/FL/Unknown/Lot-2-Franklin-Dr-32438/home/178376701,CPARMLS,714932,N,Y,30.491567,-85.471632
MLS Listing,,Vacant Land,Lot 35 Gambier Dr,Alford,FL,32420,8500,,,Compass Lake Hills Unit 6,,43560,,1,,10,Active,,,https://www.redfin.com/FL/Unknown/Lot-35-Gambier-Dr-32420/home/181841178,CPARMLS,732392,N,Y,30.627735,-85.354441
MLS Listing,,Vacant Land,0 Dove Dr,Marianna,FL,32448,9500,,,Compass Lake Hills Unit 3,,54886,,1,,,Active,,,https://www.redfin.com/FL/MARIANNA/DOVE-DR-32448/home/142206649,CPARMLS,715772,N,Y,30.614509,-85.324679
MLS Listing,,Vacant Land,0 Jefferson Ave,Alford,FL,32420,18000,,,Compass Lake Hills Unit 5,,49658,,1,,,Active,,,https://www.redfin.com/FL/ALFORD/JEFFERSON-AVE-32420/home/142231506,CPARMLS,733764,N,Y,30.625386,-85.33992
MLS Listing,,Vacant Land,000 Fairview Rd,Alford,FL,32420,8500,,,Compass Lake Hills Unit 2,,51401,,1,,8,Active,,,https://www.redfin.com/FL/ALFORD/FAIRVIEW-RD-32420/home/142209619,CPARMLS,721475,N,Y,30.604163,-85.327525
MLS Listing,,Single Family Residential,3540 Cedar Park Ln,Panama City,FL,32404,399000,4,2.0,Cedar Park Ph II,1994,9000,2022,1,200,42,Active,,,https://www.redfin.com/FL/Panama-City/3540-Cedar-Park-Ln-32404/home/144444457,CPARMLS,731384,N,Y,30.2118507,-85.5910665
MLS Listing,,Vacant Land,12200 1st St,Fountain,FL,32438,13900,,,[No Recorded Subdiv],,19602,,1,,,Active,,,https://www.redfin.com/FL/Fountain/12200-1st-St-32438/home/168025569,CPARMLS,724251,N,Y,30.475036,-85.420466
MLS Listing,,Vacant Land,00 Thunder,Sneads,FL,32460,65000,,,[No Recorded Subdiv],,527076,,1,,,Active,,,https://www.redfin.com/FL/SNEADS/THUNDER-RD-32460/home/142222163,CPARMLS,735497,N,Y,30.878964,-85.000052
MLS Listing,,Vacant Land,00 Obert Rd,Cottondale,FL,32431,795000,,,[No Recorded Subdiv],,9029988,,1,,,Active,,,https://www.redfin.com/FL/COTTONDALE/OBERT-RD-32431/home/142208077,CPARMLS,720986,N,Y,30.759489,-85.386188
MLS Listing,,Vacant Land,0 View Dr,Alford,FL,32420,75000,,,Compass Lake In The Hills,,43560,,1,,,Active,,,https://www.redfin.com/FL/ALFORD/VIEW-DR-32420/home/142217474,CPARMLS,728726,N,Y,30.641857,-85.330359
MLS Listing,,Single Family Residential,4091 Little Dothan Rd,Sneads,FL,32460,73000,2,1.0,No Named Subdivision,624,3311,1958,1,117,,Active,,,https://www.redfin.com/FL/Sneads/4091-Little-Dothan-Rd-32460/home/142209894,CPARMLS,728653,N,Y,30.8608836,-84.9451527
MLS Listing,,Single Family Residential,1123 Iola Dr,Chipley,FL,32428,146000,5,1.5,No Named Subdivision,2425,25700,1982,1,60,,Active,,,https://www.redfin.com/FL/Chipley/1123-Iola-Dr-32428/home/139293097,CPARMLS,733219,N,Y,30.7697785,-85.5262803
MLS Listing,,Vacant Land,00 Riverview Rd,Marianna,FL,32446,15000,,,,,24089,,1,,,Active,,,https://www.redfin.com/FL/MARIANNA/RIVERVIEW-RD-32446/home/142197356,CPARMLS,720705,N,Y,30.78663,-85.224491
MLS Listing,,Vacant Land,00 River Forest Rd,Marianna,FL,32446,35000,,,[No Recorded Subdiv],,50965,,1,,,Active,,,https://www.redfin.com/FL/MARIANNA/RIVER-FOREST-RD-32446/home/142210255,CPARMLS,719589,N,Y,30.795494,-85.226768
MLS Listing,,Single Family Residential,806 Backwater Rd Lot 32,Port St. Joe,FL,32456,442081,4,2.0,Windmark,1835,4792,2022,1,241,200,Active,,,https://www.redfin.com/FL/Cape-San-Blas/806-Backwater-Rd-32456/unit-32/home/183045550,CPARMLS,734951,N,Y,29.867004,-85.3401721
MLS Listing,,Vacant Land,Lot 16 Westbrook Dr,Chipley,FL,32428,29900,,,Sunny Hills,,37462,,1,,,Active,,,https://www.redfin.com/FL/Unknown/Lot-16-Westbrook-Dr-32428/home/178377614,CPARMLS,729121,N,Y,30.575627,-85.579311
MLS Listing,,Vacant Land,2676 Highway 231,Cottondale,FL,32431,449900,,,No Named Subdivision,,653400,,1,,,Active,,,https://www.redfin.com/FL/Cottondale/2676-Highway-231-32431/home/178376894,CPARMLS,707564,N,Y,30.761125,-85.377068
MLS Listing,,Single Family Residential,174 Pond Cypress Cv #79,Port St. Joe,FL,32456,549900,4,3.0,Windmark,2197,5663,2022,1,250,200,Active,,,https://www.redfin.com/FL/Port-St-Joe/174-Pond-Cypress-Cv-32456/unit-79/home/183040167,CPARMLS,734932,N,Y,29.8817986,-85.3494853
MLS Listing,,Condo/Co-op,4000 W Highway 98 Unit B3103,Mexico Beach,FL,32456,525000,1,2.0,No Named Subdivision,1093,,2007,1,480,849,Active,,,https://www.redfin.com/FL/Mexico-Beach/4000-U-S-98-32456/unit-B3-103/home/178409931,CPARMLS,735096,N,Y,29.953041,-85.425287
MLS Listing,,Vacant Land,116 7th St,Mexico Beach,FL,32456,295000,,,No Named Subdivision,,4792,,1,,,Active,,,https://www.redfin.com/FL/Mexico-Beach/116-7th-St-32456/home/137890768,CPARMLS,733237,N,Y,29.9378532,-85.3991301
MLS Listing,,Single Family Residential,2920 Noland St,Marianna,FL,32446,325000,4,2.5,[No Recorded Subdiv],2405,19994,1957,1,135,,Active,,,https://www.redfin.com/FL/Marianna/2920-Noland-St-32446/home/142229264,CPARMLS,728308,N,Y,30.7774814,-85.2209302
MLS Listing,,Single Family Residential,774 Backwater Rd Lot 37,Port St. Joe,FL,32456,634247,5,3.0,Windmark,2511,5227,2022,1,253,200,Active,,,https://www.redfin.com/FL/Cape-San-Blas/774-Backwater-Rd-32456/unit-37/home/182275999,CPARMLS,733311,N,Y,29.8663438,-85.339723
MLS Listing,,Single Family Residential,222 Seagrass Cir,Port St. Joe,FL,32456,1449900,4,4.0,Seagrass,3234,14462,2006,1,448,129,Active,,,https://www.redfin.com/FL/Port-St-Joe/222-Seagrass-Cir-32456/home/138457622,CPARMLS,730892,N,Y,29.7096694,-85.3808533
MLS Listing,,Vacant Land,0 Carters Mill Rd,Marianna,FL,32446,100000,,,[No Recorded Subdiv],,19166,,1,,,Active,,,https://www.redfin.com/FL/MARIANNA/CARTERS-MILL-RD-32446/home/142222178,CPARMLS,730123,N,Y,30.78621,-85.243726
MLS Listing,,Vacant Land,0 Goodman Hill Rd Lot 45,Chipley,FL,32428,15000,,,Sunny Hills Unit 7,,21344,,1,,,Active,,,https://www.redfin.com/FL/Unknown/Goodman-Hill-Rd-32428/unit-45/home/178376880,CPARMLS,708721,N,Y,30.596483,-85.547466
MLS Listing,,Vacant Land,0 Butler Rd,Greenwood,FL,32443,229900,,,[No Recorded Subdiv],,1176120,,1,,,Active,,,https://www.redfin.com/FL/Greenwood/0-Butler-RD-32443/home/178377306,CPARMLS,720952,N,Y,30.806188,-85.067106
MLS Listing,,Vacant Land,0 Dumont Ave Lot 6,Chipley,FL,32428,15000,,,Sunny Hills Unit 9,,10019,,1,,,Active,,,https://www.redfin.com/FL/Unknown/Dumont-Ave-32428/unit-6/home/178376883,CPARMLS,708711,N,Y,30.597422,-85.566957
MLS Listing,,Single Family Residential,17023 NE State Road 65,Hosford,FL,32334,259000,3,2.0,No Named Subdivision,1962,20996,1960,1,132,,Active,,,https://www.redfin.com/FL/Hosford/17023-NE-State-Rd-65-32334/home/142352990,CPARMLS,728532,N,Y,30.386826,-84.798723
MLS Listing,,Vacant Land,1 Pebble Beach Ave,Port St. Joe,FL,32456,124900,,,Surfside Estates Unit 1,,10890,,1,,27,Active,,,https://www.redfin.com/FL/Unknown/1-Pebble-Beach-Ave-32456/home/181453908,CPARMLS,731797,N,Y,29.683679,-85.323368
MLS Listing,,Mobile/Manufactured Home,10535 Brooks Rd,Fountain,FL,32438,94000,3,2.0,No Named Subdivision,1152,217800,1968,1,82,,Active,,,https://www.redfin.com/FL/Fountain/10535-Brooks-Rd-32438/home/117003249,CPARMLS,734201,N,Y,30.530165,-85.4544978
MLS Listing,,Single Family Residential,882 Backwater Rd #20,Port St. Joe,FL,32456,492252,4,3.0,Windmark,2197,5663,2022,1,224,200,Active,,,https://www.redfin.com/FL/Cape-San-Blas/882-Backwater-Rd-32456/unit-20/home/183041388,CPARMLS,734937,N,Y,29.8687795,-85.3405896
MLS Listing,,Single Family Residential,435 Sea Grove Way Lot 62,Port St. Joe,FL,32456,599900,5,3.0,Windmark,2511,4792,2022,1,239,200,Active,,,https://www.redfin.com/FL/Port-St-Joe/492-Seagrove-Way-32456/unit-62/home/182265590,CPARMLS,733274,N,Y,29.8820782,-85.3509963
MLS Listing,,Vacant Land,123 White Blossom Trl,Port St. Joe,FL,32456,159900,,,,,10890,,1,,31,Active,,,https://www.redfin.com/FL/Port-St-Joe/123-White-Blossom-Trl-32456/home/138436283,CPARMLS,733424,N,Y,29.897157,-85.352497
MLS Listing,,Single Family Residential,3836 Redbud Way,Panama City,FL,32404,341466,4,3.0,College Station Phase 1,2005,7405,2021,1,170,42,Active,,,https://www.redfin.com/FL/Panama-City/3836-Redbud-Way-32404/home/174020916,CPARMLS,716010,N,Y,30.2168591,-85.5860887
MLS Listing,,Vacant Land,Lot 6 Westbrook Dr,Chipley,FL,32428,25900,,,Sunny Hills,,16553,,1,,,Active,,,https://www.redfin.com/FL/Unknown/Lot-6-Westbrook-Dr-32428/home/178399416,CPARMLS,728433,N,Y,30.571745,-85.580559
MLS Listing,,Vacant Land,0 Dry Creek Rd,Marianna,FL,32448,140000,,,[No Recorded Subdiv],,1524600,,1,,,Active,,,https://www.redfin.com/FL/MARIANNA/DRY-CREEK-RD-32448/home/142231133,CPARMLS,725347,N,Y,30.677589,-85.226824
MLS Listing,,Vacant Land,Lot  26 Ardenwood Dr,Chipley,FL,32428,5000,,,Sunny Hills,,10019,,1,,,Active,,,https://www.redfin.com/FL/Unknown/Lot-26-Ardenwood-Dr-32428/home/178712705,CPARMLS,723929,N,Y,30.592203,-85.541837
MLS Listing,,Condo/Co-op,1120 W 15th St Unit 1-B,Panama City,FL,32401,269000,2,2.0,Palmetto Plantation,929,,2007,1,290,333,Active,,,https://www.redfin.com/FL/Mexico-Beach/1120-15th-St-32456/unit-1B/home/118072685,CPARMLS,734395,N,Y,29.943065,-85.399877
MLS Listing,,Vacant Land,2 lots Elkcam Blvd. & Trellis Dr,Chipley,FL,32428,34000,,,Sunny Hills Unit 6,,26572,,1,,,Active,,,https://www.redfin.com/FL/Unknown/2-lots-Elkcam-Blvd-32428/home/179102436,CPARMLS,734534,N,Y,30.580455,-85.58745
MLS Listing,,Vacant Land,55 ACRE Carters Mill Rd,Marianna,FL,32446,329900,,,No Named Subdivision,,2404948,,1,,,Active,,,https://www.redfin.com/FL/Marianna/55-ACRE-Carters-Mill-Rd-32446/home/180407417,CPARMLS,729220,N,Y,30.7981,-85.241111
MLS Listing,,Vacant Land,0 Castillo Dr,Alford,FL,32420,10000,,,Compass Lake Hills Unit 5,,69696,,1,,,Active,,,https://www.redfin.com/FL/ALFORD/CASTILLO-DR-32420/home/142195221,CPARMLS,732918,N,Y,30.644975,-85.34722
MLS Listing,,Vacant Land,110 36th St,Mexico Beach,FL,32410,589900,,,No Named Subdivision,,7492,,1,,,Active,,,https://www.redfin.com/FL/Port-St-Joe/110-S-36th-St-32456/home/117641044,CPARMLS,724445,N,Y,29.94978,-85.423273
MLS Listing,,Vacant Land,9 Gap Blvd,Chipley,FL,32428,65000,,,Sunny Hills Unit 4,,24829,,1,,,Active,,,https://www.redfin.com/FL/Unknown/9-Gap-Blvd-32428/home/178377043,CPARMLS,505086,N,Y,30.540435,-85.574373
MLS Listing,,Vacant Land,413 Meadowview Ter Lot 7,Lynn Haven,FL,32444,225000,,,The Meadows & The Pointe,,21257,,1,,,Active,,,https://www.redfin.com/FL/Lynn-Haven/413-Meadowview-Ter-32444/unit-7/home/178377008,CPARMLS,665788,N,Y,30.242234,-85.602434
MLS Listing,,Vacant Land,Lot 3 Shepp Dr,Chipley,FL,32428,17900,,,Chipley,,43996,,1,,,Active,,,https://www.redfin.com/FL/Chipley/LOT-3-3rd-St-32428/home/178384845,CPARMLS,726254,N,Y,30.804872,-85.516993
MLS Listing,,Vacant Land,,Chipley,FL,32428,20000,,,,,29664,,1,,,Active,,,https://www.redfin.com/FL/Unknown/Undisclosed-address-32428/home/182028764,CPARMLS,732843,N,Y,30.53547,-85.592555
MLS Listing,,Vacant Land,Lot 6 Washington Blvd,Chipley,FL,32428,6000,,,Sunny Hills Unit 7,,15625,,1,,,Active,,,https://www.redfin.com/FL/Unknown/Lot-6-Washington-Blvd-32428/home/182616341,CPARMLS,734224,N,Y,30.592924,-85.546904
MLS Listing,,Single Family Residential,127 Pond Cypress Cv #101,Port St. Joe,FL,32456,479900,4,3.0,Windmark,2197,5663,2022,1,218,200,Active,,,https://www.redfin.com/FL/Port-St-Joe/127-Pond-Cypress-Cv-32456/unit-101/home/183040367,CPARMLS,734934,N,Y,29.8824701,-85.3493956
MLS Listing,,Vacant Land,Lot 1 Babcock St,Chipley,FL,32428,12000,,,Sunny Hills Unit 19,,11021,,1,,,Active,,,https://www.redfin.com/FL/Unknown/Lot-1-Babcock-St-32428/home/182816174,CPARMLS,734565,N,Y,30.542209,-85.599293
MLS Listing,,Single Family Residential,395 Sea Grove Way Lot 57,Port St. Joe,FL,32456,599900,5,3.0,Windmark,2511,5663,2022,1,239,200,Active,,,https://www.redfin.com/FL/Port-St-Joe/395-Sea-Grove-Way-32456/unit-57/home/183039362,CPARMLS,734925,N,Y,29.8841271,-85.3511925
MLS Listing,,Single Family Residential,972 Backwater Rd #4,Port St. Joe,FL,32456,459900,4,3.0,Windmark,2197,4792,2022,1,209,200,Active,,,https://www.redfin.com/FL/Cape-San-Blas/972-Backwater-Rd-32456/unit-4/home/181414965,CPARMLS,731707,N,Y,29.8642361,-85.3387893
MLS Listing,,Single Family Residential,261 Pond Cypress Cv Lot 90,Port St. Joe,FL,32456,457835,4,2.0,Windmark,1835,4792,2022,1,250,200,Active,,,https://www.redfin.com/FL/Port-St-Joe/261-Pond-Cypress-Cv-32456/unit-90/home/181410698,CPARMLS,731673,N,Y,29.881177,-85.348464
MLS Listing,,Mobile/Manufactured Home,2181 Indiana Ave,Grand Ridge,FL,32442,224900,3,2.0,No Named Subdivision,2049,40511,2004,1,110,,Active,,,https://www.redfin.com/FL/Grand-Ridge/2181-Indiana-Ave-32442/home/142252042,CPARMLS,735363,N,Y,30.721277,-84.9967532
MLS Listing,,Single Family Residential,233 Charles Cor,Mexico Beach,FL,32456,749000,3,2.5,Grand Isle S-Mexbch 15,1872,8712,2007,1,400,,Active,,,https://www.redfin.com/FL/MEXICO-BEACH/Unknown-32410/home/117075948,CPARMLS,733936,N,Y,29.944789,-85.407306
MLS Listing,,Single Family Residential,4190 Kelson Ave,Marianna,FL,32446,59900,2,1.0,[No Recorded Subdiv],1274,24394,1945,1,47,,Active,,,https://www.redfin.com/FL/Marianna/4190-Kelson-Ave-32446/home/180775071,CPARMLS,730251,N,Y,30.7844454,-85.2465947
MLS Listing,,Single Family Residential,746 Backwater Rd #42,Port St. Joe,FL,32456,560252,4,3.0,Windmark,2197,5227,2022,1,255,200,Active,,,https://www.redfin.com/FL/Cape-San-Blas/746-Backwater-Rd-32456/unit-42/home/182483859,CPARMLS,733868,N,Y,29.8657824,-85.3392948
MLS Listing,,Vacant Land,213 E Sugar Sand,Mexico Beach,FL,32456,359000,,,Sugar Sand,,9148,,1,,208,Active,,,https://www.redfin.com/FL/Cape-San-Blas/213-Sugar-Sands-E-32456/home/168026304,CPARMLS,735245,N,Y,29.957269,-85.444348
MLS Listing,,Vacant Land,1100 Hwy 98,Mexico Beach,FL,32410,1500000,,,North Lake Estates,,16988,,1,,,Active,,,https://www.redfin.com/FL/Mexico-Beach/1100-U-S-98-32456/home/179399989,CPARMLS,726474,N,Y,29.9390776,-85.404846
MLS Listing,,Single Family Residential,105 N Shoreview Dr,Panama City,FL,32404,620000,5,3.0,Village Of Mill Bayou/Shoreline Village Ph 1A,3038,8364,2018,1,204,86,Active,,,https://www.redfin.com/FL/Panama-City/105-N-Shoreview-Dr-32404/home/144444368,CPARMLS,732985,N,Y,30.2409775,-85.598744
MLS Listing,,Single Family Residential,130 N Shoreview Dr,Panama City,FL,32404,342500,4,2.0,Village of Mill Bayou/Shoreline Village Ph 1C,1768,6534,2018,1,194,86,Active,,,https://www.redfin.com/FL/Panama-City/130-N-Shoreview-Dr-32404/home/144444417,CPARMLS,733387,N,Y,30.2417384,-85.5971914
MLS Listing,,Vacant Land,4015 Oak Forest Dr,Panama City,FL,32404,105000,,,[No Recorded Subdiv],,8712,,1,,63,Active,,,https://www.redfin.com/FL/Panama-City/4015-Oak-Forest-Dr-32404/home/117379143,CPARMLS,729132,N,Y,30.2324687,-85.5963728
MLS Listing,,Single Family Residential,6123 Pippin Rd,Panama City,FL,32404,600000,4,2.5,Douglas Farms,3178,52620,2009,1,189,,Active,,,https://www.redfin.com/FL/Panama-City/6123-Pippin-Rd-32404/home/117442013,CPARMLS,730103,N,Y,30.247432,-85.5513387
MLS Listing,,Single Family Residential,376 Tide Water Dr,Mexico Beach,FL,32456,599000,4,2.0,Windmark,1768,10019,2020,1,339,200,Active,,,https://www.redfin.com/FL/Port-St-Joe/376-Tide-Water-Dr-32456/home/170429635,CPARMLS,735457,N,Y,29.8549626,-85.3361083
MLS Listing,,Vacant Land,5835 N Highway 231,Panama City,FL,32404,1500000,,,No Named Subdivision,,141570,,1,,,Active,,,https://www.redfin.com/FL/Panama-City/5835-U-S-231-32404/home/178377040,CPARMLS,627303,N,Y,30.249837,-85.557985
MLS Listing,,Single Family Residential,207 Cristins Curve Rd,Port St. Joe,FL,32456,459000,3,2.0,Gulfaire,1601,11761,2019,1,287,26,Active,,,https://www.redfin.com/FL/Port-St-Joe/207-Cristin-s-Curve-Rd-32456/home/138431142,CPARMLS,733821,N,Y,29.9130123,-85.3706835
MLS Listing,,Vacant Land,17 Argonaut Ln,Port St. Joe,FL,32456,475000,,,No Named Subdivision,,6098,,1,,,Active,,,https://www.redfin.com/FL/Unknown/17-Argonaut-Ln-32456/home/182206799,CPARMLS,733187,N,Y,29.921881,-85.384313
MLS Listing,,Single Family Residential,8149 W Hwy 98,Port St. Joe,FL,32456,5200000,8,10.0,No Named Subdivision,4705,23087,2014,1,1105,,Active,,,https://www.redfin.com/FL/Port-St-Joe/8149-W-Hwy-98-32456/home/138439443,CPARMLS,729206,N,Y,29.9091701,-85.3726797
MLS Listing,,Condo/Co-op,800 E Highway 98 #407,Mexico Beach,FL,32456,549000,1,2.0,Paradise Shores,1006,,2007,1,546,417,Active,,,https://www.redfin.com/FL/Mexico-Beach/800-U-S-98-32456/unit-407/home/178397489,CPARMLS,724193,N,Y,29.9371981,-85.4020032
MLS Listing,,Single Family Residential,149 Mosaic Dr,Port St. Joe,FL,32456,334900,3,2.0,[No Recorded Subdiv],1566,,2022,1,214,133,Active,,,https://www.redfin.com/FL/PORT-SAINT-JOE/149-MOSAIC-DR-32456/home/177360428,CPARMLS,733802,N,Y,29.79108,-85.285891
MLS Listing,,Single Family Residential,127 Crane Dr,Port St. Joe,FL,32456,599000,3,2.0,Heron Walk,2092,28750,2017,1,286,,Active,,,https://www.redfin.com/FL/Port-St-Joe/127-Crane-Dr-32456/home/138394303,CPARMLS,731230,N,Y,29.779331,-85.280171
MLS Listing,,Single Family Residential,812 Backwater Rd Lot 31,Port St. Joe,FL,32456,509900,5,3.0,Windmark,2511,5663,2022,1,203,200,Active,,,https://www.redfin.com/FL/Cape-San-Blas/812-Backwater-Rd-32456/unit-31/home/182265843,CPARMLS,733279,N,Y,29.8671419,-85.3402209
MLS Listing,,Vacant Land,,Chipley,FL,32428,20000,,,,,29969,,1,,,Active,,,https://www.redfin.com/FL/Unknown/Undisclosed-address-32428/home/182029071,CPARMLS,732848,N,Y,30.534619,-85.59259
MLS Listing,,Vacant Land,000 Cabrillo Ave,Alford,FL,32420,25000,,,[No Recorded Subdiv],,43560,,1,,,Active,,,https://www.redfin.com/FL/ALFORD/CABRILLO-AVE-32420/home/142206023,CPARMLS,732482,N,Y,30.657959,-85.343463
MLS Listing,,Ranch,3841 NW Twin Ponds Rd,Marianna,FL,32446,2950000,5,3.0,[No Recorded Subdiv],6864,23958000,2007,1,430,,Active,,,https://www.redfin.com/FL/Marianna/3841-NW-Twin-Ponds-RD-32446/home/182195289,CPARMLS,733166,N,Y,30.567652,-85.317423
MLS Listing,,Single Family Residential,9207 Lake Forest Dr,Youngstown,FL,32466,479900,3,2.0,[No Recorded Subdiv],1998,30056,1975,1,240,,Active,,,https://www.redfin.com/FL/Youngstown/9207-Lake-Forest-Dr-32466/home/117889699,CPARMLS,728681,N,Y,30.315767,-85.57735
MLS Listing,,Vacant Land,00 Gillette Ln,Marianna,FL,32448,35000,,,No Named Subdivision,,87120,,1,,,Active,,,https://www.redfin.com/FL/MARIANNA/GILLETTE-LN-32448/home/142213335,CPARMLS,725251,N,Y,30.769711,-85.257015
MLS Listing,,Vacant Land,00 Cherry Cir,Marianna,FL,32448,15000,,,Compass Lake Hills Unit 2,,43560,,1,,11,Active,,,https://www.redfin.com/FL/MARIANNA/CHERRY-CIR-32448/home/142187659,CPARMLS,731900,N,Y,30.58812,-85.314475
MLS Listing,,Ranch,7823 Weddington Rd,Sneads,FL,32460,999000,4,3.5,[No Recorded Subdiv],3140,3404214,1973,1,318,,Active,,,https://www.redfin.com/FL/Sneads/7823-Weddington-Rd-32460/home/142207937,CPARMLS,731027,N,Y,30.725416,-84.9430994
MLS Listing,,Vacant Land,0000 Mcduff Dr Lot 7,Alford,FL,32420,15000,,,Highlands At Compass Lake,,28793,,1,,,Active,,,https://www.redfin.com/FL/Unknown/McDuff-Dr-32420/unit-7/home/182757811,CPARMLS,734462,N,Y,30.598567,-85.359891
MLS Listing,,Vacant Land,lot 6 Madison Ln,Chipley,FL,32428,42950,,,Kiersten Heights,,43560,,1,,,Active,,,https://www.redfin.com/FL/Chipley/LOT-6-6th-St-32428/home/178378530,CPARMLS,709568,N,Y,30.669882,-85.579394
MLS Listing,,Single Family Residential,2945 Park St,Marianna,FL,32446,179000,4,2.0,No Named Subdivision,1271,16117,1957,1,141,,Active,,,https://www.redfin.com/FL/Marianna/2945-Park-St-32446/home/142216903,CPARMLS,732431,N,Y,30.7792462,-85.2232564
MLS Listing,,Single Family Residential,3003 5th St,Marianna,FL,32446,134900,2,1.0,North Highlands,840,5227,1942,1,161,,Active,,,https://www.redfin.com/FL/Marianna/3003-5th-St-32446/home/142222736,CPARMLS,731599,N,Y,30.7837704,-85.2379401
MLS Listing,,Vacant Land,11816 Hibiscus St,Fountain,FL,32438,9000,,,Green Hills West Section,,20037,,1,,,Active,,,https://www.redfin.com/FL/Fountain/11816-Hibiscus-St-32438/home/117063006,CPARMLS,654073,N,Y,30.47102,-85.428996
MLS Listing,,Vacant Land,12037 Hwy 20 Hwy,Youngstown,FL,32466,110000,,,Youngstown Plat,,52272,,1,,,Active,,,https://www.redfin.com/FL/Youngstown/12037-FL-20-32466/home/117070131,CPARMLS,715271,N,Y,30.436118,-85.424925
MLS Listing,,Vacant Land,00 Poinsetta St,Fountain,FL,32438,15000,,,Green Hills West Section,,7841,,1,,,Active,,,https://www.redfin.com/FL/FOUNTAIN/POINSETTIA-ST-32438/home/117472748,CPARMLS,729319,N,Y,30.478809,-85.428438
MLS Listing,,Vacant Land,0 Cardinal Ave,Fountain,FL,32438,7500,,,Caravana Manor 2nd Sec,,8000,,1,,,Active,,,https://www.redfin.com/FL/FOUNTAIN/CARDINAL-AVE-32438/home/117941999,CPARMLS,722963,N,Y,30.442492,-85.388991
MLS Listing,,Vacant Land,11930 Oleander St,Fountain,FL,32438,7500,,,Green Hills,,13504,,1,,,Active,,,https://www.redfin.com/FL/Fountain/11930-Oleander-St-32438/home/118317989,CPARMLS,734143,N,Y,30.4773433,-85.4266984
MLS Listing,,Vacant Land,0 Peacock Cir,Youngstown,FL,32466,92900,,,No Named Subdivision,,435600,,1,,,Active,,,https://www.redfin.com/FL/YOUNGSTOWN/PEACOCK-CIR-32466/home/139357599,CPARMLS,731615,N,Y,30.456901,-85.494375
MLS Listing,,Vacant Land,0000 S Silver Lake Rd,Fountain,FL,32438,55000,,,[No Recorded Subdiv],,217800,,1,,,Active,,,https://www.redfin.com/FL/FOUNTAIN/S-SILVER-LAKE-RD-32438/home/139224897,CPARMLS,734012,N,Y,30.470772,-85.488037
MLS Listing,,Vacant Land,001 Anderson Dr,Alford,FL,32420,8900,,,Compass Lake Hills Unit 6,,46609,,1,,,Active,,,https://www.redfin.com/FL/Unknown/001-Anderson-Dr-32420/home/179111502,CPARMLS,725366,N,Y,30.626896,-85.362425
MLS Listing,,Vacant Land,18133 Park Pl,Fountain,FL,32438,35000,,,[No Recorded Subdiv],,67500,,1,,,Active,,,https://www.redfin.com/FL/Fountain/18133-Park-Place-Rd-32438/home/117067966,CPARMLS,712180,N,Y,30.47658,-85.423335
MLS Listing,,Vacant Land,000 Hibiscus St,Fountain,FL,32438,7000,,,[No Recorded Subdiv],,13504,,1,,,Active,,,https://www.redfin.com/FL/FOUNTAIN/HIBISCUS-ST-32438/home/117068031,CPARMLS,733744,N,Y,30.471532,-85.426845
MLS Listing,,Vacant Land,000 Magnolia,Fountain,FL,32438,12500,,,[No Recorded Subdiv],,20038,,1,,,Active,,,https://www.redfin.com/FL/FOUNTAIN/MAGNOLIA-ST-32438/home/118243645,CPARMLS,716836,N,Y,30.476099,-85.42937
MLS Listing,,Vacant Land,00 Woodland Ave,Fountain,FL,32438,6500,,,Green Hills West Section,,13839,,1,,,Active,,,https://www.redfin.com/FL/FOUNTAIN/WOODLAND-AVE-32438/home/117063051,CPARMLS,735004,N,Y,30.477366,-85.428468
MLS Listing,,Vacant Land,0 E Hwy 20,Youngstown,FL,32466,9800,,,Caravana Estates,,22651,,1,,,Active,,,https://www.redfin.com/FL/YOUNGSTOWN/HWY-20-E-32466/home/117001162,CPARMLS,723774,N,Y,30.435392,-85.388783
MLS Listing,,Mobile/Manufactured Home,15425 Racetrack Rd,Youngstown,FL,32466,170000,1,1.0,No Named Subdivision,944,435600,2011,1,180,,Active,,,https://www.redfin.com/FL/Youngstown/15425-Racetrack-Rd-32466/home/118257101,CPARMLS,732305,N,Y,30.4271555,-85.4341521
MLS Listing,,Single Family Residential,15907 Crestline Rd,Fountain,FL,32438,130000,1,1.0,[No Recorded Subdiv],792,14810,2006,1,164,,Active,,,https://www.redfin.com/FL/Fountain/15907-Crestline-Rd-32438/home/117080545,CPARMLS,734524,N,Y,30.4361518,-85.3871418
MLS Listing,,Vacant Land,TBD NW Lake Mckenzie Shores Blvd,Altha,FL,32421,139900,,,Lake Mckenzie Shores,,892980,,1,,,Active,,,https://www.redfin.com/FL/Unknown/TBD-Lake-McKenzie-Blvd-32421/home/178377229,CPARMLS,721403,N,Y,30.517901,-85.31601
MLS Listing,,Vacant Land,1 - 32 Cr 274,Fountain,FL,32438,120000,,,No Named Subdivision,,152460,,1,,,Active,,,https://www.redfin.com/FL/Fountain/1-32-Cr-274-32438/home/179798670,CPARMLS,727666,N,Y,30.525663,-85.359004
MLS Listing,,Vacant Land,0 Americus Ave,Port St. Joe,FL,32456,350000,,,No Named Subdivision,,10890,,1,,,Active,,,https://www.redfin.com/FL/Unknown/Americus-Ave-32456/home/138414270,CPARMLS,732937,N,Y,29.903649,-85.364692
MLS Listing,,Single Family Residential,2915 Madison St,Marianna,FL,32446,395000,5,2.5,No Named Subdivision,4660,15682,1930,1,85,,Active,,,https://www.redfin.com/FL/Marianna/2915-Madison-St-32446/home/142209248,CPARMLS,728660,N,Y,30.7770358,-85.2258658
MLS Listing,,Vacant Land,00 Nortek Blvd,Alford,FL,32420,19500,,,Compass Lake Hills Unit 5,,43560,,1,,,Active,,,https://www.redfin.com/FL/ALFORD/NORTEK-BLVD-32420/home/142228841,CPARMLS,735448,N,Y,30.620074,-85.349575
MLS Listing,,Vacant Land,6001 N Highway 231,Panama City,FL,32404,650000,,,No Named Subdivision,,410335,,1,,,Active,,,https://www.redfin.com/FL/Panama-City/6001-U-S-231-32404/home/178377027,CPARMLS,635572,N,Y,30.25126,-85.555553
MLS Listing,,Vacant Land,,Kinard,FL,32449,150000,,,,,147015,,1,,,Active,,,https://www.redfin.com/FL/KINARD/Undisclosed-address-32449/home/127883093,CPARMLS,730622,N,Y,30.242759,-85.198344
MLS Listing,,Single Family Residential,7123 Penn Way,Panama City,FL,32404,290000,4,2.0,Olde Towne Village,1789,6098,2020,1,162,40,Active,,,https://www.redfin.com/FL/Panama-City/7123-Penn-Way-32404/home/168027324,CPARMLS,735197,N,Y,30.256862,-85.5276351
MLS Listing,,Single Family Residential,5801 Viking Way,Panama City,FL,32404,309900,4,2.0,Olde Towne Village,1787,39148,2021,1,173,40,Active,,,https://www.redfin.com/FL/PANAMA-CITY/5801-VIKING-WAY-32404/home/174020517,CPARMLS,729553,N,Y,30.253884,-85.526523
MLS Listing,,Vacant Land,0 Charles Dr,Panama City,FL,32404,45000,,,Stephens Estates,,14985,,1,,,Active,,,https://www.redfin.com/FL/PANAMA-CITY/CHARLES-DR-32404/home/117493307,CPARMLS,730845,N,Y,30.259177,-85.547457
MLS Listing,,Single Family Residential,4882 Loblolly Way Lot 13,Panama City,FL,32404,439900,5,3.0,Titus Park,2511,6970,2022,1,175,50,Active,,,https://www.redfin.com/FL/Callaway/4882-Loblolly-Way-32404/home/181790006,CPARMLS,732254,N,Y,30.2375289,-85.5854701
MLS Listing,,Single Family Residential,4873 Loblolly Way Lot 43,Panama City,FL,32404,499900,5,3.0,Titus Park,2511,6970,2022,1,199,200,Active,,,https://www.redfin.com/FL/Callaway/4873-Loblolly-Way-32404/home/182869324,CPARMLS,734653,N,Y,30.2375381,-85.5859822
MLS Listing,,Single Family Residential,4853 Loblolly Way Lot 48,Panama City,FL,32404,429900,4,3.0,Titus Park,2304,6970,2022,1,187,50,Active,,,https://www.redfin.com/FL/Callaway/4853-Loblolly-Way-32404/home/182389376,CPARMLS,733651,N,Y,30.2375381,-85.5859822
MLS Listing,,Single Family Residential,4724 Bayou Bluff Trl,Lynn Haven,FL,32444,649000,4,3.0,Grant's Mill Phase II,2716,13580,2020,1,239,54,Active,,,https://www.redfin.com/FL/Lynn-Haven/4724-Bayou-Bluff-Trl-32444/home/118238191,CPARMLS,729720,N,Y,30.236031,-85.600947
MLS Listing,,Vacant Land,0 Greenbrier Dr,Chipley,FL,32428,10000,,,Sunny Hills Unit 8,,12371,,1,,,Active,,,https://www.redfin.com/FL/CHIPLEY/GREENBRIER-DR-32428/home/139177285,CPARMLS,732000,N,Y,30.593908,-85.56262
MLS Listing,,Vacant Land,6621 Azalea St,Panama City,FL,32404,119000,,,No Named Subdivision,,18731,,1,,,Active,,,https://www.redfin.com/FL/Panama-City/6621-Azalea-St-32404/home/118438447,CPARMLS,698594,N,Y,30.2513944,-85.5408421
MLS Listing,,Vacant Land,0 Greenbrier Dr,Chipley,FL,32428,13000,,,Sunny Hills Unit 8,,14113,,1,,,Active,,,https://www.redfin.com/FL/CHIPLEY/GREENBRIER-DR-32428/home/139210153,CPARMLS,731999,N,Y,30.594037,-85.561801
MLS Listing,,Vacant Land,00 State Rd 73,Altha,FL,32421,185000,,,No Named Subdivision,,1476684,,1,,,Active,,,https://www.redfin.com/FL/Altha/00-State-Rd-73-32421/home/182445322,CPARMLS,733737,N,Y,30.540684,-85.188568
MLS Listing,,Vacant Land,0 Carters Mill Rd,Marianna,FL,32446,375000,,,[No Recorded Subdiv],,1202256,,1,,,Active,,,https://www.redfin.com/FL/MARIANNA/CARTERS-MILL-RD-32446/home/142196542,CPARMLS,730122,N,Y,30.792395,-85.241893
MLS Listing,,Vacant Land,0000 Windmill St,Chipley,FL,32428,8000,,,Sunny Hills,,9583,,1,,,Active,,,https://www.redfin.com/FL/CHIPLEY/WINDMILL-ST-32428/home/139255363,CPARMLS,725389,N,Y,30.598034,-85.544928
MLS Listing,,Single Family Residential,2912 Wynn St,Marianna,FL,32446,219000,3,2.0,[No Recorded Subdiv],1998,17468,1945,1,110,,Active,,,https://www.redfin.com/FL/Marianna/2912-Wynn-St-32446/home/142201800,CPARMLS,724664,N,Y,30.7771161,-85.2311044
MLS Listing,,Vacant Land,0 Cinnamon Dr,Marianna,FL,32448,29900,,,Compass Lake Hills Unit 3,,103673,,1,,,Active,,,https://www.redfin.com/FL/MARIANNA/CINNAMON-DR-32448/home/142227680,CPARMLS,728749,N,Y,30.599756,-85.289489
MLS Listing,,Single Family Residential,2219 Jewel Rd,Alford,FL,32420,110000,2,2.0,No Named Subdivision,1555,87120,1960,1,71,,Active,,,https://www.redfin.com/FL/Alford/2219-Jewell-Rd-32420/home/139293232,CPARMLS,734447,N,Y,30.671448,-85.441493
MLS Listing,,Vacant Land,0 Mcpherson Dr,Alford,FL,32420,45000,,,Compass Lake Highlands,,54886,,1,,,Active,,,https://www.redfin.com/FL/ALFORD/MCPHERSON-DR-32420/home/142203885,CPARMLS,714164,N,Y,30.600327,-85.355377
MLS Listing,,Townhouse,1016 N 15th St Unit 5A,Mexico Beach,FL,32410,299000,3,2.0,The Palms,1404,1307,2005,1,213,240,Active,,,https://www.redfin.com/FL/Mexico-Beach/1016-15th-St-32456/home/117614562,CPARMLS,732816,N,Y,29.9430129,-85.3980939
MLS Listing,,Vacant Land,0 Linden St,Chipley,FL,32428,10000,,,Sunny Hills Unit 8,,11718,,1,,,Active,,,https://www.redfin.com/FL/CHIPLEY/LINDEN-ST-32428/home/139273526,CPARMLS,732002,N,Y,30.59121,-85.563081
MLS Listing,,Single Family Residential,4110 Little Dothan Rd,Sneads,FL,32460,295000,3,1.5,Seminole Heights,1455,16553,1975,1,203,,Active,,,https://www.redfin.com/FL/Sneads/4110-Little-Dothan-Rd-32460/home/142225843,CPARMLS,733346,N,Y,30.8622036,-84.9445835
MLS Listing,,Vacant Land,Lot 10 Nortek Blvd,Marianna,FL,32448,12500,,,Compass Lake Hills Unit 3,,52272,,1,,,Active,,,https://www.redfin.com/FL/Marianna/Lot-10-Nortek-Blvd-32448/home/180105253,CPARMLS,728603,N,Y,30.610784,-85.319346
MLS Listing,,Vacant Land,0 Devonshire Dr,Chipley,FL,32428,10000,,,[No Recorded Subdiv],,10019,,1,,,Active,,,https://www.redfin.com/FL/CHIPLEY/DEVONSHIRE-DR-32428/home/139292049,CPARMLS,724915,N,Y,30.584859,-85.562257
MLS Listing,,Vacant Land,21826 Clarks Rd,Fountain,FL,32438,89000,,,No Named Subdivision,,407330,,1,,,Active,,,https://www.redfin.com/FL/Fountain/21826-Clarks-Rd-32438/home/118313349,CPARMLS,730641,N,Y,30.544212,-85.4065396
MLS Listing,,Vacant Land,0 5th St,Marianna,FL,32446,9500,,,No Named Subdivision,,33106,,1,,,Active,,,https://www.redfin.com/FL/MARIANNA/5TH-ST-32446/home/142230386,CPARMLS,732337,N,Y,30.800457,-85.237439
MLS Listing,,Single Family Residential,3269 Sears Rd,Chipley,FL,32428,70000,3,1.0,Buckhorn Creek,1304,76230,1990,1,54,,Active,,,https://www.redfin.com/FL/Chipley/3269-Sears-Rd-32428/home/139155187,CPARMLS,734064,N,Y,30.5912283,-85.4762503
MLS Listing,,Single Family Residential,1636 Old Ml Unit A,Chipley,FL,32428,105000,2,1.0,Chipley,858,217800,1994,1,122,,Active,,,https://www.redfin.com/FL/Chipley/1636-Old-Mill-Rd-32428/unit-A/home/182334686,CPARMLS,733490,N,Y,30.6604655,-85.5637331
MLS Listing,,Vacant Land,0 Banner Ln,Chipley,FL,32428,13000,,,Sunny Hills Unit 9,,13591,,1,,,Active,,,https://www.redfin.com/FL/CHIPLEY/BANNER-LN-32428/home/139298690,CPARMLS,731996,N,Y,30.59716,-85.570279
MLS Listing,,Single Family Residential,1714 Lyons Ln,Chipley,FL,32428,209999,3,2.0,[No Recorded Subdiv],1392,65340,1986,1,151,,Active,,,https://www.redfin.com/FL/Chipley/1714-Lyons-Ln-32428/home/139221918,CPARMLS,734799,N,Y,30.7048903,-85.485948
MLS Listing,,Vacant Land,LOT 6 Lot 6 Hale Ave,Chipley,FL,32428,24900,,,Sunny Hills Unit 11,,10019,,1,,,Active,,,https://www.redfin.com/FL/Unknown/LOT-6-Hale-Ave-32428/home/178377032,CPARMLS,375198,N,Y,30.521296,-85.51825
MLS Listing,,Vacant Land,2163 Wester Rd,Grand Ridge,FL,32442,160000,,,[No Recorded Subdiv],,,,1,,,Active,,,https://www.redfin.com/FL/Grand-Ridge/2163-Wester-Rd-32442/home/178377021,CPARMLS,647358,N,Y,30.7198924,-85.0134031
MLS Listing,,Vacant Land,Lot 30 Glenridge Cir,Chipley,FL,32428,4500,,,Sunny Hills,,10019,,1,,,Active,,,https://www.redfin.com/FL/Chipley/Lot-30-Glenridge-CIR-32428/home/182493707,CPARMLS,733898,N,Y,30.528732,-85.51448
MLS Listing,,Single Family Residential,130 Gulf Terrace Ln,Port St. Joe,FL,32456,439900,3,2.0,Highlands At St Joe Beach,1200,11326,2014,1,367,,Active,,,https://www.redfin.com/FL/Port-St-Joe/130-Gulf-Terrace-Ln-32456/home/138407240,CPARMLS,730926,N,Y,29.8948869,-85.352634
MLS Listing,,Vacant Land,Lot 34 Glenridge Cir,Chipley,FL,32428,4500,,,Sunny Hills,,11326,,1,,,Active,,,https://www.redfin.com/FL/Chipley/Lot-34-Glenridge-CIR-32428/home/182548612,CPARMLS,734051,N,Y,30.528747,-85.515514
MLS Listing,,Vacant Land,000 Ainsworth Dr,Chipley,FL,32428,5500,,,Sunny Hills,,11326,,1,,,Active,,,https://www.redfin.com/FL/CHIPLEY/AINSWORTH-DR-32428/home/139383517,CPARMLS,733265,N,Y,30.556781,-85.530909
MLS Listing,,Vacant Land,"000 Oakland St Unit 11, Lot 20, Blk 0765",Chipley,FL,32428,4900,,,Sunny Hills Unit 11,,9583,,1,,,Active,,,https://www.redfin.com/FL/Chipley/Oakland-ST-32428/unit-11-Lot-20-Blk-0765/home/182868440,CPARMLS,734649,N,Y,30.526141,-85.511975
MLS Listing,,Vacant Land,20033 Highway 231,Fountain,FL,32438,125000,,,Tung Grove Ests 1st Sec,,61855,,1,,,Active,,,https://www.redfin.com/FL/Fountain/20033-U-S-231-32438/home/178401518,CPARMLS,731845,N,Y,30.512053,-85.411526
MLS Listing,,Vacant Land,0 Linden St Lot 4,Chipley,FL,32428,15000,,,Sunny Hills Unit 8,,9975,,1,,,Active,,,https://www.redfin.com/FL/Unknown/Linden-St-32428/unit-4/home/178376877,CPARMLS,708729,N,Y,30.59076,-85.562474
MLS Listing,,Vacant Land,00 Pike Pond Rd,Chipley,FL,32428,847000,,,[No Recorded Subdiv],,8582627,,1,,,Active,,,https://www.redfin.com/FL/CHIPLEY/PIKE-POND-RD-32428/home/139383724,CPARMLS,733023,N,Y,30.641194,-85.449673
MLS Listing,,Vacant Land,00 Hwy 2311,Panama City,FL,32404,475000,,,Deer Point Lake,,49658,,1,,,Active,,,https://www.redfin.com/FL/PANAMA-CITY/HWY-2311-32404/home/117005245,CPARMLS,734298,N,Y,30.262168,-85.587398
MLS Listing,,Townhouse,3201 W Highway 98 Unit A,Mexico Beach,FL,32456,730000,3,2.5,No Named Subdivision,1100,1742,2001,1,664,,Active,,,https://www.redfin.com/FL/Mexico-Beach/3201-US-98-32456/unit-A/home/118321357,CPARMLS,733192,N,Y,29.9486898,-85.4194406
MLS Listing,,Vacant Land,450 Coralvine Dr,Chipley,FL,32428,59900,,,Buckhorn Creek,,262667,,1,,,Active,,,https://www.redfin.com/FL/Chipley/450-Coralvine-Dr-32428/home/139263679,CPARMLS,735093,N,Y,30.590983,-85.471135
MLS Listing,,Vacant Land,0 Hanford St Lot 14,Chipley,FL,32428,15000,,,Sunny Hills Unit 7,,12327,,1,,,Active,,,https://www.redfin.com/FL/Unknown/Hanford-St-32428/unit-14/home/178376878,CPARMLS,708727,N,Y,30.595149,-85.538984
MLS Listing,,Vacant Land,Lots 15&16 Owen Ct,Alford,FL,32420,22500,,,Compass Lake Hills Unit 6,,100188,,1,,,Active,,,https://www.redfin.com/FL/Unknown/Lots-15-16-Owen-Ct-32420/home/179126875,CPARMLS,725445,N,Y,30.613067,-85.381941
MLS Listing,,Vacant Land,2693 73 Highway Hwy,Marianna,FL,32448,80000,,,[No Recorded Subdiv],,87120,,1,,,Active,,,https://www.redfin.com/FL/Marianna/2693-Florida-73-32448/home/178377022,CPARMLS,647359,N,Y,30.7619495,-85.2294468
MLS Listing,,Single Family Residential,996 12th Ave,Graceville,FL,32440,189900,3,2.0,Graceville,1938,40500,1962,1,98,,Active,,,https://www.redfin.com/FL/Graceville/996-12th-Ave-32440/home/142228599,CPARMLS,733267,N,Y,30.9610383,-85.5142498
MLS Listing,,Mobile/Manufactured Home,903 Bartlett Rd,Marianna,FL,32448,319900,2,2.0,No Named Subdivision,936,1704067,2020,1,342,,Active,,,https://www.redfin.com/FL/Marianna/903-Bartlett-Rd-32448/home/181500318,CPARMLS,731929,N,Y,30.6289816,-85.102725
MLS Listing,,Vacant Land,0 Porter Ave,Alford,FL,32420,14000,,,Compass Lake Hills Unit 6,,50094,,1,,,Active,,,https://www.redfin.com/FL/ALFORD/PORTER-AVE-32420/home/142209220,CPARMLS,734458,N,Y,30.612138,-85.384099
MLS Listing,,Single Family Residential,786 Highway 71 Hwy,Marianna,FL,32448,199900,3,2.0,[No Recorded Subdiv],1193,21780,1950,1,168,,Active,,,https://www.redfin.com/FL/Marianna/786-FL-71-32448/home/177336547,CPARMLS,735279,N,Y,30.6213912,-85.1506304
MLS Listing,,Mobile/Manufactured Home,17122 Norma Ln,Fountain,FL,32438,350000,5,3.0,[No Recorded Subdiv],3760,1306800,1988,1,93,,Active,,,https://www.redfin.com/FL/Fountain/17122-Norma-Ln-32438/home/118404133,CPARMLS,708298,N,Y,30.4662153,-85.4591184
MLS Listing,,Vacant Land,134 Cobia Ln,Alford,FL,32420,27000,,,[No Recorded Subdiv],,112820,,1,,,Active,,,https://www.redfin.com/FL/Alford/134-Cobia-Ln-32420/home/142207326,CPARMLS,732752,N,Y,30.576221,-85.378642
MLS Listing,,Vacant Land,380 Red Deer Rd,Chipley,FL,32428,36500,,,,,196020,,1,,,Active,,,https://www.redfin.com/FL/Chipley/380-Red-Deer-Rd-32428/home/139364132,CPARMLS,735027,N,Y,30.5849245,-85.4649283
MLS Listing,,Vacant Land,000 Richland St,Alford,FL,32420,7000,,,Compass Lake Hills Unit 6,,43560,,1,,,Active,,,https://www.redfin.com/FL/ALFORD/RICHLAND-ST-32420/home/142229199,CPARMLS,729546,N,Y,30.633699,-85.36352
MLS Listing,,Single Family Residential,5162 4th Ave,Malone,FL,32445,129900,3,2.0,No Named Subdivision,1188,15246,1955,1,109,,Active,,,https://www.redfin.com/FL/Malone/5162-4th-Ave-32445/home/142202879,CPARMLS,734403,N,Y,30.9634332,-85.1631058
MLS Listing,,Mobile/Manufactured Home,7110 Troy Rd,Youngstown,FL,32466,125900,4,3.0,Timber Run Estates,2356,43560,2006,1,53,,Active,,,https://www.redfin.com/FL/Youngstown/7110-Troy-Rd-32466/home/117846012,CPARMLS,725159,N,Y,30.3758651,-85.530447
MLS Listing,,Vacant Land,000 Union Dr,Alford,FL,32420,6500,,,Compass Lake Hills Unit 5,,39814,,1,,,Active,,,https://www.redfin.com/FL/ALFORD/UNION-DR-32420/home/142195142,CPARMLS,734228,N,Y,30.648265,-85.347225
MLS Listing,,Vacant Land,15 Argonaut Ln,Port St. Joe,FL,32456,475000,,,No Named Subdivision,,6098,,1,,,Active,,,https://www.redfin.com/FL/Unknown/15-Argonaut-Ln-32456/home/182206652,CPARMLS,733185,N,Y,29.921828,-85.384279
MLS Listing,,Vacant Land,151-1 Challenger Blvd,Chipley,FL,32428,30000,,,Sunny Hills Unit 4,,17860,,1,,,Active,,,https://www.redfin.com/FL/Unknown/151-151-Challenger-Blvd-32428/home/178377050,CPARMLS,399439,N,Y,30.534884,-85.593533
MLS Listing,,Condo/Co-op,800 E Highway 98 #108,Mexico Beach,FL,32456,699000,3,3.0,Paradise Shores,1917,,2007,1,365,796,Active,,,https://www.redfin.com/FL/Mexico-Beach/800-U-S-98-32456/unit-108/home/178398733,CPARMLS,729669,N,Y,29.9372235,-85.4021381
MLS Listing,,Vacant Land,000 Pinecrest Rd,Fountain,FL,32438,20500,,,N/A,,16553,,1,,,Active,,,https://www.redfin.com/FL/FOUNTAIN/PINECREST-RD-32438/home/118207552,CPARMLS,733523,N,Y,30.452165,-85.423456
MLS Listing,,Single Family Residential,275 Pond Cypress Cv Lot 89,Port St. Joe,FL,32456,649900,5,3.0,Windmark,2511,7841,2022,1,259,200,Active,,,https://www.redfin.com/FL/Port-St-Joe/275-Pond-Cypress-Cv-32456/unit-89/home/182265813,CPARMLS,733278,N,Y,29.8809961,-85.3483869
MLS Listing,,Vacant Land,,Chipley,FL,32428,20000,,,,,29969,,1,,,Active,,,https://www.redfin.com/FL/Unknown/Undisclosed-address-32428/home/178387912,CPARMLS,732844,N,Y,30.535196,-85.592563
MLS Listing,,Vacant Land,0000 Highway 90,Grand Ridge,FL,32442,125000,,,No Named Subdivision,,42863,,1,,,Active,,,https://www.redfin.com/FL/Grand-Ridge/0000-Highway-90-32442/home/178376897,CPARMLS,707530,N,Y,30.718786,-85.021214
MLS Listing,,Vacant Land,19026 Highway 231,Fountain,FL,32438,335900,,,Golden Hwy Est Unit 2,,264801,,1,,,Active,,,https://www.redfin.com/FL/Fountain/19026-US-231-32438/home/117075414,CPARMLS,687938,N,Y,30.492517,-85.415327
MLS Listing,,Vacant Land,0000 Mt Pleasant Cemetery Rd,Quincy,FL,32351,325000,,,,,5005044,,1,,,Active,,,https://www.redfin.com/FL/Quincy/Mt-Pleasant-Cemetery-RD-Unknown/home/179792740,CPARMLS,727645,N,Y,30.5880468,-84.591058
MLS Listing,,Vacant Land,2860 Appalachee,Marianna,FL,32446,39900,,,Magnolia Oaks,,34848,,1,,,Active,,,https://www.redfin.com/FL/Marianna/2860-Appalachee-Trl-32446/home/142205952,CPARMLS,640725,N,Y,30.7750911,-85.165961
MLS Listing,,Mobile/Manufactured Home,2354 Lawrence Rd,Marianna,FL,32446,149900,4,3.0,No Named Subdivision,2160,165528,1997,1,69,,Active,,,https://www.redfin.com/FL/Marianna/2354-Lawrence-Rd-32446/home/142230429,CPARMLS,733212,N,Y,30.7352135,-85.0931177
MLS Listing,,Vacant Land,0002 Glenmore Ct,Marianna,FL,32446,59000,,,No Named Subdivision,,436036,,1,,,Active,,,https://www.redfin.com/FL/Unknown/0002-Glenmore-Ct-32446/home/183033025,CPARMLS,734911,N,Y,30.770002,-85.083539
MLS Listing,,Vacant Land,TBD Old Greenwood Hwy,Marianna,FL,32446,27900,,,Greenfield Subdivision Phase II,,,,1,,,Active,,,https://www.redfin.com/FL/Unknown/TBD-Old-Greenwood-Rd-32446/home/178376916,CPARMLS,702592,N,Y,30.808533,-85.194794
MLS Listing,,Vacant Land,Lot 2 Flynt Dr,Marianna,FL,32446,38000,,,Merritt Heights,,38768,,1,,,Active,,,https://www.redfin.com/FL/Unknown/Lot-2-Flynt-Dr-32446/home/180604699,CPARMLS,729752,N,Y,30.762911,-85.180865
MLS Listing,,Vacant Land,0 S Lake Trl,Marianna,FL,32446,65000,,,Indian Lake,,41470,,1,,,Active,,,https://www.redfin.com/FL/MARIANNA/S-LAKE-TRL-32446/home/142231354,CPARMLS,724368,N,Y,30.74926,-85.173972
MLS Listing,,Vacant Land,0 Church St,Grand Ridge,FL,32442,109000,,,,,871200,,1,,,Active,,,https://www.redfin.com/FL/GRAND-RIDGE/CHURCH-ST-32442/home/142187476,CPARMLS,729844,N,Y,30.720981,-85.078312
MLS Listing,,Vacant Land,00 Russ Rd,Marianna,FL,32446,16000,,,[No Recorded Subdiv],,43560,,1,,,Active,,,https://www.redfin.com/FL/MARIANNA/RUSS-RD-32446/home/142218490,CPARMLS,734081,N,Y,30.790506,-85.162287
MLS Listing,,Single Family Residential,2897 Appalachee Trl,Marianna,FL,32446,445000,3,2.0,Indian Springs,2055,116305,2018,1,217,,Active,,,https://www.redfin.com/FL/Marianna/2897-Appalachee-Trl-32446/home/142190227,CPARMLS,721788,N,Y,30.7780667,-85.1659003
MLS Listing,,Vacant Land,0 Appalachee Trl,Marianna,FL,32446,50000,,,Woodridge,,202554,,1,,,Active,,,https://www.redfin.com/FL/MARIANNA/APPALACHEE-TRL-32446/home/142188865,CPARMLS,735050,N,Y,30.772462,-85.166393
MLS Listing,,Single Family Residential,4988 Flynt Dr,Marianna,FL,32446,599000,3,4.0,Merritt Heights,3803,100188,1990,1,158,,Active,,,https://www.redfin.com/FL/Marianna/4988-Flynt-Dr-32446/home/142195973,CPARMLS,728187,N,Y,30.761895,-85.180175
MLS Listing,,Single Family Residential,3265 Azalea Rd,Marianna,FL,32446,189900,3,1.0,Dogwood Heights,2001,34848,1972,1,95,,Active,,,https://www.redfin.com/FL/Marianna/3265-Azalea-Rd-32446/home/142230318,CPARMLS,735124,N,Y,30.8023144,-85.1846478
MLS Listing,,Vacant Land,4984 Dogwood Dr,Marianna,FL,32446,85000,,,Dogwood Heights,,435600,,1,,,Active,,,https://www.redfin.com/FL/Marianna/4984-Dogwood-Dr-32446/home/142200920,CPARMLS,709287,N,Y,30.8016956,-85.1800324
MLS Listing,,Vacant Land,Lot #1 Caldwell Pl,Chipley,FL,32428,8000,,,Sunny Hills Unit 2,,13068,,1,,,Active,,,https://www.redfin.com/FL/Unknown/Lot-1-Caldwell-Pl-32428/home/179516235,CPARMLS,726879,N,Y,30.535646,-85.577895
MLS Listing,,Vacant Land,00 Panhandle Rd,Marianna,FL,32446,47500,,,No Named Subdivision,,21344,,1,,,Active,,,https://www.redfin.com/FL/MARIANNA/PANHANDLE-RD-32446/home/142203070,CPARMLS,735216,N,Y,30.765635,-85.197858
MLS Listing,,Single Family Residential,2732 Indian Springs Rd,Marianna,FL,32446,599000,3,4.5,Indian Springs,3799,65340,1986,1,158,,Active,,,https://www.redfin.com/FL/Marianna/2732-Indian-Springs-Rd-32446/home/142202469,CPARMLS,726466,N,Y,30.7619576,-85.1764896
MLS Listing,,Vacant Land,0000 Lakepointe Dr,Chipley,FL,32428,40000,,,,,43124,,1,,10,Active,,,https://www.redfin.com/FL/CHIPLEY/LAKEPOINTE-DR-32428/home/139214248,CPARMLS,726136,N,Y,30.790657,-85.582747
MLS Listing,,Single Family Residential,83 Cope Rd,Chipley,FL,32428,439999,4,2.5,No Named Subdivision,2619,386377,2006,1,168,,Active,,,https://www.redfin.com/FL/Chipley/83-Cope-Rd-32428/home/139264017,CPARMLS,733252,N,Y,30.8263584,-85.5593002
MLS Listing,,Vacant Land,"Lots 38,39 Hwy 77",Chipley,FL,32428,275000,,,Deer Run Ranchettes,,182516,,1,,,Active,,,https://www.redfin.com/FL/Chipley/38-Florida-77-32428/home/178390465,CPARMLS,726850,N,Y,30.8164271,-85.5344295
MLS Listing,,Single Family Residential,676 3rd St,Chipley,FL,32428,349000,3,3.0,No Named Subdivision,2527,26136,1947,1,138,,Active,,,https://www.redfin.com/FL/Chipley/676-3rd-St-32428/home/139348484,CPARMLS,735207,N,Y,30.7811392,-85.5427325
MLS Listing,,Single Family Residential,5885 Friendship Church Rd,Malone,FL,32445,99900,2,1.0,[No Recorded Subdiv],1344,196020,1946,1,74,,Active,,,https://www.redfin.com/FL/Malone/5885-Friendship-Church-Rd-32445/home/142223878,CPARMLS,732894,N,Y,30.993065,-85.2106833
MLS Listing,,Vacant Land,Lot 7 Shepp Dr,Chipley,FL,32428,17900,,,Bohoma Acres,,43560,,1,,,Active,,,https://www.redfin.com/FL/Chipley/Lot-7-7th-St-32428/home/178376488,CPARMLS,726258,N,Y,30.805868,-85.516814
MLS Listing,,Single Family Residential,672 Main St,Chipley,FL,32428,335000,3,2.0,[No Recorded Subdiv],1740,23305,1936,1,193,,Active,,,https://www.redfin.com/FL/Chipley/672-Main-St-32428/home/139226852,CPARMLS,731577,N,Y,30.7879921,-85.5394545
MLS Listing,,Vacant Land,941 Main St,Chipley,FL,32428,269000,,,No Named Subdivision,,81675,,1,,,Active,,,https://www.redfin.com/FL/Chipley/941-Main-St-32428/home/139285522,CPARMLS,735138,N,Y,30.7754011,-85.5373831
MLS Listing,,Vacant Land,XXX Carlisle Rd,Chipley,FL,32428,260000,,,[No Recorded Subdiv],,193842,,1,,,Active,,,https://www.redfin.com/FL/CHIPLEY/CARLISLE-RD-32428/home/139244649,CPARMLS,730109,N,Y,30.761415,-85.542264
MLS Listing,,Vacant Land,Lots 3&4 Shepp Dr,Chipley,FL,32428,27900,,,Bohoma Acres,,132858,,1,,,Active,,,https://www.redfin.com/FL/Chipley/Lots-3-4-Shepp-DR-32428/home/182280953,CPARMLS,733351,N,Y,30.804958,-85.517273
MLS Listing,,Vacant Land,00 Peanut Rd,Cottondale,FL,32431,265000,,,[No Recorded Subdiv],,2999977,,1,,,Active,,,https://www.redfin.com/FL/COTTONDALE/PEANUT-RD-32431/home/142222769,CPARMLS,728815,N,Y,30.886866,-85.446849
MLS Listing,,Single Family Residential,3214 W Highway 98,Mexico Beach,FL,32456,789000,3,2.0,Waterside Village,1806,,2005,1,437,300,Active,,,https://www.redfin.com/FL/Mexico-Beach/3214-West-Highway-98-32456/home/178889139,CPARMLS,730534,N,Y,29.949619,-85.419822
MLS Listing,,Single Family Residential,1311 Coggin Ave,Chipley,FL,32428,224000,3,2.5,No Named Subdivision,1533,22433,1946,1,146,,Active,,,https://www.redfin.com/FL/Chipley/1311-Coggin-Ave-32428/home/139362953,CPARMLS,733517,N,Y,30.7842499,-85.5420085
MLS Listing,,Vacant Land,909 Carol Ct,Chipley,FL,32428,45000,,,No Named Subdivision,,75054,,1,,,Active,,,https://www.redfin.com/FL/Chipley/909-Carol-Ct-32428/home/139181144,CPARMLS,719420,N,Y,30.7642456,-85.5675017
MLS Listing,,Single Family Residential,8302 Tradewinds Dr,Port St. Joe,FL,32456,695000,3,2.0,Gulfaire,1892,9583,1981,1,367,25,Active,,,https://www.redfin.com/FL/Port-St-Joe/8302-Tradewinds-Dr-32456/home/138379466,CPARMLS,733190,N,Y,29.9124369,-85.3739102
MLS Listing,,Ranch,,Graceville,FL,32440,588000,3,1.0,,1480,6969600,1949,1,397,,Active,,,https://www.redfin.com/FL/Graceville/Undisclosed-address-32440/home/180777495,CPARMLS,731276,N,Y,30.9384482,-85.5767471
MLS Listing,,Vacant Land,Lot 23 Aldoro Cir,Chipley,FL,32428,12999,,,Sunny Hills Unit 6,,43996,,1,,,Active,,,https://www.redfin.com/FL/Unknown/LOT-23-Aldoro-Cir-32428/home/178388538,CPARMLS,727149,N,Y,30.561931,-85.570316
MLS Listing,,Vacant Land,000 Hwy 231,Fountain,FL,32438,20000,,,Florida Ranchos 2nd Sect,,21780,,1,,,Active,,,https://www.redfin.com/FL/FOUNTAIN/HWY-231-32438/home/117983512,CPARMLS,728326,N,Y,30.480386,-85.42056
MLS Listing,,Single Family Residential,388 Sea Grove Way Lot 20,Port St. Joe,FL,32456,538360,4,2.0,Windmark,1835,4792,2022,1,293,200,Active,,,https://www.redfin.com/FL/Port-St-Joe/388-Sea-Grove-Way-32456/unit-20/home/183039197,CPARMLS,734921,N,Y,29.8840725,-85.3516682
MLS Listing,,Vacant Land,8825 W Hwy 98,Port St. Joe,FL,32456,999000,,,No Named Subdivision,,13939,,1,,,Active,,,https://www.redfin.com/FL/Port-St-Joe/8825-W-Hwy-98-32456/home/138423687,CPARMLS,733232,N,Y,29.91755,-85.3808207
MLS Listing,,Vacant Land,4837 Highway 2321,Panama City,FL,32404,150000,,,[No Recorded Subdiv],,1725,,1,,,Active,,,https://www.redfin.com/FL/PANAMA-CITY/4837-HIGHWAY-2321-32404/home/118175988,CPARMLS,731762,N,Y,30.258908,-85.590603
MLS Listing,,Vacant Land,Lot 22 Aldoro Cir,Chipley,FL,32428,11999,,,Sunny Hills Unit 6,,38376,,1,,,Active,,,https://www.redfin.com/FL/Unknown/Lot-22-Aldoro-Cir-32428/home/179615553,CPARMLS,727151,N,Y,30.562407,-85.570338
MLS Listing,,Vacant Land,4402 Highway 2321,Panama City,FL,32404,36000,,,No Named Subdivision,,65340,,1,,,Active,,,https://www.redfin.com/FL/Callaway/4402-Highway-2321-32404/home/178376998,CPARMLS,667673,N,Y,30.258898,-85.591188
MLS Listing,,Single Family Residential,54 1st St,Mexico Beach,FL,32456,519900,3,2.0,No Named Subdivision,1542,27704,1989,1,337,,Active,,,https://www.redfin.com/FL/MEXICO-BEACH/54-1ST-ST-32456/home/117641298,CPARMLS,731250,N,Y,29.931543,-85.389714
MLS Listing,,Single Family Residential,4402 De Len Dr,Panama City,FL,32404,515000,3,3.0,Deerwood,2377,59242,1999,1,217,,Active,,,https://www.redfin.com/FL/Panama-City/4402-De-Len-Dr-32404/home/118173938,CPARMLS,728578,N,Y,30.269533,-85.5885024
MLS Listing,,Vacant Land,0 Amherst Dr,Chipley,FL,32428,7500,,,Sunny Hills,,24002,,1,,,Active,,,https://www.redfin.com/FL/CHIPLEY/AMHERST-DR-32428/home/139118922,CPARMLS,722618,N,Y,30.568863,-85.555419
MLS Listing,,Single Family Residential,4774 Firefly Ln,Panama City,FL,32404,320000,4,2.0,Titus Park,2093,5663,2021,1,153,50,Active,,,https://www.redfin.com/FL/Callaway/4774-Firefly-Ln-32404/home/174020699,CPARMLS,733592,N,Y,30.237437,-85.584635
MLS Listing,,Vacant Land,Lot 4 Shepp Dr,Chipley,FL,32428,19900,,,Bohoma Acres,,88862,,1,,,Active,,,https://www.redfin.com/FL/Chipley/Lot-4-4th-St-32428/home/178377178,CPARMLS,726255,N,Y,30.66986,-85.578071
MLS Listing,,Mobile/Manufactured Home,561 E Duck Pond Dr,Greenville,FL,32331,259900,3,2.0,,1456,220414,1992,1,179,,Active,,,https://www.redfin.com/FL/Greenville/561-Duck-Pond-Dr-32331/home/142289131,CPARMLS,734162,N,Y,30.562068,-83.705037
MLS Listing,,Single Family Residential,4862 Loblolly Way Lot 8,Panama City,FL,32404,419900,4,3.0,Titus Park,2304,6970,2022,1,182,200,Active,,,https://www.redfin.com/FL/Callaway/4862-Loblolly-Way-32404/home/181789691,CPARMLS,733314,N,Y,30.2375289,-85.5854701
MLS Listing,,Single Family Residential,4874 Loblolly Way Lot 11,Panama City,FL,32404,429900,4,3.0,Titus Park,2304,6970,2022,1,187,50,Active,,,https://www.redfin.com/FL/Callaway/4874-Loblolly-Way-32404/home/181789788,CPARMLS,732250,N,Y,30.2375289,-85.5854701
MLS Listing,,Vacant Land,1717 Madison Ln,Chipley,FL,32428,39950,,,Kiersten Heights,,43996,,1,,,Active,,,https://www.redfin.com/FL/CHIPLEY/1717-MADISON-LN-32428/home/139193839,CPARMLS,709530,N,Y,30.669112,-85.576075
MLS Listing,,Single Family Residential,4702 Rosemary St,Panama City,FL,32404,495000,5,3.0,Titus Park,3173,8973,2021,1,156,50,Active,,,https://www.redfin.com/FL/Callaway/4702-Rosemary-St-32404/home/174020647,CPARMLS,734808,N,Y,30.234933,-85.583076
MLS Listing,,Single Family Residential,4711 Rosemary St,Panama City,FL,32404,445000,4,3.5,Titus Park,2838,9148,2021,1,157,50,Active,,,https://www.redfin.com/FL/Callaway/4711-Rosemary-St-32404/home/174020678,CPARMLS,735152,N,Y,30.23507,-85.583585
MLS Listing,,Single Family Residential,4711 Shannon Ln,Panama City,FL,32404,343499,4,2.0,Cherokee Heights Phase III,2100,8276,2022,1,164,,Active,,,https://www.redfin.com/FL/Panama-City/4711-Shannon-Ln-32404/home/117870695,CPARMLS,734764,N,Y,30.234763,-85.565934
MLS Listing,,Single Family Residential,4840 Conner Ln Lot 63,Panama City,FL,32404,327900,4,2.0,Liberty,2093,6098,2022,1,157,42,Active,,,https://www.redfin.com/FL/PANAMA-CITY/4840-CONNER-LN-32404/home/182304616,CPARMLS,733388,N,Y,30.231456,-85.545259
MLS Listing,,Single Family Residential,4852 Conner Ln Lot 66,Panama City,FL,32404,321900,4,2.0,Liberty,2031,6098,2022,1,158,42,Active,,,https://www.redfin.com/FL/PANAMA-CITY/4852-CONNER-LN-32404/home/182307453,CPARMLS,733399,N,Y,30.231126,-85.545308
MLS Listing,,Single Family Residential,4937 Conner Ln Lot 99,Panama City,FL,32404,306900,4,2.0,Liberty,1830,6970,2022,1,168,42,Active,,,https://www.redfin.com/FL/PANAMA-CITY/4937-CONNER-LN-32404/home/183122147,CPARMLS,735084,N,Y,30.232956,-85.545278
MLS Listing,,Vacant Land,8617 Wood Cir,Panama City,FL,32404,55000,,,Lakewood Manor U-3,,25700,,1,,6,Active,,,https://www.redfin.com/FL/Panama-City/8617-Wood-Cir-32404/home/117483777,CPARMLS,706251,N,Y,30.251661,-85.498379
MLS Listing,,Vacant Land,7205 Lake Suzzanne Way,Panama City,FL,32404,31400,,,Sweetwater Village N Ph 2,,7405,,1,,17,Active,,,https://www.redfin.com/FL/Panama-City/7205-Lake-Suzzanne-Way-32404/home/117653336,CPARMLS,732460,N,Y,30.266904,-85.53016
MLS Listing,,Vacant Land,0000 Alliance Rd,Marianna,FL,32448,25000,,,No Named Subdivision,,189922,,1,,,Active,,,https://www.redfin.com/FL/MARIANNA/ALLIANCE-RD-32448/home/142192920,CPARMLS,717101,N,Y,30.624042,-85.154426
MLS Listing,,Vacant Land,4234 Bay Line Ave,Panama City,FL,32404,220000,,,St. Andrews Bay Dev. Co.,,36155,,1,,,Active,,,https://www.redfin.com/FL/Panama-City/4234-Bay-Line-Dr-32404/home/181355657,CPARMLS,731608,N,Y,30.264991,-85.506675
MLS Listing,,Single Family Residential,5500 Lexa Ln,Panama City,FL,32404,250990,4,2.0,No Named Subdivision,1398,5968,2022,1,180,42,Active,,,https://www.redfin.com/FL/Panama-City/5500-Lexa-Ln-32404/home/177649067,CPARMLS,730747,N,Y,30.2484477,-85.5232023
MLS Listing,,Mobile/Manufactured Home,6004 Stockholm Pl,Panama City,FL,32404,157900,3,2.0,Sweetwater Village S Ph I,1176,12415,1989,1,134,17,Active,,,https://www.redfin.com/FL/Panama-City/6004-Stockholm-Ln-32404/home/117642079,CPARMLS,728622,N,Y,30.2572863,-85.5262803
MLS Listing,,Single Family Residential,5539 Lexa Ln,Panama City,FL,32404,274990,4,2.0,[No Recorded Subdiv],1776,6970,2022,1,155,42,Active,,,https://www.redfin.com/FL/Panama-City/5539-Lexa-Ln-32404/home/177649091,CPARMLS,735182,N,Y,30.2490467,-85.523188
MLS Listing,,Vacant Land,108 N 32nd St,Mexico Beach,FL,32456,255000,,,No Named Subdivision,,3920,,1,,,Active,,,https://www.redfin.com/FL/Port-St-Joe/108-S-32nd-St-32456/home/117477340,CPARMLS,731801,N,Y,29.9484924,-85.4202468
MLS Listing,,Vacant Land,114 4th St,Mexico Beach,FL,32456,299000,,,No Named Subdivision,,7405,,1,,,Active,,,https://www.redfin.com/FL/Mexico-Beach/114-4th-ST-32410/home/178409887,CPARMLS,733236,N,Y,29.932948,-85.39608
MLS Listing,,Mobile/Manufactured Home,1351 Julie Ln,Chipley,FL,32428,279900,4,3.0,No Named Subdivision,2280,105851,2010,1,123,,Active,,,https://www.redfin.com/FL/Chipley/1351-Julie-Ln-32428/home/139216854,CPARMLS,734150,N,Y,30.7075731,-85.5462167
MLS Listing,,Vacant Land,00 Perry Rd,Cottondale,FL,32431,160000,,,No Named Subdivision,,1742400,,1,,,Active,,,https://www.redfin.com/FL/COTTONDALE/PERRY-RD-32431/home/142221348,CPARMLS,730678,N,Y,30.708799,-85.3692
MLS Listing,,Vacant Land,0 View Dr,Alford,FL,32420,65900,,,Compass Lake Hills Unit 5,,57064,,1,,,Active,,,https://www.redfin.com/FL/ALFORD/VIEW-DR-32420/home/142190293,CPARMLS,717027,N,Y,30.634085,-85.338343
MLS Listing,,Vacant Land,lot 13 Madison Ln,Chipley,FL,32428,37950,,,Kiersten Heights,,43124,,1,,,Active,,,https://www.redfin.com/FL/Chipley/lot-13-Madison-LN-32428/home/179536784,CPARMLS,709532,N,Y,30.669116,-85.578089
MLS Listing,,Vacant Land,0 Caledonia St,Marianna,FL,32448,7950,,,[No Recorded Subdiv],,37026,,1,,,Active,,,https://www.redfin.com/FL/MARIANNA/CALEDONIA-ST-32448/home/142207918,CPARMLS,717460,N,Y,30.767226,-85.228915
MLS Listing,,Single Family Residential,107 Blue Heron Ln,Panama City,FL,32404,385900,3,2.5,Village Of Mill Bayou/Shoreline Village Ph 1A,2162,6970,2018,1,178,86,Active,,,https://www.redfin.com/FL/Panama-City/107-Blue-Heron-Ln-32404/home/117771748,CPARMLS,733591,N,Y,30.2394023,-85.5950434
MLS Listing,,Vacant Land,00 Cannonball Run Rd,Chipley,FL,32428,49500,,,[No Recorded Subdiv],,393347,,1,,,Active,,,https://www.redfin.com/FL/CHIPLEY/CANNONBALL-RUN-RD-32428/home/139214717,CPARMLS,728365,N,Y,30.608584,-85.440274
MLS Listing,,Vacant Land,0 Laredo Dr,Chipley,FL,32428,12500,,,Sunny Hills Unit 7,,10019,,1,,,Active,,,https://www.redfin.com/FL/CHIPLEY/LAREDO-DR-32428/home/139238840,CPARMLS,729739,N,Y,30.599538,-85.547124
MLS Listing,,Vacant Land,TBD Ben Rd,Chipley,FL,32428,150000,,,No Named Subdivision,,662548,,1,,,Active,,,https://www.redfin.com/FL/Unknown/TBD-Ben-Rd-32428/home/178387694,CPARMLS,730961,N,Y,30.610739,-85.574677
MLS Listing,,Vacant Land,102 S 33rd St,Mexico Beach,FL,32456,499000,,,Mexico Beach Unit 5,,8276,,1,,,Active,,,https://www.redfin.com/FL/Mexico-Beach/102-33rd-St-32456/home/178401369,CPARMLS,733713,N,Y,29.949268,-85.420754
MLS Listing,,Single Family Residential,,Altha,FL,32421,119900,2,1.0,,1393,13068,1900,1,86,,Active,,,https://www.redfin.com/FL/Altha/Undisclosed-address-32421/home/127869315,CPARMLS,729878,N,Y,30.6073561,-85.146031
MLS Listing,,Vacant Land,0 View Dr,Alford,FL,32420,19900,,,Compass Lake Hills Unit 5,,53579,,1,,,Active,,,https://www.redfin.com/FL/ALFORD/VIEW-DR-32420/home/142206473,CPARMLS,729903,N,Y,30.634357,-85.339863
MLS Listing,,Vacant Land,Lot 4 Fairborn Ave,Alford,FL,32420,9500,,,Compass Lake Hills Unit 6,,47916,,1,,,Active,,,https://www.redfin.com/FL/Unknown/Lot-4-Fairborn-Ave-32420/home/178607570,CPARMLS,723417,N,Y,30.635321,-85.381076
MLS Listing,,Vacant Land,0 Chason Rd,Marianna,FL,32448,185250,,,No Named Subdivision,,1698840,,1,,,Active,,,https://www.redfin.com/FL/MARIANNA/CHASON-RD-32448/home/162546492,CPARMLS,725976,N,Y,30.569311,-85.210421
MLS Listing,,Vacant Land,0 Glen Ter,Marianna,FL,32448,8500,,,Compass Lake Hills Unit 2,,49658,,1,,,Active,,,https://www.redfin.com/FL/MARIANNA/GLEN-TER-32448/home/142190747,CPARMLS,719724,N,Y,30.60146,-85.321743
MLS Listing,,Vacant Land,0 Wells St,Alford,FL,32420,12000,,,Compass Lake Hills Unit 6,,49658,,1,,,Active,,,https://www.redfin.com/FL/ALFORD/WELLS-ST-32420/home/142192210,CPARMLS,726969,N,Y,30.630151,-85.372215
MLS Listing,,Vacant Land,0 Cardinal Ave,Marianna,FL,32448,10500,,,Compass Lake Hills Unit 2,,49658,,1,,11,Active,,,https://www.redfin.com/FL/MARIANNA/CARDINAL-AVE-32448/home/142207667,CPARMLS,733084,N,Y,30.607745,-85.323807
MLS Listing,,Single Family Residential,5947 Selma Dr,Marianna,FL,32448,79900,2,1.0,No Named Subdivision,828,10890,1957,1,96,,Active,,,https://www.redfin.com/FL/Marianna/5947-Selma-Dr-32448/home/142208126,CPARMLS,734210,N,Y,30.6144668,-85.1018295
MLS Listing,,Vacant Land,00 Ocheesee Landing Rd,Grand Ridge,FL,32442,350000,,,No Named Subdivision,,653400,,1,,,Active,,,https://www.redfin.com/FL/GRAND-RIDGE/OCHEESEE-LANDING-RD-32442/home/142203378,CPARMLS,734153,N,Y,30.63464,-84.970143
MLS Listing,,Condo/Co-op,800 E Highway 98 #409,Mexico Beach,FL,32456,599000,2,2.0,Paradise Shores,1599,,2007,1,375,664,Active,,,https://www.redfin.com/FL/Mexico-Beach/800-U-S-98-32456/unit-409/home/178400741,CPARMLS,724197,N,Y,29.9371981,-85.4020032
MLS Listing,,Single Family Residential,5267 Cedar St,Campbellton,FL,32426,117900,5,3.0,No Named Subdivision,3206,52272,1987,1,37,,Active,,,https://www.redfin.com/FL/Campbellton/5267-Cedar-St-32426/home/142222215,CPARMLS,734956,N,Y,30.9518644,-85.3954905
