SALE TYPE,SOLD DATE,PROPERTY TYPE,ADDRESS,CITY,STATE OR PROVINCE,ZIP OR POSTAL CODE,PRICE,BEDS,BATHS,LOCATION,SQUARE FEET,LOT SIZE,YEAR BUILT,DAYS ON MARKET,$/SQUARE FEET,HOA/MONTH,STATUS,NEXT OPEN HOUSE START TIME,NEXT OPEN HOUSE END TIME,URL (SEE https://www.redfin.com/buy-a-home/comparative-market-analysis FOR INFO ON PRICING),SOURCE,MLS#,FAVORITE,INTERESTED,LATITUDE,LONGITUDE
MLS Listing,,Condo/Co-op,3035 15th St NW #204,Washington,DC,20009,635000,2,2.0,Columbia Heights,896,,2016,1,709,361,Active,December-4-2022 12:00 PM,December-4-2022 02:00 PM,https://www.redfin.com/DC/Washington/3035-15th-St-NW-20009/unit-204/home/110055696,BRIGHT MLS,DCDC2076314,N,Y,38.9281053,-77.0357063
MLS Listing,,Single Family Residential,2331 Westport Ln,Crofton,MD,21114,450000,3,2.5,CROFTON VILLAGE,1440,4050,1983,1,313,48,Pre On-Market,,,https://www.redfin.com/MD/Crofton/2331-Westport-Ln-21114/home/9964138,BRIGHT MLS,MDAA2049568,N,Y,39.025441,-76.6735987
MLS Listing,,Single Family Residential,5401 76th Ct,Hyattsville,MD,20784,390000,3,2.5,WEST LANHAM,1078,10518,1962,1,362,,Active,,,https://www.redfin.com/MD/Hyattsville/5401-76th-Ct-20784/home/11056262,BRIGHT MLS,MDPG2063928,N,Y,38.953668,-76.884099
MLS Listing,,Townhouse,202 W Longspur Dr,Wilmington,DE,19808,424900,4,3.5,LIMESTONE HILLS 7,2825,3049,1991,1,150,24,Pre On-Market,,,https://www.redfin.com/DE/Wilmington/202-W-Longspur-Dr-19808/home/44955300,BRIGHT MLS,DENC2035142,N,Y,39.750235,-75.6934869
MLS Listing,,Condo/Co-op,2747 Linden Ln #205,Silver Spring,MD,20910,670000,2,2.5,FOREST GLEN PARK,1312,,1907,1,511,592,Active,,,https://www.redfin.com/MD/Silver-Spring/2747-Linden-Ln-20910/unit-205/home/110058107,BRIGHT MLS,MDMC2076800,N,Y,39.0109616,-77.0560956
MLS Listing,,Townhouse,434 Manton St,Philadelphia,PA,19147,540000,4,2.5,DICKINSON NARROWS,1800,960,1920,1,300,,Active,,,https://www.redfin.com/PA/Philadelphia/434-Manton-St-19147/home/38093960,BRIGHT MLS,PAPH2182288,N,Y,39.9328387,-75.1522784
MLS Listing,,Townhouse,1242 Travis View Ct,Gaithersburg,MD,20879,400000,3,2.5,MONTGOMERY MEADOWS,1670,2360,1991,1,240,85,Active,,,https://www.redfin.com/MD/Gaithersburg/1242-Travis-View-Ct-20879/home/10844168,BRIGHT MLS,MDMC2076790,N,Y,39.1646292,-77.2213173
MLS Listing,,Single Family Residential,1316 Hickory Springs Cir,Catonsville,MD,21228,450000,4,2.5,WOODBRIDGE VALLEY,2104,8903,1971,1,214,,Active,,,https://www.redfin.com/MD/Catonsville/1316-Hickory-Springs-Cir-21228/home/9264686,BRIGHT MLS,MDBC2054896,N,Y,39.2936502,-76.7602758
MLS Listing,,Single Family Residential,6375 Euclid Ave,Elkridge,MD,21075,319000,3,2.0,Elkridge,840,6000,1966,1,380,,Pre On-Market,,,https://www.redfin.com/MD/Elkridge/6375-Euclid-Ave-21075/home/9858857,BRIGHT MLS,MDHW2023326,N,Y,39.1952517,-76.737823
MLS Listing,,Townhouse,1938 Westchester Dr,Silver Spring,MD,20902,545000,3,3.5,WESTCHESTER,1900,1900,1990,1,287,80,Pre On-Market,,,https://www.redfin.com/MD/Silver-Spring/1938-Westchester-Dr-20902/home/11137368,BRIGHT MLS,MDMC2076628,N,Y,39.041734,-77.0436749
MLS Listing,,Single Family Residential,32 Cordele Rd,Newark,DE,19711,425000,4,2.5,RED MILL FARMS,2419,7841,1963,1,176,,Pre On-Market,,,https://www.redfin.com/DE/Newark/32-Cordele-Rd-19711/home/44943677,BRIGHT MLS,DENC2034808,N,Y,39.693419,-75.7111396
MLS Listing,,Townhouse,11708 Rosearbor Ct,Germantown,MD,20876,315000,3,1.5,MIDDLEBROOK COMMONS,1280,1500,1982,1,246,,Pre On-Market,,,https://www.redfin.com/MD/Germantown/11708-Rosearbor-Ct-20876/home/10805277,BRIGHT MLS,MDMC2076808,N,Y,39.174927,-77.2419634
MLS Listing,,Single Family Residential,6630 Macbeth Way,Sykesville,MD,21784,450000,3,2.5,FREEDOM ELECTION DISTRICT,2323,8168,1988,1,194,29,Pre On-Market,,,https://www.redfin.com/MD/Sykesville/6630-MacBeth-Way-21784/home/14452584,BRIGHT MLS,MDCR2011756,N,Y,39.3911011,-76.9352953
MLS Listing,,Single Family Residential,1023 Rosedale Ave,Rosedale,MD,21237,309900,3,2.0,ROSEDALE TERRACE,1888,10000,1944,1,164,,Pre On-Market,,,https://www.redfin.com/MD/Rosedale/1023-Rosedale-Ave-21237/home/9452767,BRIGHT MLS,MDBC2055350,N,Y,39.31362,-76.5133475
MLS Listing,,Single Family Residential,559 Town Run Ln,Stephens City,VA,22655,619000,5,4.5,SOUTHERN HILLS,4082,8276,2018,1,152,58,Pre On-Market,,,https://www.redfin.com/VA/Stephens-City/559-Town-Run-Ln-22655/home/167766485,BRIGHT MLS,VAFV2010250,N,Y,39.0708314,-78.2225666
MLS Listing,,Condo/Co-op,1761 Old Meadow Rd #415,Mclean,VA,22102,820000,2,2.5,THE BEXLEY CONDO,1571,,2020,1,522,683,Active,,,https://www.redfin.com/VA/McLean/1761-Old-Meadow-Rd-22102/unit-415/home/175578461,BRIGHT MLS,VAFX2104542,N,Y,38.9191211,-77.2120428
MLS Listing,,Townhouse,42912 Pamplin Ter,Chantilly,VA,20152,475000,3,3.5,AMBERLEA AT SOUTH RIDING,1656,,2011,1,287,312,Pre On-Market,,,https://www.redfin.com/VA/Chantilly/42912-Pamplin-Ter-20152/home/28667506,BRIGHT MLS,VALO2040666,N,Y,38.9232842,-77.5189346
MLS Listing,,Condo/Co-op,44001 Vaira Ter,Chantilly,VA,20152,498000,3,2.0,VILLAS AT EAST GATE CONDO,1762,,2013,2,283,285,Active,,,https://www.redfin.com/VA/Chantilly/44001-Vaira-Ter-20152/home/183028922,BRIGHT MLS,VALO2040682,N,Y,38.9111083,-77.4825549
MLS Listing,,Single Family Residential,5901 Woodville Rd,Mount Airy,MD,21771,435000,3,3.0,Mount Airy,1450,39600,1974,4,300,,Active,December-4-2022 02:00 PM,December-4-2022 04:00 PM,https://www.redfin.com/MD/Mt-Airy/5901-Woodville-Rd-21771/home/15237961,BRIGHT MLS,MDFR2027286,N,Y,39.3933733,-77.1819686
MLS Listing,,Single Family Residential,409 John Marshall Dr NE,Vienna,VA,22180,985000,4,3.0,AYR HILL HEIGHTS,2438,16268,1959,4,404,,Pre On-Market,,,https://www.redfin.com/VA/Vienna/409-John-Marshall-Dr-NE-22180/home/9446992,BRIGHT MLS,VAFX2104364,N,Y,38.9133582,-77.2685993
MLS Listing,,Single Family Residential,907 Minna Ave,Capitol Heights,MD,20743,305000,4,2.0,JEFFERSON HEIGHTS,774,5000,1937,5,394,,Active,,,https://www.redfin.com/MD/Capitol-Heights/907-Minna-Ave-20743/home/11014494,BRIGHT MLS,MDPG2063518,N,Y,38.9028817,-76.9040037
MLS Listing,,Single Family Residential,145 Harvard Rd,Pennsville,NJ,08070,235000,3,2.5,PENN BEACH,1642,12000,1960,6,143,,Pre On-Market,,,https://www.redfin.com/NJ/Pennsville/145-Harvard-Rd-08070/home/37617240,BRIGHT MLS,NJSA2006082,N,Y,39.6454082,-75.5334701
MLS Listing,,Townhouse,421 Kennedy St NE,Washington,DC,20011,699000,4,2.5,Riggs Park,1638,2572,1954,6,427,,Pre On-Market,,,https://www.redfin.com/DC/Washington/421-Kennedy-St-NE-20011/home/10083379,BRIGHT MLS,DCDC2075536,N,Y,38.9560808,-76.9989681
MLS Listing,,Single Family Residential,43 Henry Ave,Nottingham,MD,21236,399000,5,3.5,LINHIGH,2200,7000,1931,6,181,,Active,,,https://www.redfin.com/MD/Nottingham/43-Henry-Ave-21236/home/9407569,BRIGHT MLS,MDBC2055072,N,Y,39.3617557,-76.5171868
MLS Listing,,Townhouse,1403 Foxwood Ct,Annapolis,MD,21409,315000,3,1.5,WHISPERING WOODS,1200,2000,1978,6,263,25,Pre On-Market,,,https://www.redfin.com/MD/Annapolis/1403-Foxwood-Ct-21409/home/10314361,BRIGHT MLS,MDAA2049378,N,Y,39.0275135,-76.477207
MLS Listing,,Single Family Residential,17439 Aldershot Pl,Purcellville,VA,20132,693000,5,3.5,VILLAGES OF PURCELLVILLE,3245,10454,1989,7,214,19,Active,December-3-2022 12:00 PM,December-3-2022 03:00 PM,https://www.redfin.com/VA/Purcellville/17439-Aldershot-Pl-20132/home/12020487,BRIGHT MLS,VALO2040348,N,Y,39.1380388,-77.6962218
MLS Listing,,Condo/Co-op,9603 Haven Farm Rd Unit F,Perry Hall,MD,21128,249900,2,2.0,PERRY HALL FARMS,1325,,2001,7,189,190,Active,,,https://www.redfin.com/MD/Perry-Hall/9603-Haven-Farm-Rd-21128/unit-F/home/9693026,BRIGHT MLS,MDBC2054824,N,Y,39.4095579,-76.444856
MLS Listing,,Condo/Co-op,503 Shady Ridge Dr,Monroeville,PA,15146,205000,3,2.5,Monroeville,1416,4508,1993,7,145,24,Active,,,https://www.redfin.com/PA/Monroeville/503-Shady-Ridge-Dr-15146/home/73506607,West Penn MLS,1584921,N,Y,40.410151,-79.804955
MLS Listing,,Single Family Residential,11 Lincoln Ave,Mount Ephraim,NJ,08059,325000,4,2.0,Mount Ephraim,2261,5001,1940,7,144,,Pre On-Market,,,https://www.redfin.com/NJ/Mt-Ephraim/11-Lincoln-Ave-08059/home/36261007,BRIGHT MLS,NJCD2038398,N,Y,39.8800761,-75.0917525
MLS Listing,,Townhouse,3070 Spring Peeper Ct,Odenton,MD,21113,550000,2,2.0,TWO RIVERS,1886,3292,2018,7,292,219,Pre On-Market,,,https://www.redfin.com/MD/Odenton/3070-Spring-Peeper-Ct-21113/home/165918849,BRIGHT MLS,MDAA2049384,N,Y,39.0266229,-76.7302026
MLS Listing,,Condo/Co-op,3900 Tunlaw Rd NW #106,Washington,DC,20007,197000,1,1.0,Glover Park,825,,1959,8,239,1029,Active,,,https://www.redfin.com/DC/Washington/3900-Tunlaw-Rd-NW-20007/unit-106/home/108499950,BRIGHT MLS,DCDC2075806,N,Y,38.9253096,-77.0779086
MLS Listing,,Single Family Residential,9 Sunshine Ct,Newark,DE,19702,549000,4,3.5,NORWEGIAN WOODS SC I,3025,13068,1998,8,181,19,Pre On-Market,,,https://www.redfin.com/DE/Newark/9-Sunshine-Ct-19702/home/44948866,BRIGHT MLS,DENC2034750,N,Y,39.6546442,-75.6828761
MLS Listing,,Single Family Residential,4013 W Forest Park Ave,Baltimore,MD,21207,299900,9,4.0,Ward 15,3775,17200,1920,8,79,,Pre On-Market,,,https://www.redfin.com/MD/Baltimore/4013-W-Forest-Park-Ave-21207/home/10882527,BRIGHT MLS,MDBA2067732,N,Y,39.3242926,-76.6868145
MLS Listing,,Townhouse,669 Roxborough Ave,Philadelphia,PA,19128,395000,3,2.0,ROXBOROUGH,1320,3605,1925,8,299,,Active,December-3-2022 12:00 PM,December-3-2022 02:00 PM,https://www.redfin.com/PA/Philadelphia/669-Roxborough-Ave-19128/home/38558860,BRIGHT MLS,PAPH2179716,N,Y,40.0319656,-75.2061641
MLS Listing,,Single Family Residential,3708 63rd Ave,Hyattsville,MD,20785,398725,4,2.0,COLUMBIA HIGHLANDS,1564,8000,1955,9,255,,Active,,,https://www.redfin.com/MD/Landover/3708-63rd-Ave-20785/home/10548730,BRIGHT MLS,MDPG2062884,N,Y,38.9355732,-76.9097786
MLS Listing,,Single Family Residential,1500 Hastings Mill Rd,Upper St. Clair,PA,15241,389900,4,2.5,Upper St. Clair,1920,35362,1978,10,203,25,Active,,,https://www.redfin.com/PA/Pittsburgh/1500-Hastings-Mill-Rd-15241/home/74777117,West Penn MLS,1584621,N,Y,40.329716,-80.0939323
MLS Listing,,Townhouse,410 Hydrangea Pl,Gaithersburg,MD,20878,719900,3,3.0,WATKINS MILL TOWN CENTER,2374,1638,2015,11,303,92,Active,,,https://www.redfin.com/MD/Gaithersburg/410-Hydrangea-Pl-20878/home/110056749,BRIGHT MLS,MDMC2076060,N,Y,39.1523837,-77.2242293
MLS Listing,,Single Family Residential,15101 Turkey Foot Rd,Gaithersburg,MD,20878,730000,5,3.0,DARNESTOWN OUTSIDE,3480,21703,1962,11,210,,Active,,,https://www.redfin.com/MD/Gaithersburg/15101-Turkey-Foot-Rd-20878/home/10606659,BRIGHT MLS,MDMC2076290,N,Y,39.1034824,-77.2836825
MLS Listing,,Townhouse,72 Boileau Ct,Middletown,MD,21769,330000,3,2.5,JEFFERSON VILLAGE,1770,5662,1974,12,186,,Active,,,https://www.redfin.com/MD/Middletown/72-Boileau-Ct-21769/home/15201182,BRIGHT MLS,MDFR2028376,N,Y,39.4422436,-77.5482275
MLS Listing,,Multi-Family (2-4 Unit),613 Chapel Thru 617 Aly,Frederick,MD,21701,490000,,,Frederick,2446,3895,1914,12,200,,Active,,,https://www.redfin.com/MD/Frederick/613-Chapel-Thru-617-ALY-21701/home/171800912,BRIGHT MLS,MDFR2028468,N,Y,39.43001,-77.3755
MLS Listing,,Single Family Residential,1348 Harrington Rd,Havertown,PA,19083,350000,3,2.0,LYNNWOOD,1259,5227,1950,12,278,,Active,,,https://www.redfin.com/PA/Havertown/1348-Harrington-Rd-19083/home/38665545,BRIGHT MLS,PADE2037570,N,Y,39.9810254,-75.3205146
MLS Listing,,Townhouse,923 Victory Ave,Brooklyn,MD,21225,199900,4,3.0,RITCHIE HEIGHTS,1544,1998,1948,12,129,,Active,,,https://www.redfin.com/MD/Baltimore/923-Victory-Ave-21225/home/10423697,BRIGHT MLS,MDAA2048744,N,Y,39.2247688,-76.6104137
MLS Listing,,Single Family Residential,3607 Melfa Ln,Bowie,MD,20715,499900,5,2.0,MEADOWBROOK AT BELAIR,2214,9423,1964,12,226,,Active,,,https://www.redfin.com/MD/Bowie/3607-Melfa-Ln-20715/home/10880409,BRIGHT MLS,MDPG2062882,N,Y,38.9843605,-76.7452626
MLS Listing,,Townhouse,13311 Woodruff Ct,Germantown,MD,20874,420000,4,3.5,CHURCHILL TWN SECTOR TH,2628,2377,1976,12,160,106,Active,,,https://www.redfin.com/MD/Germantown/13311-Woodruff-Ct-20874/home/10491211,BRIGHT MLS,MDMC2070070,N,Y,39.1828346,-77.2776337
MLS Listing,,Condo/Co-op,4201 Cathedral Ave NW Unit 710W,Washington,DC,20016,365000,1,1.0,Wesley Heights,889,,1960,12,411,910,Active,December-4-2022 12:00 PM,December-4-2022 02:00 PM,https://www.redfin.com/DC/Washington/4201-Cathedral-Ave-NW-20016/unit-710W/home/9952544,BRIGHT MLS,DCDC2074206,N,Y,38.9308895,-77.0831451
MLS Listing,,Townhouse,4 Augustus Wally Ct #2,Reisterstown,MD,21136,325000,3,3.0,GOLDSBOROUGH MANOR,2554,,1999,12,127,,Pre On-Market,,,https://www.redfin.com/MD/Reisterstown/4-Augustus-Ct-21136/unit-2/home/9583191,BRIGHT MLS,MDBC2054822,N,Y,39.4610168,-76.8263567
MLS Listing,,Townhouse,1826 M St NE,Washington,DC,20002,799000,4,3.5,Trinidad,1930,1440,1930,12,414,,Active,,,https://www.redfin.com/DC/Washington/1826-M-St-NE-20002/home/10109800,BRIGHT MLS,DCDC2075102,N,Y,38.9058057,-76.9769337
MLS Listing,,Single Family Residential,1014 Jackson St NE,Washington,DC,20017,845000,3,3.0,Brookland,1930,5001,1925,12,438,,Active,,,https://www.redfin.com/DC/Washington/1014-Jackson-St-NE-20017/home/10087481,BRIGHT MLS,DCDC2074964,N,Y,38.9297098,-76.9917352
MLS Listing,,Townhouse,642 Buggy Ride Rd,Bel Air,MD,21015,435000,3,3.0,MAGNESS MILL,2160,2141,2016,12,201,67,Active,,,https://www.redfin.com/MD/Bel-Air/642-Buggy-Ride-Rd-21015/home/104463733,BRIGHT MLS,MDHR2018014,N,Y,39.5062617,-76.3501277
MLS Listing,,Townhouse,42641 New Dawn Ter,Brambleton,VA,20148,550000,3,3.5,BRAMBLETON,1912,1307,2012,12,288,205,Active,,,https://www.redfin.com/VA/Ashburn/42641-New-Dawn-Ter-20148/home/28587443,BRIGHT MLS,VALO2040090,N,Y,38.9944598,-77.5270872
MLS Listing,,Townhouse,1110 6th St NE #5,Washington,DC,20002,899900,3,2.5,Old City 1,1870,,1927,12,481,335,Active,,,https://www.redfin.com/DC/Washington/1110-6th-St-NE-20002/unit-5/home/79870141,BRIGHT MLS,DCDC2075060,N,Y,38.9042157,-76.9986645
MLS Listing,,Condo/Co-op,3000 Spout Run Pkwy Unit A211,Arlington,VA,22201,369000,2,1.0,CARDINAL HOUSE,994,,1959,12,371,633,Active,,,https://www.redfin.com/VA/Arlington/3000-Spout-Run-Pkwy-22201/unit-A211/home/11247172,BRIGHT MLS,VAAR2024882,N,Y,38.8962696,-77.0943089
MLS Listing,,Single Family Residential,205 S Marlyn Ave,Essex,MD,21221,270000,3,2.0,LUTZ,1376,9250,1942,13,196,,Active,,,https://www.redfin.com/MD/Essex/205-S-Marlyn-Ave-21221/home/9453676,BRIGHT MLS,MDBC2054558,N,Y,39.309649,-76.4644199
MLS Listing,,Townhouse,1334 Crofton Rd,Baltimore,MD,21239,245000,3,2.0,Ward 27,1580,,1944,13,155,1,Active,,,https://www.redfin.com/MD/Baltimore/1334-Crofton-Rd-21239/home/11194710,BRIGHT MLS,MDBA2064184,N,Y,39.3473038,-76.5939582
MLS Listing,,Townhouse,5922 Talbot Dr,Ellicott City,MD,21043,499900,3,2.5,SHIPLEYS GRANT,1672,8712,2012,13,299,123,Active,,,https://www.redfin.com/MD/Ellicott-City/5922-Talbot-Dr-21043/home/23426688,BRIGHT MLS,MDHW2023044,N,Y,39.213397,-76.799119
MLS Listing,,Condo/Co-op,1 Scott Cir NW #206,Washington,DC,20036,260000,1,1.0,Old City 2,518,,1891,13,502,529,Active,,,https://www.redfin.com/DC/Washington/1-Scott-Cir-NW-20036/unit-206/home/9868793,BRIGHT MLS,DCDC2074474,N,Y,38.9077466,-77.036084
MLS Listing,,Single Family Residential,1910 Frederick Rd,Catonsville,MD,21228,400000,3,1.5,ROLLINGWOOD,1644,10396,1956,13,243,,Active,,,https://www.redfin.com/MD/Catonsville/1910-Frederick-Rd-21228/home/9145067,BRIGHT MLS,MDBC2054352,N,Y,39.2675836,-76.759284
MLS Listing,,Single Family Residential,517 Clovis Ave,Capitol Heights,MD,20743,385000,4,3.0,CAPITOL HEIGHTS,1836,4000,1950,13,210,,Active,,,https://www.redfin.com/MD/Capitol-Heights/517-Clovis-Ave-20743/home/11023905,BRIGHT MLS,MDPG2062748,N,Y,38.8827283,-76.9190877
MLS Listing,,Townhouse,5732 Yellowrose Ct,Columbia,MD,21045,369900,3,2.5,Columbia,1810,1611,1976,13,204,58,Active,,,https://www.redfin.com/MD/Columbia/5732-Yellowrose-Ct-21045/home/9951834,BRIGHT MLS,MDHW2022776,N,Y,39.2133237,-76.8158605
MLS Listing,,Single Family Residential,905 Maple Ave,Rockville,MD,20851,799900,3,3.0,JANETA,2160,8733,1897,13,370,,Active,,,https://www.redfin.com/MD/Rockville/905-Maple-Ave-20851/home/10511672,BRIGHT MLS,MDMC2074366,N,Y,39.081906,-77.1366744
MLS Listing,,Single Family Residential,908 White Marlin Way,Annapolis,MD,21409,825000,4,3.5,PETTEBONE FARMS,3252,20009,1999,13,254,28,Active,,,https://www.redfin.com/MD/Annapolis/908-White-Marlin-Way-21409/home/10270978,BRIGHT MLS,MDAA2049094,N,Y,39.0321657,-76.4254182
MLS Listing,,Condo/Co-op,14103 Valleyfield Dr Unit 6-3,Silver Spring,MD,20906,270000,3,2.0,WINTERGATE AT LONGMEAD CODM,977,,1991,13,276,357,Pre On-Market,,,https://www.redfin.com/MD/Aspen-Hill/14103-Valleyfield-Dr-20906/unit-6-3/home/11139695,BRIGHT MLS,MDMC2076092,N,Y,39.105485,-77.056011
MLS Listing,,Condo/Co-op,1211 Light St #410,Baltimore,MD,21230,190000,1,1.0,Ward 24,804,,2005,14,236,390,Active,,,https://www.redfin.com/MD/Baltimore/1211-Light-St-21230/unit-410/home/11223488,BRIGHT MLS,MDBA2066654,N,Y,39.2755685,-76.6117565
MLS Listing,,Townhouse,2742 Fredericksburg Rd,Hanover,MD,21076,475000,3,3.0,PARKSIDE,2316,1800,2017,15,205,89,Active,,,https://www.redfin.com/MD/Hanover/2742-Fredericksburg-Rd-21076/home/110085987,BRIGHT MLS,MDAA2048988,N,Y,39.1301053,-76.7467505
MLS Listing,,Single Family Residential,1045 Pennsylvania Ave,Hagerstown,MD,21742,258000,3,2.0,Hagerstown,1505,7700,1943,15,171,,Active,,,https://www.redfin.com/MD/Hagerstown/1045-Pennsylvania-Ave-21742/home/15368925,BRIGHT MLS,MDWA2011934,N,Y,39.659755,-77.7187166
MLS Listing,,Single Family Residential,822 Malibu Dr,Silver Spring,MD,20901,469000,4,2.5,FRANKLIN VALE,1750,6351,1960,17,268,,Active,,,https://www.redfin.com/MD/Silver-Spring/822-Malibu-Dr-20901/home/11071288,BRIGHT MLS,MDMC2075334,N,Y,39.0102343,-76.99241
MLS Listing,,Condo/Co-op,5750 Bou Ave #1812,Rockville,MD,20852,569000,2,2.0,MIDTOWN BETHESDA NORTH CODM,1465,,2007,18,388,933,Active,,,https://www.redfin.com/MD/Rockville/5750-Bou-Ave-20852/unit-1812/home/12451482,BRIGHT MLS,MDMC2075340,N,Y,39.0568655,-77.1167645
MLS Listing,,Single Family Residential,1210 Pocono St,Squirrel Hill,PA,15218,249900,3,1.5,Squirrel Hill,1080,2500,1930,18,231,,Active,,,https://www.redfin.com/PA/Pittsburgh/1210-Pocono-St-15218/home/74477604,West Penn MLS,1583797,N,Y,40.4193689,-79.9037406
MLS Listing,,Townhouse,609 Totten Mews NE,Washington,DC,20017,720000,3,3.5,Brookland,1896,1800,2017,18,380,220,Active,,,https://www.redfin.com/DC/Washington/609-Totten-Mews-NE-20017/home/145427687,BRIGHT MLS,DCDC2074372,N,Y,38.9483825,-76.9987082
MLS Listing,,Single Family Residential,123 Arabella St,Mcdonald - Wsh,PA,15057,80000,3,1.5,McDonald - WSH,1140,8999,1879,18,70,,Active,,,https://www.redfin.com/PA/McDonald/123-Arabella-St-15057/home/70067013,West Penn MLS,1583610,N,Y,40.3701549,-80.2338958
MLS Listing,,Single Family Residential,5909 Wilson Ln,Bethesda,MD,20817,1249900,4,3.5,BRADLEY WOODS,2573,9000,1940,18,486,,Active,,,https://www.redfin.com/MD/Bethesda/5909-Wilson-Ln-20817/home/10673556,BRIGHT MLS,MDMC2075012,N,Y,38.9897589,-77.1204038
MLS Listing,,Townhouse,22460 Cambridgeport Sq,Ashburn,VA,20148,762500,4,3.5,MOOREFIELD STATION,2744,1742,2016,18,278,170,Active,,,https://www.redfin.com/VA/Ashburn/22460-Cambridgeport-Sq-20148/home/112908507,BRIGHT MLS,VALO2040008,N,Y,38.9955088,-77.5088886
MLS Listing,,Single Family Residential,1411 Thomson Rd,Abington,PA,19001,349000,3,1.0,ROSLYN,1092,8732,1955,19,320,,Active,,,https://www.redfin.com/PA/Abington/1411-Thomson-Rd-19001/home/38253379,BRIGHT MLS,PAMC2057652,N,Y,40.1344002,-75.1369114
MLS Listing,,Townhouse,531 Brighton Pl,Essex,MD,21221,234900,3,1.5,BRIGHTON BY THE BAY,1240,1680,1990,20,189,29,Active,,,https://www.redfin.com/MD/Essex/531-Brighton-Pl-21221/home/9474594,BRIGHT MLS,MDBC2053852,N,Y,39.295928,-76.4172785
MLS Listing,,Condo/Co-op,10110 Seattle Slew Ln Unit L,Laurel,MD,20723,389900,2,2.0,PADDOCK POINTE,1440,,2021,20,271,340,Active,,,https://www.redfin.com/MD/Laurel/10110-Seattle-Slew-Ln-20723/unit-L/home/178661278,BRIGHT MLS,MDHW2022810,N,Y,39.1074933,-76.8360531
MLS Listing,,Single Family Residential,1815 Shore Dr,Edgewater,MD,21037,440000,5,2.5,WOODLAND BEACH,1818,7200,1974,20,242,,Active,,,https://www.redfin.com/MD/Edgewater/1815-Shore-Dr-21037/home/9913571,BRIGHT MLS,MDAA2048538,N,Y,38.929445,-76.5519615
MLS Listing,,Single Family Residential,4005 Delancy Dr,Silver Spring,MD,20906,495000,6,2.5,STONEYBROOK ESTATES,1681,8505,1960,20,294,,Active,,,https://www.redfin.com/MD/Silver-Spring/4005-Delancy-Dr-20906/home/11053384,BRIGHT MLS,MDMC2074522,N,Y,39.0650047,-77.0808419
MLS Listing,,Condo/Co-op,9486 Virginia Center Blvd #119,Vienna,VA,22181,390000,2,2.0,MARQUIS AT VIENNA STATIO,1098,,2003,20,355,465,Active,December-4-2022 01:00 PM,December-4-2022 03:00 PM,https://www.redfin.com/VA/Vienna/9486-Virginia-Center-Blvd-22181/unit-119/home/9851806,BRIGHT MLS,VAFX2101698,N,Y,38.880354,-77.2703548
MLS Listing,,Single Family Residential,4107 Shepherd St,Brentwood,MD,20722,425000,3,2.0,MOYERS PARK,1266,4000,1944,20,336,,Active,,,https://www.redfin.com/MD/Brentwood/4107-Shepherd-St-20722/home/10540262,BRIGHT MLS,MDPG2062352,N,Y,38.9393426,-76.9499703
MLS Listing,,Townhouse,2043 Appletree St,Philadelphia,PA,19103,774900,2,2.0,LOGAN SQUARE,1631,633,1850,20,475,,Active,December-3-2022 01:00 PM,December-3-2022 03:00 PM,https://www.redfin.com/PA/Philadelphia/2043-Appletree-St-19103/home/38233173,BRIGHT MLS,PAPH2177018,N,Y,39.9563604,-75.173849
MLS Listing,,Townhouse,21662 Calamary Cir,Sterling,VA,20164,465000,3,3.5,ROLLING RIDGE TOWNHOME CONDO,1993,,1989,20,233,265,Active,December-4-2022 01:00 PM,December-4-2022 04:00 PM,https://www.redfin.com/VA/Sterling/21662-Calamary-Cir-20164/home/11949152,BRIGHT MLS,VALO2040004,N,Y,39.0150031,-77.381496
MLS Listing,,Condo/Co-op,2665 Prosperity Ave #338,Fairfax,VA,22031,320000,1,1.0,HALSTEAD AT THE METRO II,690,,2006,20,464,328,Active,,,https://www.redfin.com/VA/Fairfax/2665-Prosperity-Ave-22031/unit-338/home/12073810,BRIGHT MLS,VAFX2102280,N,Y,38.8804463,-77.2311779
MLS Listing,,Townhouse,4409 Cherry Way,Baltimore,MD,21229,299000,4,3.5,Ward 28,2020,2178,2017,21,148,94,Active,,,https://www.redfin.com/MD/Baltimore/4409-Cherry-Way-21229/home/113889515,BRIGHT MLS,MDBA2065874,N,Y,39.2904098,-76.6904585
MLS Listing,,Single Family Residential,7700 Quaint Ct,Bowie,MD,20720,630000,5,3.5,NORTHRIDGE PLAT 2,3608,11293,1992,21,175,70,Active,,,https://www.redfin.com/MD/Bowie/7700-Quaint-Ct-20720/home/10875939,BRIGHT MLS,MDPG2062248,N,Y,38.9950195,-76.7879755
MLS Listing,,Townhouse,7022 Onyx Ct,Capitol Heights,MD,20743,355000,4,3.5,YORKSHIRE KNOLLS-PLAT 10>,1885,1500,2000,21,188,84,Active,,,https://www.redfin.com/MD/Capitol-Heights/7022-Onyx-Ct-20743/home/11022224,BRIGHT MLS,MDPG2062634,N,Y,38.9004907,-76.8862495
MLS Listing,,Townhouse,516 W 4th St,Wilmington,DE,19801,225000,4,2.5,WILMINGTON,2050,1307,1890,21,110,,Active,,,https://www.redfin.com/DE/Wilmington/516-W-4th-St-19801/home/45046470,BRIGHT MLS,DENC2034242,N,Y,39.7421035,-75.5559293
MLS Listing,,Townhouse,42282 Porter Ridge Ter,Brambleton,VA,20148,825000,3,4.0,BRAMBLETON TOWN CENTER,3198,3049,2017,21,258,224,Active,December-4-2022 01:00 PM,December-4-2022 03:00 PM,https://www.redfin.com/VA/Brambleton/42282-Porter-Ridge-Ter-20148/home/145748757,BRIGHT MLS,VALO2039692,N,Y,38.9775205,-77.5399557
MLS Listing,,Condo/Co-op,4515 Willard Ave Unit 1212S,Chevy Chase,MD,20815,289369,1,1.0,WILLOUGHBY OF CH CH CODM,878,,1968,22,330,719,Active,,,https://www.redfin.com/MD/Chevy-Chase/4515-Willard-Ave-20815/unit-1212S/home/10693202,BRIGHT MLS,MDMC2074598,N,Y,38.962996,-77.0899468
MLS Listing,,Single Family Residential,10146 Sutherland Rd,Silver Spring,MD,20901,640000,4,3.0,INDIAN SPRING VIEW,1910,6133,1942,24,335,,Pre On-Market,,,https://www.redfin.com/MD/Silver-Spring/10146-Sutherland-Rd-20901/home/11015911,BRIGHT MLS,MDMC2075094,N,Y,39.0223375,-77.0129674
MLS Listing,,Condo/Co-op,2030 8th St NW #406,Washington,DC,20001,389000,1,1.0,Columbia Heights,473,,2014,25,822,396,Active,,,https://www.redfin.com/DC/Washington/2030-8th-St-NW-20001/unit-406/home/107587285,BRIGHT MLS,DCDC2073802,N,Y,38.9174915,-77.0232268
MLS Listing,,Condo/Co-op,11990 Market St #1616,Reston,VA,20190,474900,1,2.0,MIDTOWN AT RESTON TOWN C,939,,2006,25,506,657,Active,,,https://www.redfin.com/VA/Reston/11990-Market-St-20190/unit-1616/home/12073212,BRIGHT MLS,VAFX2100624,N,Y,38.9590162,-77.361059
MLS Listing,,Condo/Co-op,1111 Orren St NE #410,Washington,DC,20002,385000,1,1.0,Trinidad,524,,2016,25,735,312,Active,,,https://www.redfin.com/DC/Washington/1111-Orren-St-NE-20002/unit-410/home/109818039,BRIGHT MLS,DCDC2073338,N,Y,38.9014245,-76.9862531
MLS Listing,,Townhouse,2102 Sabrina Dr,Vienna,VA,22182,815000,3,3.5,COURTHOUSE STATION,1644,1716,1989,25,496,96,Active,,,https://www.redfin.com/VA/Vienna/2102-Sabrina-Dr-22182/home/9462740,BRIGHT MLS,VAFX2101702,N,Y,38.903733,-77.2189819
MLS Listing,,Townhouse,23803 Branchbrier Way,Clarksburg,MD,20871,488000,3,2.5,CLARKSBURG TOWN CENTER,1760,1607,2004,25,277,101,Active,,,https://www.redfin.com/MD/Clarksburg/23803-Branchbrier-Way-20871/home/11196383,BRIGHT MLS,MDMC2074836,N,Y,39.2448607,-77.271652
MLS Listing,,Townhouse,650 Hagner St,Philadelphia,PA,19128,349900,3,2.5,ROXBOROUGH,1548,4214,1962,26,226,,Active,,,https://www.redfin.com/PA/Philadelphia/650-Hagner-St-19128/home/38572578,BRIGHT MLS,PAPH2175166,N,Y,40.0496486,-75.2260643
MLS Listing,,Single Family Residential,12917 Estelle Rd,Silver Spring,MD,20906,460000,3,2.0,GLENMONT HILLS & HGTS,1475,6332,1949,26,312,,Active,,,https://www.redfin.com/MD/Silver-Spring/12917-Estelle-Rd-20906/home/11008987,BRIGHT MLS,MDMC2073866,N,Y,39.0683946,-77.0636194
MLS Listing,,Townhouse,1531 W Lombard St,Baltimore,MD,21223,199900,3,3.5,Ward 19,2610,,1856,26,77,,Active,,,https://www.redfin.com/MD/Baltimore/1531-W-Lombard-St-21223/home/10965369,BRIGHT MLS,MDBA2064982,N,Y,39.2862472,-76.6420158
MLS Listing,,Townhouse,64 Millwheel Ct,Nottingham,MD,21236,269900,2,2.5,MILLWOOD,1650,1599,1985,26,164,50,Active,,,https://www.redfin.com/MD/Nottingham/64-Millwheel-Ct-21236/home/9217059,BRIGHT MLS,MDBC2052888,N,Y,39.3818553,-76.4676031
MLS Listing,,Single Family Residential,3 Jilran Way,Glen Burnie,MD,21060,569000,4,3.5,MARGATE,2083,8640,2012,26,273,,Active,,,https://www.redfin.com/MD/Glen-Burnie/3-Jilran-Way-21060/home/44617162,BRIGHT MLS,MDAA2048302,N,Y,39.1690185,-76.5991407
MLS Listing,,Condo/Co-op,529 Florida Ave #201,Herndon,VA,20170,295000,2,2.0,JEFFERSON MEWS CONDO,1351,,1974,27,218,386,Active,,,https://www.redfin.com/VA/Herndon/529-Florida-Ave-20170/unit-201/home/9188762,BRIGHT MLS,VAFX2101584,N,Y,38.965432,-77.392187
MLS Listing,,Single Family Residential,422 Bay Club Pkwy,North East,MD,21901,509000,3,2.5,CHESAPEAKE CLUB- FAIRWAY VILLAGES,2180,16738,2022,27,233,40,Active,,,https://www.redfin.com/MD/North-East/422-Bay-Club-Pkwy-21901/home/178446869,BRIGHT MLS,MDCC2007102,N,Y,39.574889,-75.9318065
MLS Listing,,Single Family Residential,208 Jennings Ct SE,Leesburg,VA,20175,725000,4,2.5,STRATFORD,2462,13504,1999,27,294,58,Active,,,https://www.redfin.com/VA/Leesburg/208-Jennings-Ct-SE-20175/home/12011354,BRIGHT MLS,VALO2039478,N,Y,39.0954883,-77.5558742
MLS Listing,,Townhouse,216 Gallatin St NW,Washington,DC,20011,849900,4,3.5,Petworth,1582,2286,1937,27,537,,Active,,,https://www.redfin.com/DC/Washington/216-Gallatin-St-NW-20011/home/10065841,BRIGHT MLS,DCDC2073184,N,Y,38.9520478,-77.0142217
MLS Listing,,Condo/Co-op,5450 Whitley Park Ter Unit HR-904,Bethesda,MD,20814,549900,2,2.0,WHITLEY PARK CODM,1863,,1965,27,295,1346,Active,,,https://www.redfin.com/MD/Bethesda/5450-Whitley-Park-Ter-20814/unit-HR-904/home/10700529,BRIGHT MLS,MDMC2066226,N,Y,39.0157422,-77.1100326
MLS Listing,,Single Family Residential,13 Woodsend Ct,Rockville,MD,20854,780000,4,3.5,SADDLEBROOK,2271,10688,1973,27,343,,Active,,,https://www.redfin.com/MD/Rockville/13-Woodsend-Ct-20854/home/10520898,BRIGHT MLS,MDMC2073962,N,Y,39.0751784,-77.1682204
MLS Listing,,Townhouse,372 Avon Rd,Upper Darby,PA,19082,175000,3,1.0,BYWOOD,1315,1307,1928,27,133,,Active,,,https://www.redfin.com/PA/Upper-Darby/372-Avon-Rd-19082/home/38323522,BRIGHT MLS,PADE2036402,N,Y,39.9569667,-75.2684026
MLS Listing,,Single Family Residential,11517 Deborah Dr,Potomac,MD,20854,995000,5,3.5,REGENCY ESTATES,3224,21972,1964,27,309,,Pre On-Market,,,https://www.redfin.com/MD/Potomac/11517-Deborah-Dr-20854/home/10506203,BRIGHT MLS,MDMC2074694,N,Y,39.0431011,-77.1635474
MLS Listing,,Vacant Land,0 Manchester St,Glen Rock,PA,17327,134900,,,Glen Rock,,192100,,27,,,Active,,,https://www.redfin.com/PA/GLEN-ROCK/MANCHESTER-17327/home/141024643,BRIGHT MLS,PAYK2032218,N,Y,39.788553,-76.731208
MLS Listing,,Single Family Residential,770 204th St,Pasadena,MD,21122,369900,3,2.0,GREEN HAVEN,1312,7500,1928,27,282,,Active,,,https://www.redfin.com/MD/Pasadena/770-204th-St-21122/home/10243695,BRIGHT MLS,MDAA2048120,N,Y,39.1421122,-76.546904
MLS Listing,,Townhouse,501 S Sharp St,Baltimore,MD,21201,265000,2,1.5,Ward 22,1064,,1920,27,249,21,Active,,,https://www.redfin.com/MD/Baltimore/501-S-Sharp-St-21201/home/11006312,BRIGHT MLS,MDBA2065880,N,Y,39.2829555,-76.6174073
MLS Listing,,Townhouse,3735 Cassell Pl NE #3735,Washington,DC,20019,525000,4,2.5,Lily Ponds,1705,,1994,27,308,200,Active,,,https://www.redfin.com/DC/Washington/3735-Cassell-Pl-NE-20019/unit-3735/home/10119190,BRIGHT MLS,DCDC2073752,N,Y,38.9010943,-76.9493629
MLS Listing,,Single Family Residential,2800 Upshur St,Mount Rainier,MD,20712,315000,3,3.0,MT RAINIER- ROGERS 1ST ADDN,1218,4240,1921,27,259,,Active,,,https://www.redfin.com/MD/Mt-Rainier/2800-Upshur-St-20712/home/10986618,BRIGHT MLS,MDPG2061958,N,Y,38.9433816,-76.9682891
MLS Listing,,Single Family Residential,2800 Laurel Ave,Cheverly,MD,20785,424900,3,2.0,CHEVERLY,1613,6671,1939,27,263,,Active,,,https://www.redfin.com/MD/Cheverly/2800-Laurel-Ave-20785/home/10543556,BRIGHT MLS,MDPG2061962,N,Y,38.9251551,-76.9094071
MLS Listing,,Single Family Residential,3910 Clovelly Rd,Ellicott City,MD,21042,539900,3,3.0,DUNLOGGIN,2184,20037,1954,28,247,,Active,,,https://www.redfin.com/MD/Ellicott-City/3910-Clovelly-Rd-21042/home/10026194,BRIGHT MLS,MDHW2022448,N,Y,39.2643051,-76.8240502
MLS Listing,,Single Family Residential,18313 Eldorado Way,Leesburg,VA,20176,1500000,4,4.5,RIVER CREEK,7020,14375,2001,28,214,212,Active,,,https://www.redfin.com/VA/Leesburg/18313-Eldorado-Way-20176/home/12046218,BRIGHT MLS,VALO2039460,N,Y,39.1088873,-77.4933643
MLS Listing,,Single Family Residential,4509 Buchanan St,Hyattsville,MD,20781,550000,4,4.0,EMMONS & SWARTZELL,2771,8737,1899,28,198,,Active,,,https://www.redfin.com/MD/Hyattsville/4509-Buchanan-St-20781/home/10948910,BRIGHT MLS,MDPG2060694,N,Y,38.9475017,-76.9398871
MLS Listing,,Single Family Residential,1807 Plymouth Ct,Bowie,MD,20716,460000,3,2.5,POINTER RIDGE AT,1810,10954,1972,30,254,,Active,,,https://www.redfin.com/MD/Bowie/1807-Plymouth-Ct-20716/home/10669537,BRIGHT MLS,MDPG2061554,N,Y,38.9138553,-76.7290753
MLS Listing,,Condo/Co-op,223 Florida Ave NW #3,Washington,DC,20001,389000,1,1.0,Eckington,454,,1905,32,857,327,Active,,,https://www.redfin.com/DC/Washington/223-Florida-Ave-NW-20001/unit-3/home/21647519,BRIGHT MLS,DCDC2072290,N,Y,38.9134746,-77.0149066
MLS Listing,,Townhouse,21202 Dorsey Spring Pl #2,Germantown,MD,20876,469000,3,3.5,MILESTONE TOWNHOUSE CODM,3154,,1997,32,149,182,Active,,,https://www.redfin.com/MD/Germantown/21202-Dorsey-Spring-Pl-20876/unit-2/home/10498701,BRIGHT MLS,MDMC2074358,N,Y,39.2047632,-77.2661693
MLS Listing,,Townhouse,2323 Ontario Rd NW #1,Washington,DC,20009,1090000,2,1.5,Mount Pleasant,1400,,1926,32,779,216,Active,,,https://www.redfin.com/DC/Washington/2323-Ontario-Rd-NW-20009/unit-1/home/11747570,BRIGHT MLS,DCDC2073190,N,Y,38.9206126,-77.0397714
MLS Listing,,Condo/Co-op,3000 Spout Run Pkwy Unit A612,Arlington,VA,22201,350000,2,1.0,CARDINAL HOUSE,994,,1959,33,352,638,Active,,,https://www.redfin.com/VA/Arlington/3000-Spout-Run-Pkwy-22201/unit-A612/home/11247221,BRIGHT MLS,VAAR2024298,N,Y,38.8962696,-77.0943089
MLS Listing,,Single Family Residential,22415 Wims Rd,Clarksburg,MD,20871,820000,5,5.0,CLARKSBURG OUTSIDE,5961,43560,1977,33,138,,Active,,,https://www.redfin.com/MD/Clarksburg/22415-Wims-Rd-20871/home/10490417,BRIGHT MLS,MDMC2073522,N,Y,39.2242191,-77.2654343
MLS Listing,,Townhouse,3603 Winfield Ln NW,Washington,DC,20007,1850000,4,3.5,Georgetown,2654,1064,1985,33,697,255,Active,,,https://www.redfin.com/DC/Washington/3603-Winfield-Ln-NW-20007/home/9932064,BRIGHT MLS,DCDC2070982,N,Y,38.9119689,-77.0708703
MLS Listing,,Single Family Residential,42514 Oxford Forest Cir,Chantilly,VA,20152,1099999,5,4.5,EASTVIEW AT STONE RIDGE,4190,6534,2018,33,263,101,Active,,,https://www.redfin.com/VA/Chantilly/42514-Oxford-Forest-Cir-20152/home/112908666,BRIGHT MLS,VALO2039212,N,Y,38.9285956,-77.5358327
MLS Listing,,Condo/Co-op,1725 17th St NW #103,Washington,DC,20009,250000,0,1.0,Old City 2,480,,1917,34,521,561,Active,,,https://www.redfin.com/DC/Washington/1725-17th-St-NW-20009/unit-103/home/12543140,BRIGHT MLS,DCDC2071550,N,Y,38.9135147,-77.0379101
MLS Listing,,Single Family Residential,7003 Club House Cir,New Market,MD,21774,670000,4,4.5,WESTWINDS,3302,13353,1993,34,203,117,Active,,,https://www.redfin.com/MD/New-Market/7003-Club-House-Cir-21774/home/15208025,BRIGHT MLS,MDFR2026504,N,Y,39.4252412,-77.2717194
MLS Listing,,Townhouse,1641 Lang Pl NE,Washington,DC,20002,585000,2,2.5,Trinidad,1020,1180,1939,34,574,,Active,,,https://www.redfin.com/DC/Washington/1641-Lang-Pl-NE-20002/home/10110892,BRIGHT MLS,DCDC2071718,N,Y,38.9042295,-76.9793166
MLS Listing,,Condo/Co-op,1601 18th St NW #703,Washington,DC,20009,365000,1,1.0,Old City 2,658,,1962,34,555,927,Active,,,https://www.redfin.com/DC/Washington/1601-18th-St-NW-20009/unit-703/home/9860973,BRIGHT MLS,DCDC2072118,N,Y,38.9113109,-77.041231
MLS Listing,,Townhouse,1727 Fieldstone Ct #13,Hanover,MD,21076,414500,3,2.5,STONEY RUN,2100,,2017,34,197,266,Active,,,https://www.redfin.com/MD/Hanover/1727-Fieldstone-Ct-21076/unit-13/home/145708508,BRIGHT MLS,MDAA2046874,N,Y,39.15094,-76.7223985
MLS Listing,,Townhouse,408 Haupt Sq SE,Leesburg,VA,20175,549900,3,3.5,CRESCENT PLACE SUBDIVISION,1748,871,2017,35,315,85,Active,,,https://www.redfin.com/VA/Leesburg/408-Haupt-Sq-SE-20175/home/112909391,BRIGHT MLS,VALO2039136,N,Y,39.1091859,-77.5615653
MLS Listing,,Townhouse,3309 Theodore R Hagans Dr NE,Washington,DC,20018,659000,3,3.0,Fort Lincoln,2068,2835,2009,35,319,147,Active,,,https://www.redfin.com/DC/Washington/3309-Theodore-R-Hagans-Dr-NE-20018/home/28428618,BRIGHT MLS,DCDC2072734,N,Y,38.921106,-76.9577685
MLS Listing,,Townhouse,2125 Cambridge St,Baltimore,MD,21231,895000,5,4.0,Ward 1,2982,1742,1920,35,300,,Active,,,https://www.redfin.com/MD/Baltimore/2125-Cambridge-St-21231/home/10728116,BRIGHT MLS,MDBA2064980,N,Y,39.2843578,-76.5860677
MLS Listing,,Single Family Residential,3808 Pinewood Ave,Baltimore,MD,21206,379900,5,2.5,Ward 27,2568,7250,1910,36,148,,Active,,,https://www.redfin.com/MD/Baltimore/3808-Pinewood-Ave-21206/home/11887501,BRIGHT MLS,MDBA2062168,N,Y,39.3561481,-76.5351625
MLS Listing,,Multi-Family (2-4 Unit),22 Q St NE,Washington,DC,20002,1950000,8,5.0,Eckington,6072,3150,1900,39,321,,Active,,,https://www.redfin.com/DC/Washington/22-Q-St-NE-20002/home/10072801,BRIGHT MLS,DCDC2070652,N,Y,38.9114049,-77.0079789
MLS Listing,,Single Family Residential,701 E Dickenson Ct,Sterling,VA,20164,559000,4,2.5,STERLING PARK,1900,11326,1967,39,294,,Active,,,https://www.redfin.com/VA/Sterling/701-E-Dickenson-Ct-20164/home/11962166,BRIGHT MLS,VALO2038774,N,Y,38.9933191,-77.4076405
MLS Listing,,Condo/Co-op,201 Massachusetts Ave NE #313,Washington,DC,20002,260000,0,1.0,Capitol Hill,445,,1900,39,584,279,Active,,,https://www.redfin.com/DC/Washington/201-Massachusetts-Ave-NE-20002/unit-313/home/10173939,BRIGHT MLS,DCDC2071724,N,Y,38.8947122,-77.0026132
MLS Listing,,Townhouse,5411 Illinois Ave NW,Washington,DC,20011,889000,4,4.5,Petworth,2386,1842,1910,39,373,,Active,,,https://www.redfin.com/DC/Washington/5411-Illinois-Ave-NW-20011/home/10039686,BRIGHT MLS,DCDC2071658,N,Y,38.9556615,-77.0266856
MLS Listing,,Townhouse,341 Azalea Dr,Peters Twp,PA,15367,610000,3,3.5,Peters Twp,2364,2164,2020,39,258,120,Active,,,https://www.redfin.com/PA/VENETIA/341-AZALEA-DR-15367/home/175246184,West Penn MLS,1581216,N,Y,40.290577,-80.063623
MLS Listing,,Townhouse,1345 E Oxford St,Philadelphia,PA,19125,399999,3,1.5,FISHTOWN,1616,1115,1915,39,248,,Active,,,https://www.redfin.com/PA/Philadelphia/1345-E-Oxford-St-19125/home/38461315,BRIGHT MLS,PAPH2171492,N,Y,39.9724712,-75.1323187
MLS Listing,,Townhouse,8801 Howard Forest Ln,Pikesville,MD,21208,450000,4,3.0,GREY ROCK VILLAS,2558,,1999,40,176,598,Active,,,https://www.redfin.com/MD/Pikesville/8801-Howard-Forest-Ln-21208/home/45107328,BRIGHT MLS,MDBC2052346,N,Y,39.391217,-76.737799
MLS Listing,,Townhouse,4606 8th St NW,Washington,DC,20011,1075000,4,3.5,Petworth,2381,1700,1921,40,451,,Active,,,https://www.redfin.com/DC/Washington/4606-8th-St-NW-20011/home/10041200,BRIGHT MLS,DCDC2072120,N,Y,38.9465051,-77.0238714
MLS Listing,,Townhouse,1127 Orren St NE,Washington,DC,20002,685000,4,3.0,Trinidad,2064,2888,1925,41,332,,Active,,,https://www.redfin.com/DC/Washington/1127-Orren-St-NE-20002/home/182303833,BRIGHT MLS,DCDC2071110,N,Y,38.9019272,-76.9859164
MLS Listing,,Townhouse,1525 6th St NW,Washington,DC,20001,849900,3,2.5,Old City 2,1460,1258,1880,41,582,,Active,,,https://www.redfin.com/DC/Washington/1525-6th-St-NW-20001/home/9881773,BRIGHT MLS,DCDC2071214,N,Y,38.9103305,-77.0196339
MLS Listing,,Condo/Co-op,2101 Market St #3808,Philadelphia,PA,19103,499000,1,1.0,RITTENHOUSE SQUARE,761,,2008,41,656,616,Active,,,https://www.redfin.com/PA/Philadelphia/2101-Market-St-19103/unit-3808/home/38050839,BRIGHT MLS,PAPH2161906,N,Y,39.954143,-75.1753775
MLS Listing,,Single Family Residential,845 Snow Valley Ln,Odenton,MD,21113,569000,4,3.5,FOUR SEASONS ESTATES,2508,11430,1992,41,227,20,Active,,,https://www.redfin.com/MD/Odenton/845-Snow-Valley-Ln-21113/home/10332686,BRIGHT MLS,MDAA2044794,N,Y,39.063701,-76.695947
MLS Listing,,Townhouse,42649 Aden Ter,Ashburn,VA,20148,699900,3,3.5,GOOSE CREEK PRESERVE,2614,2614,2016,41,268,205,Active,,,https://www.redfin.com/VA/Ashburn/42649-Aden-Ter-20148/home/105515879,BRIGHT MLS,VALO2038910,N,Y,39.0333484,-77.5264489
MLS Listing,,Condo/Co-op,3701 Connecticut Ave NW #339,Washington,DC,20008,315000,1,1.0,Forest Hills,705,,1951,41,447,740,Active,,,https://www.redfin.com/DC/Washington/3701-Connecticut-Ave-NW-20008/unit-339/home/9990976,BRIGHT MLS,DCDC2071276,N,Y,38.9383349,-77.0592347
MLS Listing,,Condo/Co-op,2100 Lee Hwy #416,Arlington,VA,22201,572000,2,2.0,ASTORIA,1259,,1987,41,454,923,Active,December-4-2022 02:00 PM,December-4-2022 04:00 PM,https://www.redfin.com/VA/Arlington/2100-Langston-Blvd-22201/unit-416/home/11249914,BRIGHT MLS,VAAR2023986,N,Y,38.895868,-77.083719
MLS Listing,,Single Family Residential,17 Barbara Ellen Pl,Lovettsville,VA,20180,645000,4,3.5,KINGSRIDGE ESTATES,3852,8276,2007,43,167,57,Active,,,https://www.redfin.com/VA/Lovettsville/17-Barbara-Ellen-Pl-20180/home/14365848,BRIGHT MLS,VALO2038646,N,Y,39.2830168,-77.6414194
MLS Listing,,Single Family Residential,18607 Maugans Ave,Hagerstown,MD,21742,225000,3,1.5,ORCHARD HILLS,1794,12632,1964,43,125,,Active,,,https://www.redfin.com/MD/Hagerstown/18607-Maugans-Ave-21742/home/15357216,BRIGHT MLS,MDWA2011052,N,Y,39.6865309,-77.7236353
MLS Listing,,Single Family Residential,5507 Springlake Way,Baltimore,MD,21212,599900,3,3.5,Ward 27,2164,13494,1952,46,277,3,Active,,,https://www.redfin.com/MD/Baltimore/5507-Springlake-Way-21212/home/11212233,BRIGHT MLS,MDBA2063806,N,Y,39.3650907,-76.6170146
MLS Listing,,Townhouse,841 N Washington St,Baltimore,MD,21205,299900,3,1.5,Ward 7,1850,1306,1920,47,162,,Active,,,https://www.redfin.com/MD/Baltimore/841-N-Washington-St-21205/home/10769547,BRIGHT MLS,MDBA2062614,N,Y,39.3005283,-76.5894693
MLS Listing,,Single Family Residential,1501 Montana Dr,Downingtown,PA,19335,624900,4,2.5,PINNACLE @ BRANDYW,3504,10004,2003,47,178,13,Active,,,https://www.redfin.com/PA/Downingtown/1501-Montana-Dr-19335/home/39348951,BRIGHT MLS,PACT2034560,N,Y,39.9794186,-75.6952818
MLS Listing,,Condo/Co-op,1150 K St NW #302,Washington,DC,20005,620000,2,2.0,Central,953,,2005,47,651,778,Active,,,https://www.redfin.com/DC/Washington/1150-K-St-NW-20005/unit-302/home/10347477,BRIGHT MLS,DCDC2070902,N,Y,38.9022175,-77.0277387
MLS Listing,,Single Family Residential,2570 Wild Olive Ct,Vienna,VA,22181,1140000,5,3.5,VIENNA OAKS,2852,14374,1977,47,400,,Active,,,https://www.redfin.com/VA/Vienna/2570-Wild-Olive-Ct-22181/home/9451422,BRIGHT MLS,VAFX2098772,N,Y,38.8903528,-77.2733579
MLS Listing,,Single Family Residential,3514 Cabot Rd,Randallstown,MD,21133,350000,4,2.5,KINGS POINT,1826,11684,1972,48,192,,Active,,,https://www.redfin.com/MD/Randallstown/3514-Cabot-Rd-21133/home/9504037,BRIGHT MLS,MDBC2051366,N,Y,39.3690396,-76.8300429
MLS Listing,,Townhouse,1404 N Bouvier St,Philadelphia,PA,19121,279000,3,1.5,Philadelphia,1628,2888,2002,48,171,,Active,,,https://www.redfin.com/PA/Philadelphia/1404-N-Bouvier-St-19121/home/37976825,BRIGHT MLS,PAPH2167634,N,Y,39.9758251,-75.1644656
MLS Listing,,Townhouse,10277 Rutland Round Rd #42,Columbia,MD,21044,472500,3,3.0,GOVERNORS GRANT,2130,,2003,48,222,236,Active,,,https://www.redfin.com/MD/Columbia/10277-Rutland-Round-Rd-21044/unit-42/home/10217920,BRIGHT MLS,MDHW2021934,N,Y,39.216372,-76.866728
MLS Listing,,Townhouse,2055 Martha St,Philadelphia,PA,19125,299999,2,1.0,FISHTOWN,790,566,1875,48,380,,Active,,,https://www.redfin.com/PA/Philadelphia/2055-Martha-St-19125/home/38818769,BRIGHT MLS,PAPH2166148,N,Y,39.980406,-75.1311304
MLS Listing,,Single Family Residential,5916 Montgomery St,Gwynn Oak,MD,21207,389900,4,2.5,CATONSVILLE MANOR,1761,9375,1930,48,221,,Active,,,https://www.redfin.com/MD/Baltimore/5916-Montgomery-St-21207/home/9137025,BRIGHT MLS,MDBC2051302,N,Y,39.2988615,-76.7267386
MLS Listing,,Townhouse,15726 Piller Ln,Bowie,MD,20716,329900,3,2.5,LAKE VILLAGE MANOR AT LAKE VILLAGE-PLAT 2>,1470,1600,1982,48,224,66,Active,,,https://www.redfin.com/MD/Bowie/15726-Piller-Ln-20716/home/10657275,BRIGHT MLS,MDPG2059434,N,Y,38.919198,-76.734255
MLS Listing,,Townhouse,450 W 6th Ave,Conshohocken,PA,19428,529900,5,2.5,COLONIAL,2355,4200,1950,48,225,,Active,,,https://www.redfin.com/PA/Conshohocken/450-W-6th-Ave-19428/home/38050217,BRIGHT MLS,PAMC2054702,N,Y,40.0825717,-75.30949
MLS Listing,,Townhouse,1727 Druid Hill Ave,Baltimore,MD,21217,249900,4,2.5,Ward 14,1840,1307,1920,53,136,,Active,December-3-2022 12:00 PM,December-3-2022 02:00 PM,https://www.redfin.com/MD/Baltimore/1727-Druid-Hill-Ave-21217/home/10880379,BRIGHT MLS,MDBA2056524,N,Y,39.3056814,-76.632827
MLS Listing,,Condo/Co-op,1239 Vermont Ave NW #102,Washington,DC,20005,445000,2,2.0,Old City 2,841,,1964,53,529,1007,Active,,,https://www.redfin.com/DC/Washington/1239-Vermont-Ave-NW-20005/unit-102/home/9872825,BRIGHT MLS,DCDC2069520,N,Y,38.9069956,-77.0306821
MLS Listing,,Townhouse,1744 Webster St,Baltimore,MD,21230,360000,3,1.5,Ward 24,1244,,1900,53,289,,Active,,,https://www.redfin.com/MD/Baltimore/1744-Webster-St-21230/home/11020770,BRIGHT MLS,MDBA2063096,N,Y,39.2699454,-76.6044022
MLS Listing,,Townhouse,13 16th St NE,Washington,DC,20002,695000,2,1.5,Old City 1,832,732,1914,54,835,,Active,,,https://www.redfin.com/DC/Washington/13-16th-St-NE-20002/home/9919912,BRIGHT MLS,DCDC2069626,N,Y,38.8903229,-76.9819817
MLS Listing,,Single Family Residential,10118 Charington Rd,Cockeysville,MD,21030,429000,3,2.0,MONTROSE,2386,6210,1968,54,180,,Active,,,https://www.redfin.com/MD/Cockeysville/10118-Charington-Rd-21030/home/9605464,BRIGHT MLS,MDBC2050896,N,Y,39.4679187,-76.6337876
MLS Listing,,Single Family Residential,417 Nottingham Rd,Baltimore,MD,21229,399900,4,3.0,Ward 28,1865,8999,1955,54,214,,Active,,,https://www.redfin.com/MD/Baltimore/417-Nottingham-Rd-21229/home/11220508,BRIGHT MLS,MDBA2062260,N,Y,39.288344,-76.697822
MLS Listing,,Condo/Co-op,927 Kennedy St NW #103,Washington,DC,20011,330000,1,1.5,Petworth,565,,2022,54,584,230,Active,,,https://www.redfin.com/DC/Washington/927-Kennedy-St-NW-20011/unit-103/home/177509070,BRIGHT MLS,DCDC2069256,N,Y,38.9563763,-77.0268629
MLS Listing,,Townhouse,1750 S Avondale St,Philadelphia,PA,19142,150000,3,1.5,COBBS CREEK,1104,1760,1925,54,136,,Active,,,https://www.redfin.com/PA/Philadelphia/1750-S-Avondale-St-19142/home/39204321,BRIGHT MLS,PAPH2163870,N,Y,39.9295579,-75.2404162
MLS Listing,,Single Family Residential,6484 Lacelike Row,Columbia,MD,21045,485000,5,3.5,VILLAGE OF OWEN BROWN,2012,8102,1976,54,241,106,Active,,,https://www.redfin.com/MD/Columbia/6484-Lacelike-Row-21045/home/9970625,BRIGHT MLS,MDHW2021862,N,Y,39.1948229,-76.8319803
MLS Listing,,Condo/Co-op,601 Pennsylvania Ave NW Unit 1101N,Washington,DC,20004,360000,0,1.0,Central,557,,1991,54,646,498,Active,,,https://www.redfin.com/DC/Washington/601-Pennsylvania-Ave-NW-20004/unit-1101N/home/9879862,BRIGHT MLS,DCDC2070130,N,Y,38.893308,-77.020487
MLS Listing,,Condo/Co-op,8302 Woodmont Ave #402,Bethesda,MD,20814,599000,2,1.0,STONEHALL,784,,2017,54,764,723,Active,,,https://www.redfin.com/MD/Bethesda/8302-Woodmont-Ave-20814/unit-402/home/144221810,BRIGHT MLS,MDMC2071900,N,Y,38.9929597,-77.0974325
MLS Listing,,Townhouse,6522 Dorel St,Philadelphia,PA,19142,192500,3,1.0,PHILADELPHIA (SOUTHWEST),1102,1143,1920,54,175,,Active,,,https://www.redfin.com/PA/Philadelphia/6522-Dorel-St-19142/home/39217206,BRIGHT MLS,PAPH2164710,N,Y,39.9185049,-75.2271319
MLS Listing,,Single Family Residential,4602 Silas Hutchinson Dr,Chantilly,VA,20151,649000,4,2.0,PLEASANT VALLEY,1800,13621,1986,55,361,,Active,,,https://www.redfin.com/VA/Chantilly/4602-Silas-Hutchinson-Dr-20151/home/9419106,BRIGHT MLS,VAFX2097220,N,Y,38.8935874,-77.4776139
MLS Listing,,Townhouse,429 Colindale St,Middle River,MD,21220,464900,3,3.0,GREENLEIGH AT CROSSROADS,2226,2222,2018,55,209,85,Active,,,https://www.redfin.com/MD/Middle-River/429-Colindale-St-21220/home/144741830,BRIGHT MLS,MDBC2051114,N,Y,39.3593315,-76.4029971
MLS Listing,,Townhouse,85 Greenwoods Dr,Horsham,PA,19044,339900,3,2.5,SAW MILL VALLEY,1742,5232,1979,56,195,,Active,,,https://www.redfin.com/PA/Horsham/85-Greenwoods-Dr-19044/home/38392939,BRIGHT MLS,PAMC2052094,N,Y,40.1870958,-75.151551
MLS Listing,,Single Family Residential,400 Broadway,Westville,NJ,08093,289900,3,2.0,Westville,1719,7500,1921,56,169,,Active,,,https://www.redfin.com/NJ/Westville/400-Broadway-08093/home/36496116,BRIGHT MLS,NJGL2021202,N,Y,39.8684044,-75.1290209
MLS Listing,,Condo/Co-op,1725 17th St NW #202,Washington,DC,20009,415000,1,1.0,Old City 2,800,,1917,57,519,833,Active,,,https://www.redfin.com/DC/Washington/1725-17th-St-NW-20009/unit-202/home/55479764,BRIGHT MLS,DCDC2067262,N,Y,38.9135147,-77.0379101
MLS Listing,,Condo/Co-op,4027 Benton St NW #201,Washington,DC,20007,280000,1,1.0,Glover Park,740,,1942,58,378,411,Active,,,https://www.redfin.com/DC/Washington/4027-Benton-St-NW-20007/unit-201/home/9936571,BRIGHT MLS,DCDC2067630,N,Y,38.920928,-77.080349
MLS Listing,,Single Family Residential,19305 Wootton Ave,Poolesville,MD,20837,525000,4,3.0,WESMOND,1742,13975,1972,58,301,,Active,,,https://www.redfin.com/MD/Poolesville/19305-Wootton-Ave-20837/home/10499932,BRIGHT MLS,MDMC2069702,N,Y,39.1423923,-77.4027977
MLS Listing,,Townhouse,11 Clara Cir,Glen Burnie,MD,21060,275000,3,1.5,SUN VALLEY,1576,4650,1979,60,174,,Active,,,https://www.redfin.com/MD/Glen-Burnie/11-Clara-Cir-21060/home/10295101,BRIGHT MLS,MDAA2045508,N,Y,39.1449333,-76.5901577
MLS Listing,,Condo/Co-op,439 Roebling Ct,Cranberry Twp,PA,16066,504000,3,2.5,Cranberry Twp,2268,,2021,60,222,126,Active,,,https://www.redfin.com/PA/Cranberry-Twp/439-Roebling-Ct-16066/home/174486781,West Penn MLS,1578252,N,Y,40.69924,-80.110381
MLS Listing,,Single Family Residential,1410 Dellwood Ave,Baltimore,MD,21211,344900,2,2.5,Ward 13,1440,2500,1920,61,240,,Active,,,https://www.redfin.com/MD/Baltimore/1410-Dellwood-Ave-21211/home/10874141,BRIGHT MLS,MDBA2060958,N,Y,39.3333424,-76.6390508
MLS Listing,,Single Family Residential,8115 Phirne Rd E,Glen Burnie,MD,21061,415000,3,1.5,RIPPLING ESTATES,2047,9600,1969,61,203,,Active,,,https://www.redfin.com/MD/Glen-Burnie/8115-Phirne-Rd-E-21061/home/10278046,BRIGHT MLS,MDAA2045570,N,Y,39.123393,-76.6311855
MLS Listing,,Single Family Residential,115 Galyn Dr,Brunswick,MD,21758,579900,4,3.5,GALYN MANOR,3216,7801,2005,61,180,61,Active,December-3-2022 01:00 PM,December-3-2022 03:00 PM,https://www.redfin.com/MD/Brunswick/115-Galyn-Dr-21758/home/15181256,BRIGHT MLS,MDFR2026330,N,Y,39.3240998,-77.6100917
MLS Listing,,Single Family Residential,3805 Misty Hollow Rd,Point Of Rocks,MD,21777,609000,4,3.5,CANAL RUN,3552,10010,2007,61,171,71,Active,,,https://www.redfin.com/MD/Point-of-Rocks/3805-Misty-Holw-21777/home/15179903,BRIGHT MLS,MDFR2026314,N,Y,39.2793765,-77.5295396
MLS Listing,,Townhouse,633 Morris St,Philadelphia,PA,19148,315000,3,1.0,PHILADELPHIA (SOUTH),1720,960,1915,62,183,,Active,,,https://www.redfin.com/PA/Philadelphia/633-Morris-St-19148/home/38076459,BRIGHT MLS,PAPH2154472,N,Y,39.9278521,-75.15675
MLS Listing,,Townhouse,9607 Masterworks Dr,Vienna,VA,22181,704500,3,3.5,COUNTRY CREEK,2420,1587,1980,62,291,110,Active,,,https://www.redfin.com/VA/Vienna/9607-Masterworks-Dr-22181/home/9525755,BRIGHT MLS,VAFX2094264,N,Y,38.880297,-77.278415
MLS Listing,,Single Family Residential,38 Twin Oaks Dr,Bridgeton,NJ,08302,289000,3,2.5,TWIN OAKS,2136,26136,2008,62,135,25,Active,,,https://www.redfin.com/NJ/Bridgeton/38-Twin-Oaks-Dr-08302/home/62261081,BRIGHT MLS,NJCB2009270,N,Y,39.4288413,-75.2125121
MLS Listing,,Townhouse,5611 Hazel Ave,Philadelphia,PA,19143,150000,3,1.0,COBBS CREEK,1020,930,1925,62,147,,Active,,,https://www.redfin.com/PA/Philadelphia/5611-Hazel-Ave-19143/home/39259417,BRIGHT MLS,PAPH2160530,N,Y,39.9526661,-75.2350644
MLS Listing,,Townhouse,6508 Hasbrook Ave,Philadelphia,PA,19111,245000,3,1.0,LAWNCREST,1300,1808,1952,63,188,,Active,,,https://www.redfin.com/PA/Philadelphia/6508-Hasbrook-Ave-19111/home/38997620,BRIGHT MLS,PAPH2155584,N,Y,40.0530362,-75.0980907
MLS Listing,,Single Family Residential,18582 Dettington Ct,Leesburg,VA,20176,910000,4,4.5,POTOMAC STATION,4772,11761,1996,63,191,74,Active,,,https://www.redfin.com/VA/Leesburg/18582-Dettington-Ct-20176/home/11990679,BRIGHT MLS,VALO2037024,N,Y,39.1016213,-77.5070518
MLS Listing,,Single Family Residential,7604 Stratfield Ln,Laurel,MD,20707,710000,4,3.5,THE VILLAGES AT WELLINGTON PLAT 1>,4728,11867,1997,67,150,42,Active,,,https://www.redfin.com/MD/Laurel/7604-Stratfield-Ln-20707/home/10739135,BRIGHT MLS,MDPG2054868,N,Y,39.0932006,-76.8745958
MLS Listing,,Single Family Residential,8217 Dundalk Ave,Dundalk,MD,21222,249900,3,2.0,MURRAY POINT,1455,5000,1944,67,172,,Active,December-4-2022 11:00 AM,December-4-2022 01:00 PM,https://www.redfin.com/MD/Dundalk/8217-Dundalk-Ave-21222/home/9344461,BRIGHT MLS,MDBC2049820,N,Y,39.243869,-76.5002026
MLS Listing,,Single Family Residential,409 Royalton Rd,Silver Spring,MD,20901,549999,4,2.0,NORTHWOOD KNOLLS,2022,8533,1953,67,272,,Active,,,https://www.redfin.com/MD/Silver-Spring/409-Royalton-Rd-20901/home/11064810,BRIGHT MLS,MDMC2069836,N,Y,39.026432,-77.0177407
MLS Listing,,Single Family Residential,239 Sharon Ave,Darby,PA,19023,325000,3,2.0,Darby,1494,10890,1905,68,218,,Active,,,https://www.redfin.com/PA/Collingdale/239-Sharon-Ave-19023/home/38148013,BRIGHT MLS,PADE2034452,N,Y,39.9134804,-75.2771404
MLS Listing,,Townhouse,327 Millbrook Ter NE,Leesburg,VA,20176,459900,3,3.5,EXETER,1852,2178,1993,68,248,109,Active,,,https://www.redfin.com/VA/Leesburg/327-Millbrook-Ter-NE-20176/home/12004323,BRIGHT MLS,VALO2037332,N,Y,39.1208686,-77.5513847
MLS Listing,,Single Family Residential,22018 Hyde Park Dr,Ashburn,VA,20147,1098000,5,4.5,THE REGENCY,4436,20038,1999,68,248,96,Active,,,https://www.redfin.com/VA/Ashburn/22018-Hyde-Park-Dr-20147/home/11989063,BRIGHT MLS,VALO2037288,N,Y,39.0089625,-77.4857246
MLS Listing,,Condo/Co-op,555 Massachusetts Ave NW #714,Washington,DC,20001,324900,0,1.0,Old City 2,454,,2005,68,716,333,Active,,,https://www.redfin.com/DC/Washington/555-Massachusetts-Ave-NW-20001/unit-714/home/10347951,BRIGHT MLS,DCDC2067026,N,Y,38.901746,-77.0192927
MLS Listing,,Townhouse,818 Delafield St NE,Washington,DC,20017,524900,3,2.0,Brookland,1405,2421,1948,69,374,,Active,,,https://www.redfin.com/DC/Washington/818-Delafield-St-NE-20017/home/10084184,BRIGHT MLS,DCDC2067396,N,Y,38.9494505,-76.9942015
MLS Listing,,Single Family Residential,14623 Roosevelt Ave,Cascade,MD,21719,149900,4,1.0,CASCADE,1200,4750,1917,69,125,,Active,,,https://www.redfin.com/MD/Highfield-Cascade/14623-Roosevelt-Ave-21719/home/15377247,BRIGHT MLS,MDWA2010808,N,Y,39.7168962,-77.5056629
MLS Listing,,Multi-Family (2-4 Unit),2515 S 66th St,Philadelphia,PA,19142,240000,4,3.0,Philadelphia,1384,980,1920,70,173,,Active,,,https://www.redfin.com/PA/Philadelphia/2515-S-66th-St-19142/home/39213814,BRIGHT MLS,PAPH2161332,N,Y,39.9211406,-75.2310185
MLS Listing,,Single Family Residential,4449 S Dakota Ave NE,Washington,DC,20017,889000,3,3.0,Michigan Park,2131,4200,1937,74,417,,Active,,,https://www.redfin.com/DC/Washington/4449-S-Dakota-Ave-NE-20017/home/10100521,BRIGHT MLS,DCDC2064896,N,Y,38.943815,-76.9845352
MLS Listing,,Single Family Residential,117 Alpine Dr SE,Leesburg,VA,20175,789990,5,3.5,STOWERS,4126,7841,2001,74,191,77,Active,,,https://www.redfin.com/VA/Leesburg/117-Alpine-Dr-SE-20175/home/12044406,BRIGHT MLS,VALO2037032,N,Y,39.0924534,-77.567472
MLS Listing,,Condo/Co-op,50 Bucktown Xing Unit 11F,Pottstown,PA,19465,310000,2,2.0,BUCKTOWN CROSSING,1275,,2018,75,243,335,Active,,,https://www.redfin.com/PA/POTTSTOWN/50-BUCKTOWN-XING-19465/unit-11F/home/38331955,BRIGHT MLS,PACT2032594,N,Y,40.173519,-75.660071
MLS Listing,,Townhouse,1722 Johnson St,Baltimore,MD,21230,459900,3,3.0,Ward 24,2688,,1900,75,171,,Active,,,https://www.redfin.com/MD/Baltimore/1722-Johnson-St-21230/home/11018666,BRIGHT MLS,MDBA2060748,N,Y,39.2701923,-76.6095002
MLS Listing,,Condo/Co-op,1306 Childress St NE #10,Washington,DC,20002,298500,2,1.0,Trinidad,745,,1937,76,401,325,Active,,,https://www.redfin.com/DC/Washington/1306-Childress-St-NE-20002/unit-10/home/12530239,BRIGHT MLS,DCDC2066194,N,Y,38.9065014,-76.9834646
MLS Listing,,Condo/Co-op,811 Upshur St NW #7,Washington,DC,20011,649900,2,2.5,Petworth,1140,,2019,76,570,185,Active,,,https://www.redfin.com/DC/Washington/811-Upshur-St-NW-20011/unit-7/home/161650244,BRIGHT MLS,DCDC2063848,N,Y,38.9422468,-77.0239488
MLS Listing,,Single Family Residential,1514 Manley Rd,West Chester,PA,19382,580000,5,2.5,West Chester,2675,43560,1990,76,217,,Active,,,https://www.redfin.com/PA/West-Chester/1514-Manley-Rd-19382/home/39103058,BRIGHT MLS,PACT2032398,N,Y,39.9638164,-75.5294214
MLS Listing,,Townhouse,6 S 5th St,Darby,PA,19023,174900,3,1.0,Darby,1398,1307,1940,76,125,,Active,,,https://www.redfin.com/PA/Darby/6-S-5th-St-19023/home/38202007,BRIGHT MLS,PADE2033286,N,Y,39.917143,-75.2547314
MLS Listing,,Single Family Residential,5135 Thunder Hill Rd,Columbia,MD,21045,479900,4,2.5,THUNDER HILL,2218,6171,1970,77,216,,Active,,,https://www.redfin.com/MD/Columbia/5135-Thunder-Hill-Rd-21045/home/9975399,BRIGHT MLS,MDHW2020330,N,Y,39.2292636,-76.8298272
MLS Listing,,Single Family Residential,3330 Latonia Ave,Dormont,PA,15216,280000,3,2.0,Dormont,2018,3301,1929,78,139,,Active,,,https://www.redfin.com/PA/Pittsburgh/3330-Latonia-Ave-15216/home/73511326,West Penn MLS,1575388,N,Y,40.3857241,-80.0400341
MLS Listing,,Single Family Residential,11818 Point Way,Bowie,MD,20720,629000,5,3.5,HOLMEHURST WEST PLAT ONE,2280,21606,1986,79,276,,Active,,,https://www.redfin.com/MD/Bowie/11818-Point-Way-20720/home/10827774,BRIGHT MLS,MDPG2055450,N,Y,38.9579662,-76.8000316
MLS Listing,,Townhouse,220 N Sterling Blvd,Sterling,VA,20164,295000,2,1.0,PEMBROOK OF LOUDOUN,1064,,1965,80,277,314,Active,December-4-2022 01:00 PM,December-4-2022 03:00 PM,https://www.redfin.com/VA/Sterling/220-N-Sterling-Blvd-20164/home/11958876,BRIGHT MLS,VALO2036086,N,Y,39.0031417,-77.4008293
MLS Listing,,Single Family Residential,778 Stephanie Cir,Great Falls,VA,22066,1599900,6,5.0,HICKORY VALE FARM,9396,36220,1994,81,170,350,Active,,,https://www.redfin.com/VA/Great-Falls/778-Stephanie-Cir-22066/home/9155309,BRIGHT MLS,VAFX2092858,N,Y,38.9979796,-77.2935348
MLS Listing,,Townhouse,1918 Hamilton St,Allentown,PA,18104,245000,4,1.0,UNION TERRACE,2040,2731,1928,81,120,,Active,,,https://www.redfin.com/PA/Allentown/1918-Hamilton-St-18104/home/59119803,BRIGHT MLS,PALH2004184,N,Y,40.5950129,-75.4970493
MLS Listing,,Condo/Co-op,315 Evarts St NE #203,Washington,DC,20002,304900,1,1.0,Brookland,552,,1936,81,552,316,Active,,,https://www.redfin.com/DC/Washington/315-Evarts-St-NE-20002/unit-203/home/21643925,BRIGHT MLS,DCDC2065202,N,Y,38.924377,-77.0013184
MLS Listing,,Townhouse,635 Tammy Ter SE,Leesburg,VA,20175,485000,4,3.0,KINCAID FOREST,1721,2178,1994,81,282,82,Active,,,https://www.redfin.com/VA/Leesburg/635-Tammy-Ter-SE-20175/home/12007895,BRIGHT MLS,VALO2036118,N,Y,39.0893391,-77.5413502
MLS Listing,,Single Family Residential,3813 Beech Down Dr,Chantilly,VA,20151,729000,4,3.0,ARMFIELD FARMS,1840,5872,1987,82,396,70,Active,,,https://www.redfin.com/VA/Chantilly/3813-Beech-Down-Dr-20151/home/9422718,BRIGHT MLS,VAFX2087060,N,Y,38.8949218,-77.4175048
MLS Listing,,Single Family Residential,11049 Ring Rd,Reston,VA,20190,850000,5,2.5,RESTON,3120,15153,1969,82,272,62,Active,,,https://www.redfin.com/VA/Reston/11049-Ring-Rd-20190/home/9157100,BRIGHT MLS,VAFX2092616,N,Y,38.9723143,-77.3247024
MLS Listing,,Single Family Residential,8117 Carroll Ave,Takoma Park,MD,20912,535000,5,3.0,TAKOMA PARK,1748,6000,1950,82,306,,Active,,,https://www.redfin.com/MD/Takoma-Park/8117-Carroll-Ave-20912/home/10976521,BRIGHT MLS,MDMC2068136,N,Y,38.9912842,-76.9927699
MLS Listing,,Multi-Family (2-4 Unit),1807 8th St NW,Washington,DC,20001,2050000,8,8.0,Old City 2,3908,1441,1938,82,525,,Active,,,https://www.redfin.com/DC/Washington/1807-8th-St-NW-20001/home/9878848,BRIGHT MLS,DCDC2064202,N,Y,38.914427,-77.0226892
MLS Listing,,Condo/Co-op,3101 Sherman Ave NW #104,Washington,DC,20010,289900,1,1.0,Columbia Heights,449,,1941,82,646,301,Active,,,https://www.redfin.com/DC/Washington/3101-Sherman-Ave-NW-20010/unit-104/home/145428715,BRIGHT MLS,DCDC2065846,N,Y,38.9290187,-77.0259731
MLS Listing,,Vacant Land,52 Bay Cir,Earleville,MD,21919,70000,,,BAY VIEW ESTATES,,19994,,83,,4,Active,,,https://www.redfin.com/MD/Earleville/52-Bay-Cir-21919/home/40037294,BRIGHT MLS,MDCC2006506,N,Y,39.4255511,-75.9973539
MLS Listing,,Single Family Residential,949 Still Pond Dr,Glen Burnie,MD,21060,665000,4,2.5,CREEKSIDE VILLAGE AT TANYARD COVE,4872,4885,2016,83,136,96,Active,,,https://www.redfin.com/MD/Glen-Burnie/949-Still-Pond-Dr-21060/home/108440376,BRIGHT MLS,MDAA2042642,N,Y,39.1664319,-76.5696153
MLS Listing,,Townhouse,602 N Bend Rd,Baltimore,MD,21229,319900,3,2.0,MERIDALE LITTLE FARMS,1480,5450,1918,83,216,,Active,,,https://www.redfin.com/MD/Baltimore/602-N-Bend-Rd-21229/home/9075614,BRIGHT MLS,MDBC2048066,N,Y,39.2866458,-76.7132551
MLS Listing,,Condo/Co-op,24 Florida Ave NE #201,Washington,DC,20002,394900,1,1.0,Eckington,526,,2019,83,751,128,Active,,,https://www.redfin.com/DC/Washington/24-Florida-Ave-NE-20002/unit-201/home/169296772,BRIGHT MLS,DCDC2065554,N,Y,38.9105736,-77.0082352
MLS Listing,,Townhouse,2049 Wheeler Ave,Baltimore,MD,21216,110000,3,1.0,Ward 15,,,1920,84,,,Active,,,https://www.redfin.com/MD/Baltimore/2049-Wheeler-Ave-21216/home/10899242,BRIGHT MLS,MDBA2054258,N,Y,39.3119441,-76.6555427
MLS Listing,,Single Family Residential,1703 Fairview Ave,Halethorpe,MD,21227,389000,4,1.5,HALETHORPE,1744,17500,1915,90,223,,Active,,,https://www.redfin.com/MD/Halethorpe/1703-Fairview-Ave-21227/home/9358044,BRIGHT MLS,MDBC2046286,N,Y,39.2406862,-76.6863281
MLS Listing,,Townhouse,128 N East Ave,Baltimore,MD,21224,264900,4,4.0,Ward 6,2004,,1920,90,132,,Active,,,https://www.redfin.com/MD/Baltimore/128-N-E-Ave-21224/home/10763697,BRIGHT MLS,MDBA2058202,N,Y,39.2941281,-76.5727202
MLS Listing,,Single Family Residential,774 N Hills Ave,Glenside,PA,19038,410000,4,2.0,GLENSIDE,1693,10050,1955,91,242,,Active,,,https://www.redfin.com/PA/Glenside/774-N-Hills-Ave-19038/home/38907941,BRIGHT MLS,PAMC2050226,N,Y,40.1249067,-75.1607172
MLS Listing,,Single Family Residential,50 Gordon Dr,Easton,PA,18045,399000,4,2.5,OLD ORCHARD,2136,13200,1977,91,187,,Active,,,https://www.redfin.com/PA/Easton/50-Gordon-Dr-18045/home/59085963,BRIGHT MLS,PANH2002760,N,Y,40.6584066,-75.2540359
MLS Listing,,Single Family Residential,4207 28th St,Mount Rainier,MD,20712,549000,4,3.0,MT RAINIER- ROGERS 1ST ADDN,2340,7250,1936,95,235,,Active,,,https://www.redfin.com/MD/Mt-Rainier/4207-28th-St-20712/home/10978899,BRIGHT MLS,MDPG2054260,N,Y,38.9416574,-76.9682891
MLS Listing,,Townhouse,2021 Druid Park Dr,Baltimore,MD,21211,274900,2,2.0,Ward 13,1300,2614,1920,96,211,,Active,,,https://www.redfin.com/MD/Baltimore/2021-Druid-Park-Dr-21211/home/10861789,BRIGHT MLS,MDBA2057246,N,Y,39.3325833,-76.6458513
MLS Listing,,Townhouse,168 Birchwood Dr,West Chester,PA,19380,499900,3,3.5,WHITELAND WOODS,2631,2424,2001,98,190,265,Active,,,https://www.redfin.com/PA/West-Chester/168-Birchwood-Dr-19380/home/39343369,BRIGHT MLS,PACT2029994,N,Y,40.0164645,-75.6281509
MLS Listing,,Single Family Residential,8384 Scarlet Glen Ct,Millersville,MD,21108,865000,5,4.0,SHIPLEYS CHOICE BOE,4211,16018,1994,101,205,11,Active,,,https://www.redfin.com/MD/Millersville/8384-Scarlet-Glen-Ct-21108/home/10288365,BRIGHT MLS,MDAA2041600,N,Y,39.1048503,-76.605934
MLS Listing,,Townhouse,1610 H St SE,Washington,DC,20003,975000,3,3.5,Old City 1,2040,1500,1919,103,478,,Active,,,https://www.redfin.com/DC/Washington/1610-H-St-SE-20003/home/10174024,BRIGHT MLS,DCDC2063210,N,Y,38.8804756,-76.9816724
MLS Listing,,Condo/Co-op,1654 K St NE #1,Washington,DC,20002,429900,2,2.0,Trinidad,862,,2020,103,499,187,Active,,,https://www.redfin.com/DC/Washington/1654-K-St-NE-20002/unit-1/home/174270515,BRIGHT MLS,DCDC2060214,N,Y,38.9026995,-76.9794667
MLS Listing,,Townhouse,3110 E Baltimore St,Baltimore,MD,21224,264999,3,2.0,Ward 6,1900,1125,1920,104,139,,Active,,,https://www.redfin.com/MD/Baltimore/3110-E-Baltimore-St-21224/home/10764182,BRIGHT MLS,MDBA2056668,N,Y,39.2925437,-76.5729686
MLS Listing,,Condo/Co-op,2901 Boston St #304,Baltimore,MD,21224,322000,1,2.0,Ward 1,1345,,1985,105,239,698,Active,,,https://www.redfin.com/MD/Baltimore/2901-Boston-St-21224/unit-304/home/10734261,BRIGHT MLS,MDBA2056078,N,Y,39.2778359,-76.5748761
MLS Listing,,Single Family Residential,2361 Morrow Rd,Upper St. Clair,PA,15241,495000,4,2.5,Upper St. Clair,2288,44169,1974,105,216,,Active,,,https://www.redfin.com/PA/Pittsburgh/2361-Morrow-Rd-15241/home/74619506,West Penn MLS,1570964,N,Y,40.3385886,-80.0908881
MLS Listing,,Townhouse,631 E Flora St,Philadelphia,PA,19125,895000,3,3.5,FISHTOWN,2900,1483,2015,105,309,,Active,,,https://www.redfin.com/PA/Philadelphia/631-E-Flora-St-19125/home/58704370,BRIGHT MLS,PAPH2134426,N,Y,39.9721893,-75.1265426
MLS Listing,,Townhouse,806 E 22nd St,Baltimore,MD,21218,165000,3,1.5,Ward 9,1400,,1920,110,118,,Active,December-4-2022 12:00 PM,December-4-2022 03:00 PM,https://www.redfin.com/MD/Baltimore/806-E-22nd-St-21218/home/10809155,BRIGHT MLS,MDBA2056228,N,Y,39.314821,-76.6064643
MLS Listing,,Single Family Residential,248 Edgewood Ave,Audubon,NJ,08106,394900,4,3.0,Audubon,2178,14594,1950,112,181,,Active,,,https://www.redfin.com/NJ/Audubon/248-Edgewood-Ave-08106/home/36078679,BRIGHT MLS,NJCD2032192,N,Y,39.8856775,-75.0769248
MLS Listing,,Single Family Residential,5062 Central Ave SE,Washington,DC,20019,555000,4,3.5,Deanwood,2739,3536,2008,112,203,,Active,,,https://www.redfin.com/DC/Washington/5062-Central-Ave-SE-20019/home/17959742,BRIGHT MLS,DCDC2060802,N,Y,38.8889524,-76.9276982
MLS Listing,,Single Family Residential,1 Water St,Pennsville,NJ,08070,329900,3,2.5,CENTRAL PARK,2242,14366,1973,113,147,,Active,,,https://www.redfin.com/NJ/Pennsville/1-Water-St-08070/home/37612304,BRIGHT MLS,NJSA2005036,N,Y,39.6662694,-75.512998
MLS Listing,,Single Family Residential,5010 Edgemoor Ln,Bethesda,MD,20814,3490000,5,5.5,EDGEMOOR,5420,13000,1925,122,644,,Active,,,https://www.redfin.com/MD/Bethesda/5010-Edgemoor-Ln-20814/home/10645936,BRIGHT MLS,MDMC2063498,N,Y,38.9844232,-77.0995905
MLS Listing,,Single Family Residential,3941 Frisby St,Baltimore,MD,21218,350000,5,2.0,Ward 9,1198,3600,1920,122,292,,Active,,,https://www.redfin.com/MD/Baltimore/3941-Frisby-St-21218/home/10804558,BRIGHT MLS,MDBA2049780,N,Y,39.3370358,-76.6060807
MLS Listing,,Townhouse,541 Gittings St E,Baltimore,MD,21230,270000,2,1.5,Ward 24,1008,,1860,124,268,,Active,,,https://www.redfin.com/MD/Baltimore/541-Gittings-St-21230/home/11025309,BRIGHT MLS,MDBA2050792,N,Y,39.2744452,-76.6056296
MLS Listing,,Condo/Co-op,3039 16th St NW Ph 2,Washington,DC,20009,734900,2,2.0,Columbia Heights,1200,,2004,128,612,690,Active,,,https://www.redfin.com/DC/Washington/3039-16th-St-NW-20009/unit-2/home/10345182,BRIGHT MLS,DCDC2059814,N,Y,38.927804,-77.0361148
MLS Listing,,Condo/Co-op,5 Maryland Ave #5,Annapolis,MD,21401,475000,2,2.0,ADMIRAL TERRY CONDO,1138,,1880,130,417,582,Active,,,https://www.redfin.com/MD/Annapolis/5-Maryland-Ave-21401/unit-5/home/10442845,BRIGHT MLS,MDAA2036064,N,Y,38.9815814,-76.487734
MLS Listing,,Single Family Residential,325 Woodlawn Ave,Plum Boro,PA,15147,199000,2,2.0,Plum Boro,702,10497,1938,130,283,,Active,,,https://www.redfin.com/PA/Verona/325-Woodlawn-Ave-15147/home/74666775,West Penn MLS,1566121,N,Y,40.5215304,-79.809078
MLS Listing,,Single Family Residential,5613 Gardenville Ave,Baltimore,MD,21206,214900,3,1.0,Ward 26,1055,8002,1955,132,204,,Active,,,https://www.redfin.com/MD/Baltimore/5613-Gardenville-Ave-21206/home/11094883,BRIGHT MLS,MDBA2052672,N,Y,39.3363663,-76.5419365
MLS Listing,,Single Family Residential,812 Moran Dr,Annapolis,MD,21401,849000,5,4.5,MONTICELLO,3508,6752,2010,135,242,155,Active,,,https://www.redfin.com/MD/Annapolis/812-Moran-Dr-21401/home/10480584,BRIGHT MLS,MDAA2037650,N,Y,38.9956024,-76.5427946
MLS Listing,,Single Family Residential,407 Watch Hill Ln,Gaithersburg,MD,20878,669000,4,3.5,WASHINGTONIAN VILLAGE,2456,5682,1985,137,272,,Active,,,https://www.redfin.com/MD/Gaithersburg/407-Watch-Hill-Ln-20878/home/10799084,BRIGHT MLS,MDMC2060668,N,Y,39.1176523,-77.2082025
MLS Listing,,Single Family Residential,7147 Ohio River Blvd,Ben Avon,PA,15202,400000,5,2.5,Ben Avon,2433,14313,1900,138,164,,Active,,,https://www.redfin.com/PA/Pittsburgh/7147-Ohio-River-Blvd-15202/home/74536623,West Penn MLS,1564700,N,Y,40.5046441,-80.0847897
MLS Listing,,Single Family Residential,000 Mcvey St,South Fayette,PA,15082,25000,0,,South Fayette,,12501,,139,,,Active,,,https://www.redfin.com/PA/South-Fayette/000-Mcvey-St-15082/home/146088505,West Penn MLS,1564660,N,Y,40.3795985,-80.213831
MLS Listing,,Vacant Land,37201 Charles Town Pike,Purcellville,VA,20132,299999,,,CRIM FAMILY SUBDIVISION,,136343,,140,,,Active,,,https://www.redfin.com/VA/Purcellville/37201-Charles-Town-Pike-20132/home/180346118,BRIGHT MLS,VALO2031866,N,Y,39.1978718,-77.7162368
MLS Listing,,Single Family Residential,6308 Beechwood Rd,Idlewylde,MD,21239,274900,4,2.5,IDLEWYLDE,1044,6300,1928,151,263,,Active,,,https://www.redfin.com/MD/Baltimore/6308-Beechwood-Rd-21239/home/9640444,BRIGHT MLS,MDBC2041856,N,Y,39.373208,-76.5934982
MLS Listing,,Condo/Co-op,5404 85th Ave #2,New Carrollton,MD,20784,133000,1,1.0,CARROLLAN GARDENS CONDO,775,,1963,151,172,383,Active,,,https://www.redfin.com/MD/New-Carrollton/5404-85th-Ave-20784/unit-2/home/11065068,BRIGHT MLS,MDPG2045188,N,Y,38.9539587,-76.8714603
MLS Listing,,Multi-Family (2-4 Unit),329 W North St,City Of But Nw,PA,16001,130000,4,2.0,City of But NW,,2482,1900,179,,,Active,,,https://www.redfin.com/PA/Butler/329-W-North-St-16001/home/74796031,West Penn MLS,1557803,N,Y,40.8622624,-79.9001381
MLS Listing,,Multi-Family (2-4 Unit),330 New Castle St,City Of But Nw,PA,16001,110000,3,2.0,City of But NW,,3746,,224,,,Active,,,https://www.redfin.com/PA/Butler/330-W-New-Castle-St-16001/home/73665389,West Penn MLS,1548941,N,Y,40.8619505,-79.9001095
MLS Listing,,Condo/Co-op,50 Florida Ave NE #426,Washington,DC,20002,695000,2,2.0,Eckington,1118,,2019,230,622,733,Active,,,https://www.redfin.com/DC/Washington/50-Florida-Ave-NE-20002/unit-426/home/160496594,BRIGHT MLS,DCDC2042996,N,Y,38.9102074,-77.0073453
MLS Listing,,Condo/Co-op,4851 Finnical Way #203,Frederick,MD,21703,375000,2,2.0,LINTON AT BALLENGER,1487,,2018,235,252,312,Active,,,https://www.redfin.com/MD/Frederick/4851-Finnical-Way-21703/unit-203/home/146682120,BRIGHT MLS,MDFR2016552,N,Y,39.3664267,-77.4456575
MLS Listing,,Single Family Residential,5944 Addison Rd,Capitol Heights,MD,20743,299900,3,2.5,SEAT PLEASANT HEIGHTS,1866,5000,1905,238,161,,Active,,,https://www.redfin.com/MD/Capitol-Heights/5944-Addison-Rd-20743/home/10996258,BRIGHT MLS,MDPG2037998,N,Y,38.8945617,-76.9038686
MLS Listing,,Condo/Co-op,2519 I St NW #1,Washington,DC,20037,899900,2,2.0,FOGGY BOTTOM,1014,,1985,437,887,481,Active,,,https://www.redfin.com/DC/Washington/2519-I-St-NW-20037/unit-1/home/9042345,BRIGHT MLS,DCDC2013664,N,Y,38.9008392,-77.0541948
Redfin Data,,Condo/Co-op,1020 N Highland St #409,Arlington,VA,22201,479900,1,1.0,Arlington,770,,2007,410,623,,Pre On-Market,,,https://www.redfin.com/VA/Arlington/1020-N-Highland-St-22201/unit-409/home/16897836,Coming Soon,77650,N,Y,38.8849496,-77.095252
MLS Listing,,Condo/Co-op,13 Mozart St,Binghamton,NY,13905,180000,5,2.0,Biglers Farm,2920,217800000,1906,1,62,,Active,,,https://www.redfin.com/NY/Binghamton/13-Mozart-St-13905/home/115327362,GBAOR,316296,N,Y,42.102531,-75.935627
MLS Listing,,Vacant Land,Covered Bridge Rd,"Hancock, Ny",NY,13783,150000,,,,,436906,,1,,,Active,,,https://www.redfin.com/NY/HANCOCK/COVERED-BRIDGE-RD-13783/home/126169508,PWMLS,21-1209,N,Y,41.902558,-75.224766
MLS Listing,,Multi-Family (5+ Unit),2120 W 4th St,Williamsport,PA,17701,424900,12,6.0,Newberry,5743,10890,1900,1,74,,Active,,,https://www.redfin.com/PA/Williamsport/2120-W-4th-St-17701/home/136768666,WBVAR,WB-92347,N,Y,41.2396554,-77.0548048
MLS Listing,,Vacant Land,0 Warrensville Rd,Montoursville,PA,17754,275000,,,Other/None,,1253656,,1,,,Active,,,https://www.redfin.com/PA/Montoursville/Warrensville-Rd-17754/home/137063895,WBVAR,WB-93650,N,Y,41.28809169,-76.93800675
MLS Listing,,Vacant Land,Susquehanna Trl Lot 3,Muncy,PA,17756,18900,,,Muncy,,73616,,1,,,Active,,,https://www.redfin.com/PA/Muncy/Susquehanna-TRL-17756/unit-3/home/181964070,WBVAR,WB-94238,N,Y,41.2056373,-76.7855152
MLS Listing,,Single Family Residential,140 Shaw Rd,Hollidaysburg,PA,16648,150000,3,1.0,,1461,21344,1956,1,103,,Active,,,https://www.redfin.com/PA/Hollidaysburg/140-Shaw-Rd-16648/home/116040189,AHARMLS,70465,N,Y,40.3894273,-78.3346649
MLS Listing,,Multi-Family (2-4 Unit),2013 Poplar St,Erie,PA,16502,95000,4,,Erie,1968,4068,1926,1,48,,Active,,,https://www.redfin.com/PA/Erie/2013-Poplar-St-16502/home/124948713,GEBOR,165610,N,Y,42.110676,-80.091925
MLS Listing,,Single Family Residential,1228 Morrow St,Wilkinsburg,PA,15221,32500,4,1.0,Wilkinsburg,1628,3049,1930,,20,,Active,,,https://www.redfin.com/PA/Pittsburgh/1228-Morrow-St-15221/home/74546154,West Penn MLS,1548062,N,Y,40.4363538,-79.874725
MLS Listing,,Multi-Family (2-4 Unit),2422 Main St,Penn Hills,PA,15235,155900,6,3.0,Penn Hills,,10933,1930,,,,Active,,,https://www.redfin.com/PA/Pittsburgh/2422-Main-St-15235/home/74698189,West Penn MLS,1548063,N,Y,40.4702959,-79.7891994
MLS Listing,,Townhouse,3116 Tioga Pkwy,Baltimore,MD,21215,99500,3,2.0,Ward 15,1698,2300,1940,1,59,,Active,,,https://www.redfin.com/MD/Baltimore/3116-Tioga-Pkwy-21215/home/10899991,BRIGHT MLS,MDBA2068418,N,Y,39.3180735,-76.6587505
MLS Listing,,Single Family Residential,16 Dartmouth Rd,Wilmington,DE,19808,319900,3,2.0,COOPER FARM SEC C,2175,16117,1950,1,147,,Pre On-Market,,,https://www.redfin.com/DE/Wilmington/16-Dartmouth-Rd-19808/home/44949927,BRIGHT MLS,DENC2035146,N,Y,39.7376668,-75.6469707
MLS Listing,,Townhouse,14 E Kline Ave,Lansford Borough,PA,18232-2003,50000,3,1.5,Lansford Borough,1040,1307,1906,1,48,,Active,,,https://www.redfin.com/PA/Lansford/14-E-Kline-Ave-18232/home/118890741,GLVRMLS,705982,N,Y,40.8304907,-75.8832931
MLS Listing,,Single Family Residential,1200 Garnett Dr,Annapolis,MD,21403,800000,4,3.5,BAY HIGHLANDS,2895,13068,2023,1,276,,Active,,,https://www.redfin.com/MD/Highland-Beach/1200-Garnett-DR-21403/home/172265741,BRIGHT MLS,MDAA2049638,N,Y,38.9332895,-76.46972133
MLS Listing,,Single Family Residential,208 W 12th Ave,Conshohocken,PA,19428,425000,3,1.5,CARDINAL VIEW,1200,24800,1960,1,354,,Active,,,https://www.redfin.com/PA/Conshohocken/208-W-12th-Ave-19428/home/38774438,BRIGHT MLS,PAMC2055954,N,Y,40.085147,-75.3006059
MLS Listing,,Townhouse,6318 Darlington Dr,Harrisburg,PA,17112,165000,2,1.5,DARLINGTON VILLAGE,1200,,1997,1,138,160,Active,,,https://www.redfin.com/PA/Harrisburg/6318-Darlington-Dr-17112/home/123903968,BRIGHT MLS,PADA2019062,N,Y,40.3317872,-76.7819582
MLS Listing,,Townhouse,1137 S 13th St,Philadelphia,PA,19147,349900,4,1.5,BELLA VISTA,1632,1120,1915,1,214,,Active,,,https://www.redfin.com/PA/Philadelphia/1137-S-13th-St-19147/home/38099661,BRIGHT MLS,PAPH2182910,N,Y,39.936538,-75.1646503
MLS Listing,,Single Family Residential,18224 Lappans Rd,Boonsboro,MD,21713,232000,5,2.0,Boonsboro,1142,20037,1963,1,203,,Active,,,https://www.redfin.com/MD/Boonsboro/18224-Lappans-Rd-21713/home/15379597,BRIGHT MLS,MDWA2012094,N,Y,39.5529101,-77.7352606
MLS Listing,,Townhouse,3913 Dungan St,Philadelphia,PA,19124,139900,3,1.0,JUNIATA,1230,1050,1925,1,114,,Active,,,https://www.redfin.com/PA/Philadelphia/3913-Dungan-St-19124/home/38906207,BRIGHT MLS,PAPH2182634,N,Y,40.0064963,-75.1022043
MLS Listing,,Single Family Residential,1021 Diamond,Scranton,PA,18508,129500,3,2.0,Scranton City,1300,1742,1930,1,100,,Active,,,https://www.redfin.com/PA/Scranton/1021-Diamond-Ave-18508/home/128356032,GSBR,22-2132,N,Y,41.4261731,-75.6657312
MLS Listing,,Multi-Family (2-4 Unit),1506 Broadway Ave,Mckees Rocks,PA,15136,189000,4,3.0,McKees Rocks,,7501,1921,1,,,Active,,,https://www.redfin.com/PA/McKees-Rocks/1506-Broadway-Ave-15136/home/74723388,West Penn MLS,1585414,N,Y,40.4755008,-80.0818001
MLS Listing,,Townhouse,515 N Chester St,Baltimore,MD,21205,250000,3,2.0,Ward 7,1750,980,1920,1,143,,Pre On-Market,,,https://www.redfin.com/MD/Baltimore/515-N-Chester-St-21205/home/25792286,BRIGHT MLS,MDBA2068290,N,Y,39.2968876,-76.5874604
MLS Listing,,Townhouse,177 Daylesford Blvd,Berwyn,PA,19312,615000,3,3.5,DAYLESFORD LAKE,2931,9690,1997,1,210,595,Pre On-Market,,,https://www.redfin.com/PA/Berwyn/177-Daylesford-Blvd-19312/home/38879480,BRIGHT MLS,PACT2036820,N,Y,40.058714,-75.473424
MLS Listing,,Townhouse,1235 N Taney St,Philadelphia,PA,19121,374900,3,2.5,BREWERYTOWN,1512,663,1920,1,248,,Pre On-Market,,,https://www.redfin.com/PA/Philadelphia/1235-N-Taney-St-19121/home/38784488,BRIGHT MLS,PAPH2182916,N,Y,39.9749398,-75.1793102
MLS Listing,,Vacant Land,1200-LOT 93/92 Garnett Dr,Annapolis,MD,21403,221000,,,BAY HIGHLANDS,,13068,,1,,,Active,,,https://www.redfin.com/MD/Annapolis/1200-LOT-93-92-Garnett-DR-21403/home/183057891,BRIGHT MLS,MDAA2049636,N,Y,38.9332895,-76.46972133
MLS Listing,,Townhouse,1728 W Lexington St,Baltimore,MD,21223,350000,4,2.5,Ward 19,,,1920,1,,,Pre On-Market,,,https://www.redfin.com/MD/Baltimore/1728-W-Lexington-St-21223/home/25714504,BRIGHT MLS,MDBA2068454,N,Y,39.2907906,-76.6448473
MLS Listing,,Vacant Land,121 Gross Dr,Pocono Pines,PA,18350,94900,,,Pocono Pines,,14810,,1,,,Active,,,https://www.redfin.com/PA/Pocono-Pines/121-Gross-Dr-E-18350/home/137651517,PMAR,PM-102549,N,Y,41.1178994,-75.4685638
MLS Listing,,Townhouse,211 Mifflin St,Philadelphia,PA,19148,415000,3,1.5,PENNSPORT,1564,780,1906,1,265,,Active,,,https://www.redfin.com/PA/Philadelphia/211-Mifflin-St-19148/home/38067984,BRIGHT MLS,PAPH2182170,N,Y,39.9245613,-75.1507082
MLS Listing,,Townhouse,1442 Clingmans Dome Dr,Frederick,MD,21702,401290,4,3.5,Frederick,1800,1200,,1,223,70,Active,,,https://www.redfin.com/MD/Fort-Detrick/1442-Clingmans-Dome-Dr-21702/home/178978917,BRIGHT MLS,MDFR2028800,N,Y,39.444161,-77.458273
MLS Listing,,Condo/Co-op,741 Morton St NW,Washington,DC,20010,879000,2,2.5,Columbia Heights,1584,,2022,1,555,170,Active,,,https://www.redfin.com/DC/Washington/741-Morton-St-NW-20010/Ph/home/180716132,BRIGHT MLS,DCDC2076308,N,Y,38.9320239,-77.0251057
MLS Listing,,Single Family Residential,2214 5th Ave,Altoona,PA,16602,39000,3,1.5,,1893,56932920,,1,21,,Active,,,https://www.redfin.com/PA/Altoona/2214-5th-Ave-16602/home/116121399,AHARMLS,70977,N,Y,40.5028889,-78.4035854
MLS Listing,,Single Family Residential,504 SE Front St,Milford,DE,19963,279900,3,2.0,CEDAR CRK HUNDRED,2900,6970,1900,1,97,,Pre On-Market,,,https://www.redfin.com/DE/Milford/504-S-E-Front-St-19963/home/134079524,BRIGHT MLS,DESU2032768,N,Y,38.9118576,-75.4220223
MLS Listing,,Single Family Residential,2800 Treadwell Ln Unit DEVONSHIRE,Brookeville,MD,20833,1115934,4,3.5,Brookeville,4145,87120,2022,1,269,,Active,,,https://www.redfin.com/MD/Brookeville/2800-Treadwell-Ln-20833/unit-DEVONSHIRE/home/183057648,BRIGHT MLS,MDMC2076990,N,Y,39.1934842,-77.065598
MLS Listing,,Townhouse,1366 E Sanger St,Philadelphia,PA,19124,190000,3,2.0,NORTHWOOD,1188,1224,1940,1,160,,Active,,,https://www.redfin.com/PA/Philadelphia/1366-Sanger-St-19124/home/39422954,BRIGHT MLS,PAPH2182082,N,Y,40.0264906,-75.078681
MLS Listing,,Single Family Residential,2800 Treadwood Ln Unit COVINGTON PLAN,Brookeville,MD,20833,1049485,4,2.5,Brookeville,3405,87120,2022,1,308,,Active,,,https://www.redfin.com/MD/Brookeville/2800-Treadwood-LN-20833/unit-COVINGTON-PLAN/home/183057433,BRIGHT MLS,MDMC2076988,N,Y,39.19364696,-77.06489473
MLS Listing,,Single Family Residential,7720 Daniels,Baltimore,MD,21234,359900,4,3.0,Ward 27,1848,7497,1950,1,195,,Pre On-Market,,,https://www.redfin.com/MD/Baltimore/7720-Daniels-Ave-21234/home/11136202,BRIGHT MLS,MDBA2068426,N,Y,39.3717425,-76.5368334
MLS Listing,,Townhouse,1008 S Paca St,Baltimore,MD,21230,215000,2,2.0,Ward 21,720,,1900,1,299,,Active,,,https://www.redfin.com/MD/Baltimore/1008-S-Paca-St-21230/home/11003292,BRIGHT MLS,MDBA2068364,N,Y,39.2803884,-76.6268645
MLS Listing,,Vacant Land,Lots 2 & 3 Featherbed Ln,Hedgesville,WV,25427,45000,,,SLEEPY HOLLOW,,132422,,1,,50,Active,,,https://www.redfin.com/WV/Unknown/Lots-2-3-Feather-Bed-Ln-25427/home/183057427,BRIGHT MLS,WVMO2002560,N,Y,39.59545409,-78.09872755
MLS Listing,,Single Family Residential,173 Prospect Ave,Bunker Hill,WV,25413,69900,3,1.0,MAR WIN MANOR,,8276,1972,1,,,Active,,,https://www.redfin.com/WV/Bunker-Hill/173-Prospect-Ave-25413/home/15856299,BRIGHT MLS,WVBE2014838,N,Y,39.326896,-78.052769
MLS Listing,,Condo/Co-op,5500 Friendship Blvd Unit 2227N,Chevy Chase,MD,20815,323000,1,1.0,WILLOUGHBY OF CH CH CODM,879,,1968,1,367,740,Active,,,https://www.redfin.com/MD/Chevy-Chase/5500-Friendship-Blvd-20815/unit-2227N/home/10692714,BRIGHT MLS,MDMC2076736,N,Y,38.9631175,-77.089325
MLS Listing,,Townhouse,504 S 11th St #36,Philadelphia,PA,19147,385000,2,1.5,WASHINGTON SQ WEST,1166,,1967,1,330,324,Active,,,https://www.redfin.com/PA/Philadelphia/504R06-S-11th-St-19147/unit-36/home/112859699,BRIGHT MLS,PAPH2180698,N,Y,39.9435814,-75.1613644
MLS Listing,,Single Family Residential,2800 Treadwell Ln Unit AUGUSTA PLAN,Brookeville,MD,20833,1035485,4,2.5,Brookeville,2789,65340,2022,1,371,,Active,,,https://www.redfin.com/MD/Brookeville/2800-Treadwell-Ln-20833/unit-AUGUSTA-PLAN/home/183057399,BRIGHT MLS,MDMC2076986,N,Y,39.1934842,-77.065598
MLS Listing,,Single Family Residential,5 Glen Loch Way,Malvern,PA,19355,799000,4,2.5,Malvern,3046,43560,1979,1,262,,Pre On-Market,,,https://www.redfin.com/PA/Malvern/5-Glenloch-Way-19355/home/38618659,BRIGHT MLS,PACT2036180,N,Y,40.0240338,-75.5789991
MLS Listing,,Multi-Family (2-4 Unit),34 S Clinton St,Doylestown,PA,18901,749900,,,Doylestown,2283,7500,1885,1,328,,Active,,,https://www.redfin.com/PA/Doylestown/34-S-Clinton-St-18901/home/38571383,BRIGHT MLS,PABU2040360,N,Y,40.3080785,-75.1325677
MLS Listing,,Single Family Residential,10222 Falls Rd,Potomac,MD,20854,3250000,7,6.5,POTOMAC HILLS,11000,29095,2007,1,295,,Pre On-Market,,,https://www.redfin.com/MD/Potomac/10222-Falls-Rd-20854/home/10888090,BRIGHT MLS,MDMC2076950,N,Y,39.0242547,-77.207147
MLS Listing,,Single Family Residential,269 Harperella Ln,Berkeley Springs,WV,25411,379900,4,2.0,SLEEPY CREEK ORCHARD,2637,109336,1984,1,144,10,Active,,,https://www.redfin.com/WV/Berkeley-Springs/269-Harperella-Ln-25411/home/15961899,BRIGHT MLS,WVMO2002564,N,Y,39.6440098,-78.1239042
MLS Listing,,Multi-Family (2-4 Unit),1765 Old York Rd,Abington,PA,19001,400000,,,Abington,2352,6695,1925,1,170,,Active,,,https://www.redfin.com/PA/Abington/1765-Old-York-Rd-19001/home/38235983,BRIGHT MLS,PAMC2058796,N,Y,40.1337993,-75.115052
MLS Listing,,Single Family Residential,5107 Midwood Ave,Baltimore,MD,21212,250000,3,2.0,BALTIMORE HIGHLANDS,2460,7496,1935,1,102,,Pre On-Market,,,https://www.redfin.com/MD/Baltimore/5107-Midwood-Ave-21212/home/11196730,BRIGHT MLS,MDBA2068198,N,Y,39.349978,-76.6027255
MLS Listing,,Single Family Residential,719 Hemlock St,Avalon,PA,15202,69900,4,1.0,Avalon,1448,4848,1900,1,48,,Active,,,https://www.redfin.com/PA/Pittsburgh/719-Hemlock-St-15202/home/73569046,West Penn MLS,1585360,N,Y,40.4992393,-80.0683647
MLS Listing,,Townhouse,519 Buchanan St NW,Washington,DC,20011,674000,4,2.0,Petworth,2130,2547,1925,1,316,,Active,,,https://www.redfin.com/DC/Washington/519-Buchanan-St-NW-20011/home/10058126,BRIGHT MLS,DCDC2076290,N,Y,38.9464885,-77.020226
MLS Listing,,Single Family Residential,113 Millport Rd,West Mifflin,PA,15122,194900,3,2.0,West Mifflin,,,1953,1,,,Active,,,https://www.redfin.com/PA/West-Mifflin/113-Millport-Rd-15122/home/73527675,West Penn MLS,1585391,N,Y,40.3445055,-79.9243422
MLS Listing,,Townhouse,442 N Patterson Park Ave,Baltimore,MD,21231,115000,3,1.0,Ward 6,1210,1815,1910,1,95,,Active,,,https://www.redfin.com/MD/Baltimore/442-N-Patterson-Park-Ave-21231/home/10756315,BRIGHT MLS,MDBA2068408,N,Y,39.2963475,-76.5852258
MLS Listing,,Multi-Family (2-4 Unit),25 Broadway,Hagerstown,MD,21740,625000,,,Hagerstown,3620,11761,1962,1,173,,Active,,,https://www.redfin.com/MD/Hagerstown/25-Broadway-21740/home/104306699,BRIGHT MLS,MDWA2012092,N,Y,39.6477058,-77.7145132
MLS Listing,,Townhouse,1623 Ceddox,Baltimore City,MD,21226,80000,2,1.0,Ward 25,820,1200,1900,1,98,,Active,,,https://www.redfin.com/MD/Baltimore/1623-Ceddox-St-21226/home/11060011,BRIGHT MLS,MDBA2068344,N,Y,39.2210465,-76.5872348
MLS Listing,,Single Family Residential,3325 Choptank Ave,Middle River,MD,21220,305000,3,2.0,LONG BEACH ESTATES,1239,15000,1942,1,246,,Pre On-Market,,,https://www.redfin.com/MD/Middle-River/3325-Choptank-Ave-21220/home/9439536,BRIGHT MLS,MDBC2054232,N,Y,39.3108341,-76.3936841
MLS Listing,,Single Family Residential,1198 Happy Ridge Dr,Front Royal,VA,22630,475000,3,3.0,HAPPY CREEK KNOLLS SECTION 4,1944,10890,2022,1,244,,Active,,,https://www.redfin.com/VA/Front-Royal/1198-Happy-Ridge-Dr-22630/home/183057218,BRIGHT MLS,VAWR2003938,N,Y,38.9212757,-78.1563641
MLS Listing,,Condo/Co-op,7115 Sandown Cir #303,Windsor Mill,MD,21244,204900,3,2.0,BRISTOL PARK,1232,,1996,1,166,223,Active,,,https://www.redfin.com/MD/Windsor-Mill/7115-Sandown-Cir-21244/unit-303/home/9521699,BRIGHT MLS,MDBC2055348,N,Y,39.325682,-76.761121
MLS Listing,,Single Family Residential,225 Elmwood Blvd,York,PA,17403,299900,4,2.5,ELMWOOD,2240,12001,1952,1,134,,Active,,,https://www.redfin.com/PA/York/225-Elmwood-Blvd-17403/home/140444191,BRIGHT MLS,PAYK2033584,N,Y,39.9714019,-76.6968186
MLS Listing,,Single Family Residential,336 Harding Ct,Pitman,NJ,08071,199900,3,1.5,Pitman,1220,6273,1922,1,164,,Active,,,https://www.redfin.com/NJ/Pitman/336-Harding-Ct-08071/home/36452278,BRIGHT MLS,NJGL2023860,N,Y,39.7335873,-75.1215405
MLS Listing,,Single Family Residential,110 15th St,Vandergrift - Wml,PA,15690,65000,3,1.0,Vandergrift - WML,,1524,1900,1,,,Active,,,https://www.redfin.com/PA/Vandergrift/110-15th-St-15690/home/69200073,West Penn MLS,1585422,N,Y,40.6018121,-79.5651182
MLS Listing,,Single Family Residential,7960 Rider Ln,Hummelstown,PA,17036,249000,4,2.5,Hummelstown,2290,20909,1972,1,109,,Active,,,https://www.redfin.com/PA/Hummelstown/7960-Rider-Ln-17036/home/123062184,BRIGHT MLS,PADA2019058,N,Y,40.3319635,-76.7082857
MLS Listing,,Townhouse,305 Lincoln Ave,Havertown,PA,19083,380000,3,1.0,EVERGREEN,1490,5227,1936,1,255,,Pre On-Market,,,https://www.redfin.com/PA/Havertown/305-Lincoln-Ave-19083/home/38671545,BRIGHT MLS,PADE2037874,N,Y,39.9762276,-75.3134535
MLS Listing,,Single Family Residential,6411 Macarthur Blvd,Bethesda,MD,20816,1695000,7,5.5,BETHESDA OUT RES.(2),5800,10418,2002,1,292,,Active,,,https://www.redfin.com/MD/Bethesda/6411-Macarthur-Blvd-20816/home/10636234,BRIGHT MLS,MDMC2076980,N,Y,38.9453393,-77.1190554
MLS Listing,,Townhouse,313 Mosher St,Baltimore,MD,21217,399000,5,4.5,Ward 14,3210,2500,1920,1,124,,Active,,,https://www.redfin.com/MD/Baltimore/313-Mosher-St-21217/home/10879989,BRIGHT MLS,MDBA2068380,N,Y,39.3048424,-76.6284891
MLS Listing,,Single Family Residential,5011 Catalpha Rd,Baltimore,MD,21214,299900,4,3.5,Ward 27,1568,9748,1934,1,191,,Active,,,https://www.redfin.com/MD/Baltimore/5011-Catalpha-Rd-21214/home/11143976,BRIGHT MLS,MDBA2068452,N,Y,39.3506464,-76.5703838
MLS Listing,,Single Family Residential,2015 Nelson Mill Rd,Jarrettsville,MD,21084,500000,3,2.5,JARRETTSVILLE,2376,199940,1974,1,210,,Pre On-Market,,,https://www.redfin.com/MD/Jarrettsville/2015-Nelson-Mill-Rd-21084/home/14554950,BRIGHT MLS,MDHR2018298,N,Y,39.6297671,-76.4820414
MLS Listing,,Townhouse,5346 N Carlisle St,Philadelphia,PA,19141,215000,3,2.0,OGONTZ,1646,1260,1908,1,131,,Active,,,https://www.redfin.com/PA/Philadelphia/5346-N-Carlisle-St-19141/home/38437610,BRIGHT MLS,PAPH2182870,N,Y,40.0350333,-75.1467079
MLS Listing,,Single Family Residential,896 Vineland Ave,Bridgeton,NJ,08302,259500,4,2.0,ROSENHAYN,864,19602,1969,1,300,,Active,,,https://www.redfin.com/NJ/Bridgeton/896-Vineland-Ave-08302/home/100397208,BRIGHT MLS,NJCB2010292,N,Y,39.4750375,-75.1230001
MLS Listing,,Single Family Residential,107 Morton Ln,Mt. Lebanon,PA,15226,270000,4,2.0,Mt. Lebanon,1536,11499,1947,1,176,,Active,December-4-2022 12:00 PM,December-4-2022 02:00 PM,https://www.redfin.com/PA/Pittsburgh/107-Morton-Ln-15226/home/74769228,West Penn MLS,1585289,N,Y,40.3889349,-80.0293454
MLS Listing,,Single Family Residential,5100 Homeville Rd,Oxford,PA,19363,450000,3,2.0,Oxford,3498,65340,1971,1,129,,Active,,,https://www.redfin.com/PA/Oxford/5100-Homeville-Rd-19363/home/183055842,BRIGHT MLS,PACT2036872,N,Y,39.8519421,-75.9947699
MLS Listing,,Single Family Residential,33 Walden Rd,Lebanon,PA,17042,535000,3,3.0,RUNNYMEDE,3668,97139,1965,1,146,,Active,,,https://www.redfin.com/PA/Lebanon/33-Walden-Rd-17042/home/133352655,BRIGHT MLS,PALN2007962,N,Y,40.3243899,-76.4575514
MLS Listing,,Single Family Residential,3312 Centerville Rd,Greenville,DE,19807,1190000,4,5.0,HOFF SUBD,3950,111514,1954,1,301,,Pre On-Market,,,https://www.redfin.com/DE/Wilmington/3312-Centerville-Rd-19807/home/44915445,BRIGHT MLS,DENC2035170,N,Y,39.7712618,-75.622309
MLS Listing,,Single Family Residential,6815 Rehnquist Ct,New Market,MD,21774,764900,6,3.5,WOODRIDGE,4390,9200,2013,1,174,175,Active,December-3-2022 11:00 AM,December-3-2022 01:00 PM,https://www.redfin.com/MD/New-Market/6815-Rehnquist-Ct-21774/home/51669638,BRIGHT MLS,MDFR2028388,N,Y,39.4219937,-77.3315227
MLS Listing,,Townhouse,181 Race St,Lebanon,PA,17042,175000,3,1.0,Lebanon,1330,6970,1875,1,132,,Pre On-Market,,,https://www.redfin.com/PA/Lebanon/181-Race-St-17042/home/133373434,BRIGHT MLS,PALN2007910,N,Y,40.2841652,-76.4230226
MLS Listing,,Townhouse,313 Holmes Rd,Holmes,PA,19043,215000,3,1.0,RIDLEY FARMS,1618,3920,1918,1,133,,Active,,,https://www.redfin.com/PA/Holmes/313-Holmes-Rd-19043/home/39158686,BRIGHT MLS,PADE2038028,N,Y,39.8987911,-75.3088637
MLS Listing,,Single Family Residential,118 Mccormick Blvd,Newark,DE,19702,420000,3,2.5,WOODLAND VILLAGE,2150,10890,1996,1,195,23,Pre On-Market,,,https://www.redfin.com/DE/Newark/118-McCormick-Blvd-19702/home/44999905,BRIGHT MLS,DENC2035206,N,Y,39.6164686,-75.7676955
MLS Listing,,Townhouse,10421 Fernwood Rd,Bethesda,MD,20817,859000,3,3.5,ROCKVILLE OUTSIDE,1700,907,2017,1,505,210,Active,December-4-2022 12:00 PM,December-4-2022 02:00 PM,https://www.redfin.com/MD/Bethesda/10421-Fernwood-Rd-20817/home/110057659,BRIGHT MLS,MDMC2076976,N,Y,39.0261153,-77.1374272
MLS Listing,,Vacant Land,2437 N 3rd St,Philadelphia,PA,19133,135000,,,Philadelphia,,840,,1,,,Active,,,https://www.redfin.com/PA/Philadelphia/2437-N-3rd-St-19133/home/40563490,BRIGHT MLS,PAPH2182894,N,Y,39.988,-75.137957
MLS Listing,,Single Family Residential,27 Royal Dr,Lititz,PA,17543,449600,4,2.5,OWL HILL PERCH,2502,14810,1999,1,180,,Pre On-Market,,,https://www.redfin.com/PA/Lititz/27-Royal-Dr-17543/home/130344356,BRIGHT MLS,PALA2028348,N,Y,40.1426657,-76.2905858
MLS Listing,,Townhouse,38 Rocky Green Ln,Gettysburg,PA,17325,369990,2,2.0,AMBLEBROOK,1518,,2023,1,244,290,Active,,,https://www.redfin.com/PA/Gettysburg/38-Rocky-Green-Ln-17325/home/183014514,BRIGHT MLS,PAAD2007372,N,Y,39.8794485,-77.1854089
MLS Listing,,Single Family Residential,7017 Kenhill Rd,Bethesda,MD,20817,1798000,5,3.5,KENWOOD PARK,6048,17190,1960,1,297,,Active,,,https://www.redfin.com/MD/Bethesda/7017-Kenhill-Rd-20817/home/10668986,BRIGHT MLS,MDMC2076456,N,Y,38.9812131,-77.121595
MLS Listing,,Vacant Land,2144 N 3rd St,Philadelphia,PA,19122,135000,,,Philadelphia,,770,,1,,,Active,,,https://www.redfin.com/PA/Philadelphia/2144-N-3rd-St-19122/home/40563500,BRIGHT MLS,PAPH2182896,N,Y,39.983573,-75.139314
MLS Listing,,Vacant Land,2150 N 3rd St,Philadelphia,PA,19122,135000,,,Philadelphia,,770,,1,,,Active,,,https://www.redfin.com/PA/Philadelphia/2150-N-3rd-St-19122/home/40563498,BRIGHT MLS,PAPH2182898,N,Y,39.983687,-75.13929
