SALE TYPE,SOLD DATE,PROPERTY TYPE,ADDRESS,CITY,STATE OR PROVINCE,ZIP OR POSTAL CODE,PRICE,BEDS,BATHS,LOCATION,SQUARE FEET,LOT SIZE,YEAR BUILT,DAYS ON MARKET,$/SQUARE FEET,HOA/MONTH,STATUS,NEXT OPEN HOUSE START TIME,NEXT OPEN HOUSE END TIME,URL (SEE https://www.redfin.com/buy-a-home/comparative-market-analysis FOR INFO ON PRICING),SOURCE,MLS#,FAVORITE,INTERESTED,LATITUDE,LONGITUDE
MLS Listing,,Single Family Residential,543 Lowrider Dr,Richburg,SC,29729,400000,2,1.0,Murdock Farms,923,209523,2015,2,433,,Active,January-7-2023 01:00 PM,January-7-2023 04:00 PM,https://www.redfin.com/SC/Richburg/543-Lowrider-Dr-29729/home/52191711,CANOPYMLS,3928508,N,Y,34.7031678,-81.0337796
MLS Listing,,Single Family Residential,3188 Camp Creek Rd,Lancaster,SC,29720,135000,3,1.0,Camp Creek,1594,256829,2008,1,85,,Active,,,https://www.redfin.com/SC/Lancaster/3188-Camp-Creek-Rd-29720/home/52150023,CANOPYMLS,3929966,N,Y,34.7664357,-80.6914426
MLS Listing,,Single Family Residential,207 Gibert St,Union,SC,29379,229900,3,2.5,Union County,1740,34848,,1,132,,Active,,,https://www.redfin.com/SC/Union/207-Gibert-St-29379/home/85916186,SPMLS,294892,N,Y,34.7070388,-81.6055831
MLS Listing,,Single Family Residential,3016 Cricket Ln,Indian Land,SC,29720,418900,3,2.0,Walnut Creek,1933,6534,2015,1,217,50,Active,December-17-2022 11:00 AM,December-17-2022 01:00 PM,https://www.redfin.com/SC/Lancaster/3016-Cricket-Ln-29720/home/87947200,CANOPYMLS,3928770,N,Y,34.9322389,-80.7925927
MLS Listing,,Single Family Residential,8008 Oakmere Rd #1875,Waxhaw,NC,28173,554999,5,4.0,Millbridge,2954,7405,2020,1,188,75,Active,December-18-2022 01:00 PM,December-18-2022 03:00 PM,https://www.redfin.com/NC/Waxhaw/8008-Oakmere-Rd-28173/unit-1875/home/183365056,CANOPYMLS,3929667,N,Y,34.9277441,-80.7680746
MLS Listing,,Single Family Residential,277 Powderhouse St,Rock Hill,SC,29730,190000,4,1.0,Rock Hill,1218,14374,1950,1,156,,Active,,,https://www.redfin.com/SC/Rock-Hill/277-Powderhouse-St-29730/home/52111007,CANOPYMLS,3929972,N,Y,34.9162846,-81.0348241
MLS Listing,,Vacant Land,738 Lake Rd Lot 6,Clinton,SC,29325,60000,,,,,217800,,1,,,Active,,,https://www.redfin.com/SC/Clinton/738-Lake-Rd-29325/unit-6/home/181731593,Greater Greenville MLS,1488297,N,Y,34.461054,-81.779011
MLS Listing,,Vacant Land,738 Lake Rd Lot 5,Clinton,SC,29325,195000,,,,,827640,,1,,,Active,,,https://www.redfin.com/SC/Clinton/738-Lake-Rd-29325/unit-5/home/181731580,Greater Greenville MLS,1488296,N,Y,34.461054,-81.779011
MLS Listing,,Vacant Land,738 Lake Rd Lot 3,Clinton,SC,29325,215000,,,,,1045440,,1,,,Active,,,https://www.redfin.com/SC/Clinton/738-Lake-Rd-29325/unit-3/home/181731557,Greater Greenville MLS,1488295,N,Y,34.461054,-81.779011
MLS Listing,,Vacant Land,738 Lake Rd Lot 2,Clinton,SC,29325,60000,,,,,217800,,1,,,Active,,,https://www.redfin.com/SC/Clinton/738-Lake-Rd-29325/unit-2/home/181731550,Greater Greenville MLS,1488294,N,Y,34.461054,-81.779011
MLS Listing,,Vacant Land,738 Lake Rd Lot 1,Clinton,SC,29325,399500,,,,,4356000,,1,,,Active,,,https://www.redfin.com/SC/Clinton/738-Lake-Rd-29325/unit-1/home/181731504,Greater Greenville MLS,1488292,N,Y,34.461054,-81.779011
MLS Listing,,Single Family Residential,1034 Melchers Dr,Rock Hill,SC,29730,300000,3,1.5,Eastview,1480,23086,1964,1,203,,Active,,,https://www.redfin.com/SC/Rock-Hill/1034-Melchers-Dr-29730/home/52116267,CANOPYMLS,3929963,N,Y,34.9238423,-81.0012867
MLS Listing,,Single Family Residential,TBD Soft Shell Dr #473,Lancaster,SC,29720,511819,4,2.5,Walnut Creek,2446,6490,2023,1,209,50,Active,,,https://www.redfin.com/SC/Unknown/TBD-Soft-Shell-Dr-29720/unit-473/home/183385312,CANOPYMLS,3929948,N,Y,34.933083,-80.785984
MLS Listing,,Single Family Residential,TBD Soft Shell Dr #472,Lancaster,SC,29720,548619,5,3.5,Walnut Creek,3269,6490,2023,1,168,50,Active,,,https://www.redfin.com/SC/Unknown/TBD-Soft-Shell-Dr-29720/unit-472/home/183384584,CANOPYMLS,3929943,N,Y,34.932749,-80.78593
MLS Listing,,Single Family Residential,1729 Heathland Dr,Rock Hill,SC,29730,310000,3,2.0,Taylor Oaks,1311,10018,2002,1,236,,Active,,,https://www.redfin.com/SC/Rock-Hill/1729-Heathland-Dr-29730/home/52138545,CANOPYMLS,3929945,N,Y,34.8778549,-81.0266608
MLS Listing,,Single Family Residential,TBD Soft Shell Dr #477,Lancaster,SC,29720,546499,4,3.5,Walnut Creek,2964,6490,2023,1,184,50,Active,,,https://www.redfin.com/SC/Unknown/TBD-Soft-Shell-Dr-29720/unit-477/home/183383633,CANOPYMLS,3929931,N,Y,34.930013,-80.786467
MLS Listing,,Single Family Residential,130 Overbrook Ct,Spartanburg,SC,29306,127000,2,1.0,Park Hills,1000,12632,1950,1,127,,Active,,,https://www.redfin.com/SC/Spartanburg/130-Overbrook-Cir-29306/home/110878727,Greater Greenville MLS,1488281,N,Y,34.9319388,-81.9457031
MLS Listing,,Single Family Residential,TBD Soft Shell Dr #478,Lancaster,SC,29720,526699,5,3.0,Walnut Creek,2798,6490,2023,1,188,50,Active,,,https://www.redfin.com/SC/Unknown/TBD-Soft-Shell-Dr-29720/unit-478/home/183383347,CANOPYMLS,3929928,N,Y,34.933682,-80.787208
MLS Listing,,Vacant Land,00 Walnut Rd,Lancaster,SC,29720,58000,,,Lancaster,,120661,,1,,,Active,,,https://www.redfin.com/SC/LANCASTER/WALNUT-RD-29720/home/52164542,CANOPYMLS,3927313,N,Y,34.788602,-80.647204
MLS Listing,,Single Family Residential,6179 Russo Ct Lot 26-03,Lancaster,SC,29720,700000,6,4.0,Walnut Creek,4020,13068,2022,1,174,50,Active,,,https://www.redfin.com/SC/Lancaster/6179-Russo-Ct-29720/unit-26-03/home/181411397,CANOPYMLS,3929860,N,Y,34.9279157,-80.8019959
MLS Listing,,Vacant Land,2.25 +/-ACRES Waxhaw Marvin Rd Unit 1 OF 2 TRACTS,Waxhaw,NC,28173,325000,,,Waxhaw,,98010,,1,,,Active,,,https://www.redfin.com/NC/Waxhaw/2-25-ACRES-Waxhaw-Marvin-Rd-28173/unit-1-OF-2-TRACTS/home/179570264,CANOPYMLS,3929881,N,Y,34.938797,-80.765755
MLS Listing,,Single Family Residential,634 Edwards Rd,Fort Lawn,SC,29714,280000,3,2.5,Fort Lawn,1727,44431,1965,1,162,,Active,,,https://www.redfin.com/SC/Fort-Lawn/634-Edwards-Rd-29714/home/52188452,CANOPYMLS,3929473,N,Y,34.7134947,-80.8897453
MLS Listing,,Single Family Residential,87450 Edsen Ct #67,Lancaster,SC,29720,470000,5,3.0,Walnut Creek,2685,6534,2014,1,175,50,Active,,,https://www.redfin.com/SC/Lancaster/87450-Edsen-Ct-29720/unit-67/home/183380528,CANOPYMLS,3927596,N,Y,34.9384036,-80.7860581
MLS Listing,,Single Family Residential,335 Baker St,Rock Hill,SC,29730,115000,2,1.0,Sunset Park,952,7405,1950,1,121,,Active,,,https://www.redfin.com/SC/Rock-Hill/335-Baker-St-29730/home/183380003,CANOPYMLS,3929865,N,Y,34.9191493,-81.042748
MLS Listing,,Vacant Land,7807 Mccall Rd #1,Waxhaw,NC,28173,200000,,,Waxhaw,,174240,,1,,,Active,,,https://www.redfin.com/NC/Waxhaw/7807-McCall-Rd-28173/unit-1/home/183377369,CANOPYMLS,3929134,N,Y,34.9343244,-80.7682586
MLS Listing,,Single Family Residential,109 Oakland Ave,Chester,SC,29706,85000,2,1.0,Chester,1116,12153,1940,1,76,,Active,,,https://www.redfin.com/SC/Chester/109-Oakland-Ave-29706/home/52188763,CANOPYMLS,3927257,N,Y,34.7031993,-81.2147681
MLS Listing,,Single Family Residential,1323 Stack Rd,Monroe,NC,28112,429000,3,2.0,Monroe,2062,47916,2023,1,208,,Active,,,https://www.redfin.com/NC/Monroe/1323-Stack-Rd-28112/home/174604577,CANOPYMLS,3929013,N,Y,34.928764,-80.530378
MLS Listing,,Single Family Residential,1321 Stack Rd,Monroe,NC,28112,429000,3,2.0,Monroe,2062,60983,2022,1,208,,Active,,,https://www.redfin.com/NC/Monroe/1321-Stack-Rd-28112/home/183375693,CANOPYMLS,3929011,N,Y,34.9154478,-80.519048
MLS Listing,,Single Family Residential,0000 White Store Rd,Wingate,NC,28174,585000,3,2.0,Wingate,2045,471754,2023,1,286,,Active,,,https://www.redfin.com/NC/WINGATE/0-WHITE-STORE-RD-28174/home/43836090,CANOPYMLS,3929527,N,Y,34.924817,-80.422251
MLS Listing,,Single Family Residential,2532 Watson Dr,Lancaster,SC,29720,249900,3,2.0,Lancaster,1436,16552,1977,2,174,,Active,,,https://www.redfin.com/SC/Lancaster/2532-Watson-Dr-29720/home/52170247,CANOPYMLS,3926278,N,Y,34.6740799,-80.7393057
MLS Listing,,Townhouse,3019 Honeylocust Ln,Indian Land,SC,29707,375000,3,2.5,The Grove,1875,4356,2017,2,200,182,Active,,,https://www.redfin.com/SC/Indian-Land/3019-Honeylocust-Ln-29707/home/142648808,CANOPYMLS,3928299,N,Y,34.9393424,-80.8317664
MLS Listing,,Single Family Residential,1008 Hallmark Way,Waxhaw,NC,28173,529000,4,3.0,Millbridge,2592,8276,2021,2,204,87,Active,December-17-2022 11:00 AM,December-17-2022 01:00 PM,https://www.redfin.com/NC/Waxhaw/1008-Hallmark-Way-28173/home/147369175,CANOPYMLS,3928136,N,Y,34.9287492,-80.7764934
MLS Listing,,Single Family Residential,337 Community St,Rock Hill,SC,29730,186000,2,1.0,Rock Hill,1140,11325,1940,2,163,,Active,,,https://www.redfin.com/SC/Rock-Hill/337-Community-St-29730/home/52117059,CANOPYMLS,3926800,N,Y,34.9388961,-81.0147084
MLS Listing,,Single Family Residential,2765 Pineview Dr,Lancaster,SC,29720,269900,4,2.0,Lancaster,1784,20037,1979,2,151,,Active,,,https://www.redfin.com/SC/Lancaster/2765-Pineview-Dr-29720/home/52164914,CANOPYMLS,3926420,N,Y,34.6704361,-80.7512189
MLS Listing,,Single Family Residential,125 Martello St,Moore,SC,29369,195000,3,1.5,,1200,19166,1966,2,163,,Active,,,https://www.redfin.com/SC/Moore/125-Martello-St-29369/home/110365393,Greater Greenville MLS,1488217,N,Y,34.8884771,-81.9771528
MLS Listing,,Single Family Residential,1422 Harrelson Rd,Pauline,SC,29374,144900,3,2.0,Pauline,1280,43560,2011,2,113,,Active,,,https://www.redfin.com/SC/Pauline/1422-Harrelson-Rd-29374/home/110895485,CANOPYMLS,3929785,N,Y,34.7486598,-81.9004221
MLS Listing,,Single Family Residential,1 Church St,Rock Hill,SC,29730,225000,2,2.0,Aragon Baldwin Mills,1034,15681,1945,2,218,,Active,,,https://www.redfin.com/SC/Rock-Hill/1-Church-St-29730/home/52117688,CANOPYMLS,3929587,N,Y,34.9373803,-81.0063795
MLS Listing,,Single Family Residential,1143 Westminister Rd,Lancaster,SC,29720,259900,3,2.0,Cane Creek,1380,14941,2022,2,188,,Active,,,https://www.redfin.com/SC/LANCASTER/1143-WESTMINSTER-DR-29720/home/52143181,CANOPYMLS,3929728,N,Y,34.700977,-80.808449
MLS Listing,,Single Family Residential,1032 Mesa Verde Dr,Indian Land,SC,29707,489900,2,2.0,Sun City Carolina Lakes,1705,6969,2010,2,287,294,Active,,,https://www.redfin.com/SC/Indian-Land/1032-Mesa-Verde-Dr-29707/home/52181916,CANOPYMLS,3925787,N,Y,34.918555,-80.8481363
MLS Listing,,Vacant Land,223 Maple St,Rock Hill,SC,29730,29900,,,Rock Hill,,7405,,2,,,Active,,,https://www.redfin.com/SC/Rock-Hill/223-Maple-St-29730/home/52111644,CANOPYMLS,3929732,N,Y,34.9195641,-81.0398193
MLS Listing,,Single Family Residential,780 Peden Bridge Rd,Chester,SC,29706,330000,3,3.0,Chester,2229,497455,1999,2,148,,Active,,,https://www.redfin.com/SC/Chester/780-State-Rd-44-29706/home/52194123,CANOPYMLS,3929496,N,Y,34.679631,-81.176758
MLS Listing,,Vacant Land,326 Friedheim Rd,Rock Hill,SC,29730,29900,,,Rock Hill,,7405,,2,,,Active,,,https://www.redfin.com/SC/Rock-Hill/326-Friedheim-Rd-29730/home/53389762,CANOPYMLS,3929715,N,Y,34.9220437,-81.0400702
MLS Listing,,Vacant Land,3886 Lesslie Hwy,Rock Hill,SC,29730,225000,,,Rock Hill,,119833,,2,,,Active,,,https://www.redfin.com/SC/Rock-Hill/3886-Lesslie-HWY-29730/home/183367874,CANOPYMLS,3929709,N,Y,34.873581,-80.939443
MLS Listing,,Vacant Land,826 Deerwood Dr,Pacolet,SC,29372,168000,,5.0,Pacolet,,987940,,2,,,Active,,,https://www.redfin.com/SC/Pacolet/826-State-Rd-S-42-382-29372/home/174543001,SPMLS,296289,N,Y,34.8849378,-81.7773297
MLS Listing,,Vacant Land,Lot 2 Lancaster Hwy,Waxhaw,NC,28173,575000,,,Waxhaw,,1306800,,2,,,Active,,,https://www.redfin.com/NC/Waxhaw/Lot-2-Lancaster-HWY-28173/home/183367251,CANOPYMLS,3929611,N,Y,34.876066,-80.655481
MLS Listing,,Single Family Residential,4028 Murray St,Indian Land,SC,29707,385000,2,2.0,Sun City Carolina Lakes,1244,8712,2008,2,309,294,Active,,,https://www.redfin.com/SC/Indian-Land/4028-Murray-St-29707/home/52179011,CANOPYMLS,3929282,N,Y,34.9178047,-80.8418874
MLS Listing,,Single Family Residential,1781 Stuart Carter Ave,Rock Hill,SC,29730,400000,3,2.5,Ellis Pond,2500,8624,2014,2,160,25,Active,,,https://www.redfin.com/SC/Rock-Hill/1781-Stuart-Carter-Ave-29730/home/85817059,CANOPYMLS,3929474,N,Y,34.9299905,-80.9445108
MLS Listing,,Single Family Residential,913 Forest Dr,Lancaster,SC,29720,340000,4,3.0,Lancaster,2374,55756,1957,3,143,,Active,December-18-2022 01:00 PM,December-18-2022 03:00 PM,https://www.redfin.com/SC/Lancaster/913-Forest-Dr-29720/home/52143329,CANOPYMLS,3927262,N,Y,34.724641,-80.792074
MLS Listing,,Single Family Residential,409 W Springs St,Lancaster,SC,29720,239989,3,1.5,Lancaster,1288,20037,1961,3,186,,Active,,,https://www.redfin.com/SC/Lancaster/409-W-Springs-St-29720/home/52168997,CANOPYMLS,3928350,N,Y,34.7232844,-80.7775754
MLS Listing,,Single Family Residential,316 S Converse St,Spartanburg,SC,29306,125000,5,2.0,Spartanburg,1762,,,3,71,,Active,,,https://www.redfin.com/SC/Spartanburg/316-S-Converse-St-29306/home/110742210,SPMLS,296278,N,Y,34.9454947,-81.9243452
MLS Listing,,Vacant Land,603 N Jones Ave,Rock Hill,SC,29730,49900,,,Rock Hill,,8058,,3,,,Active,,,https://www.redfin.com/SC/Rock-Hill/603-N-Jones-Ave-29730/home/164909849,CANOPYMLS,3929183,N,Y,34.9271317,-81.0104793
MLS Listing,,Single Family Residential,109 Teakwood Dr,Clinton,SC,29325,250000,3,3.0,,2600,17424,1969,3,96,,Active,,,https://www.redfin.com/SC/Clinton/109-Teakwood-Dr-29325/home/87129523,Greater Greenville MLS,1488164,N,Y,34.45284,-81.8845116
MLS Listing,,Single Family Residential,611 Mystic Way Ln,Waxhaw,NC,28173,965000,4,2.5,Rock Springs,3775,70131,2023,3,256,,Active,,,https://www.redfin.com/NC/WAXHAW/611-MYSTIC-WAY-LN-28173/home/174600334,CANOPYMLS,3927164,N,Y,34.887925,-80.765433
MLS Listing,,Single Family Residential,1637 Norfolk Ct,Rock Hill,SC,29730,274900,3,2.0,Taylor Oaks,1250,10018,2001,3,220,,Active,,,https://www.redfin.com/SC/Rock-Hill/1637-Norfolk-Ct-29730/home/52138557,CANOPYMLS,3929263,N,Y,34.8776131,-81.0274374
MLS Listing,,Condo/Co-op,8700 Baraka Pl Unit M,Waxhaw,NC,28173,215000,2,2.0,Waxhaw,1226,,1993,3,175,225,Active,,,https://www.redfin.com/NC/Waxhaw/8700-Baraka-Pl-28173/unit-M/home/43814359,CANOPYMLS,3928134,N,Y,34.8449985,-80.7287502
MLS Listing,,Single Family Residential,5435 Foxcroft Dr,Fort Lawn,SC,29714,265000,3,2.0,Colonial Estates,1518,45302,1999,3,175,,Active,,,https://www.redfin.com/SC/Fort-Lawn/5435-Foxcroft-DR-29714/home/183351521,CANOPYMLS,3928250,N,Y,34.710441,-80.913363
MLS Listing,,Single Family Residential,787 Ridgedale Dr,Spartanburg,SC,29306,125000,3,1.5,,1000,,1970,3,125,,Active,,,https://www.redfin.com/SC/Spartanburg/787-Ridgedale-Dr-29306/home/110644140,Greater Greenville MLS,1488099,N,Y,34.9234014,-81.95248
MLS Listing,,Vacant Land,Hidden Hill 23 Units Rd,Spartanburg,SC,29301,1552500,,,,,119790,,3,,,Active,,,https://www.redfin.com/SC/Spartanburg/23-Hidden-Hill-Rd-29301/home/183351198,Greater Greenville MLS,1488152,N,Y,34.9230479,-81.9759771
MLS Listing,,Vacant Land,OLD GEORGIA 53 Units Rd,Roebuck,SC,29376,3577500,,,,,371566,,3,,,Active,,,https://www.redfin.com/SC/Roebuck/Old-Georgia-53-Units-RD-29376/home/183351153,Greater Greenville MLS,1488151,N,Y,34.8545,-81.9545
MLS Listing,,Vacant Land,Hidden Hill 16 Units Rd,Spartanburg,SC,29301,1080000,,,,,88862,,3,,,Active,,,https://www.redfin.com/SC/Spartanburg/16-Hidden-Hill-Rd-29301/home/183351127,Greater Greenville MLS,1488150,N,Y,34.923007,-81.9761802
MLS Listing,,Single Family Residential,1508 Jack Davis Rd,Monroe,NC,28112,394900,3,2.5,Monroe,2228,50093,2023,3,177,,Active,,,https://www.redfin.com/NC/Monroe/1508-Jack-Davis-Rd-28112/home/183351119,CANOPYMLS,3929209,N,Y,34.8671388,-80.4852219
MLS Listing,,Single Family Residential,717 Deep River Way #634,Waxhaw,NC,28173,601219,4,3.5,Millbridge,2824,7405,2022,3,213,75,Active,,,https://www.redfin.com/NC/Waxhaw/717-Deep-River-Way-28173/unit-634/home/183350806,CANOPYMLS,3929362,N,Y,34.922434,-80.782879
MLS Listing,,Single Family Residential,304 Old Farm Rd,Moore,SC,29369,69000,3,1.0,,1434,10890,1971,3,48,,Active,,,https://www.redfin.com/SC/Moore/304-Old-Farm-Rd-29369/home/110805291,Charleston Trident MLS,22030548,N,Y,34.9031804,-81.9801366
MLS Listing,,Single Family Residential,231 Barber St,Rock Hill,SC,29730,310000,3,2.0,Rock Hill,1226,9583,2022,3,253,,Active,,,https://www.redfin.com/SC/Rock-Hill/231-Barber-St-29730/home/164907933,CANOPYMLS,3927881,N,Y,34.918871,-81.0350739
MLS Listing,,Single Family Residential,307 Norris St,Jonesville,SC,29353,60000,2,1.0,,1200,,1987,3,50,,Active,,,https://www.redfin.com/SC/Jonesville/307-Norris-St-29353/home/85902906,Greater Greenville MLS,1488135,N,Y,34.8290309,-81.6794567
MLS Listing,,Single Family Residential,7671 Old Jefferson Hwy,Kershaw,SC,29067,160000,2,1.0,Kershaw,1008,52272,1950,3,159,,Active,,,https://www.redfin.com/SC/Kershaw/7671-Old-Jefferson-Hwy-29067/home/52156400,CANOPYMLS,3929233,N,Y,34.6186936,-80.5086698
MLS Listing,,Townhouse,7006 Swamp Chestnut Ln,Indian Land,SC,29707,360000,3,2.5,The Grove,1706,,2017,3,211,192,Active,,,https://www.redfin.com/SC/Indian-Land/7006-Swamp-Chestnut-Ln-29707/home/113678797,CANOPYMLS,3929129,N,Y,34.9397525,-80.8314449
MLS Listing,,Single Family Residential,2334 Blackmon Ln,Lancaster,SC,29720,120000,2,1.0,Lancaster,740,8712,1957,3,162,,Active,,,https://www.redfin.com/SC/Unknown/2334-Blackmon-Rd-29720/home/183348184,CANOPYMLS,3929255,N,Y,34.682347,-80.765093
MLS Listing,,Single Family Residential,1106 Booker St,Rock Hill,SC,29730,230000,3,1.0,Washington Heights,888,7405,1987,4,259,,Active,December-17-2022 11:00 AM,December-17-2022 01:00 PM,https://www.redfin.com/SC/Rock-Hill/1106-Booker-St-29730/home/52111271,CANOPYMLS,3926060,N,Y,34.9119076,-81.0443488
MLS Listing,,Single Family Residential,6267 Jack Thomas Dr,Indian Land,SC,29707,650000,3,2.5,Sun City Carolina Lakes,2773,8712,2016,4,234,261,Active,December-17-2022 12:00 PM,December-17-2022 03:00 PM,https://www.redfin.com/SC/Indian-Land/6267-Jack-Thomas-Dr-29707/home/104499883,CANOPYMLS,3924608,N,Y,34.9347556,-80.867226
MLS Listing,,Single Family Residential,201 Helen,Clinton,SC,29325-3642,132500,3,2.0,Laurens County,1100,30927,1990,4,120,,Active,,,https://www.redfin.com/SC/Clinton/201-Helen-St-29325/home/87120972,SPMLS,296256,N,Y,34.4874277,-81.8838717
MLS Listing,,Single Family Residential,621 Grandiflora Ave #138,Lancaster,SC,29720,299630,3,2.0,Rosegate,1338,6969,2023,4,224,148,Active,,,https://www.redfin.com/SC/Lancaster/621-Grandiflora-AVE-29720/unit-138/home/183341538,CANOPYMLS,3929200,N,Y,34.738,-80.5002
MLS Listing,,Single Family Residential,118 Evvalane Dr,Spartanburg,SC,29302,219900,3,2.5,Vista Hills,1400,5662,,4,157,,Active,,,https://www.redfin.com/SC/Spartanburg/118-Evvalane-Dr-29302/home/145560619,Greater Greenville MLS,1488120,N,Y,34.9208371,-81.8991852
MLS Listing,,Vacant Land,1261 Church Rd,Rock Hill,SC,29730,1499999,,,Rock Hill,,845063,,4,,,Active,,,https://www.redfin.com/SC/Rock-Hill/1261-Church-Rd-29730/home/169999832,CANOPYMLS,3929159,N,Y,34.934772,-80.941814
MLS Listing,,Single Family Residential,481 Aster Ave,Lancaster,SC,29720,244000,3,3.0,Lancaster,1693,30056,1972,4,144,,Active,,,https://www.redfin.com/SC/Lancaster/481-Aster-Ave-29720/home/52160632,CANOPYMLS,3928261,N,Y,34.6818151,-80.7029864
MLS Listing,,Ranch,480 OTTS SHOALS Rd,Roebuck,SC,29376,389000,4,2.0,Roebuck,1788,271814,1996,4,218,,Active,,,https://www.redfin.com/SC/Roebuck/480-Otts-Shoals-Rd-29376/home/111079511,SPMLS,296243,N,Y,34.8487171,-81.9539504
MLS Listing,,Single Family Residential,1004 Cheviot Ct #725,Waxhaw,NC,28173,524999,4,3.5,Millbridge,2825,7840,2022,4,186,75,Active,,,https://www.redfin.com/NC/Waxhaw/1004-Cheviot-CT-28173/unit-725/home/182513722,CANOPYMLS,3928704,N,Y,34.921891,-80.779476
MLS Listing,,Single Family Residential,101 Pardue Cir,Lancaster,SC,29720,220000,3,2.0,Lancaster,1069,18730,1958,4,206,,Active,,,https://www.redfin.com/SC/Lancaster/101-Pardue-Cir-29720/home/52160132,CANOPYMLS,3928970,N,Y,34.7238134,-80.7524684
MLS Listing,,Single Family Residential,503 E Ferguson St,Clinton,SC,29325,139900,2,1.0,,1600,18295,1955,5,87,,Active,,,https://www.redfin.com/SC/Clinton/503-E-Ferguson-St-29325/home/87113903,Greater Greenville MLS,1488073,N,Y,34.4746282,-81.8725232
MLS Listing,,Single Family Residential,106 Catherine St,Union,SC,29379-1846,189900,2,2.0,Union County,1880,16117,1920,5,101,,Active,,,https://www.redfin.com/SC/Union/106-Catherine-St-29379/home/85912910,SPMLS,296235,N,Y,34.7232723,-81.625835
MLS Listing,,Ranch,371 Eaves Rd,Whitmire,SC,29379,159900,3,1.0,Union County,1312,,,5,122,,Active,,,https://www.redfin.com/SC/Whitmire/371-Eaves-Rd-29178/home/85914478,SPMLS,296234,N,Y,34.5854523,-81.6030674
MLS Listing,,Vacant Land,3764 Saluda Rd,Rock Hill,SC,29730,45000,,,,,81892,,5,,,Active,,,https://www.redfin.com/SC/Rock-Hill/3764-Saluda-Rd-29730/home/164900623,Charleston Trident MLS,22030441,N,Y,34.8562559,-81.0882802
MLS Listing,,Single Family Residential,300 Musgrove St,Clinton,SC,29325,399000,5,3.5,,4200,23958,,5,95,,Active,,,https://www.redfin.com/SC/Clinton/300-Musgrove-St-29325/home/60567488,Greater Greenville MLS,1488048,N,Y,34.4753065,-81.8794776
MLS Listing,,Single Family Residential,912 Deercreek Ct,Roebuck,SC,29376,269000,3,2.0,Four Seasons,1600,13503,2015,5,168,17,Active,,,https://www.redfin.com/SC/Roebuck/912-Deercreek-Ct-29376/home/79472012,Greater Greenville MLS,1488038,N,Y,34.8953453,-81.962218
MLS Listing,,Vacant Land,0 Mccain Mill Rd,Waxhaw,NC,28173,395000,,,Waxhaw,,479160,,5,,,Active,,,https://www.redfin.com/NC/WAXHAW/0-MCCAIN-MILL-RD-28173/home/43858569,CANOPYMLS,3928823,N,Y,34.845162,-80.665585
MLS Listing,,Single Family Residential,2727 Crystal Creek Dr,Rock Hill,SC,29730,85000,3,2.0,Crystal Creek,1509,87120,1996,5,56,,Active,,,https://www.redfin.com/SC/Rock-Hill/2727-Crystal-Creek-Dr-29730/home/52112721,CANOPYMLS,3928792,N,Y,34.8211224,-81.070399
MLS Listing,,Single Family Residential,101 N Hughes St,Lancaster,SC,29720,199999,2,2.0,Lancaster,1148,8712,2022,5,174,,Active,December-17-2022 12:00 PM,December-17-2022 02:00 PM,https://www.redfin.com/SC/Lancaster/101-N-Hughes-St-29720/home/180784727,CANOPYMLS,3928048,N,Y,34.7228363,-80.7638673
MLS Listing,,Single Family Residential,1413 S Potter Rd,Lancaster,SC,29720,235000,3,2.0,Lancaster,1075,43995,1972,6,219,,Active,,,https://www.redfin.com/SC/Lancaster/1413-S-Potter-Rd-29720/home/52150652,CANOPYMLS,3927569,N,Y,34.6911604,-80.6801944
MLS Listing,,Vacant Land,1279 Main St,Rock Hill,SC,29730,10000,,,Rock Hill,,3484,,6,,,Active,,,https://www.redfin.com/SC/Rock-Hill/1279-E-Main-St-29730/home/164909364,CANOPYMLS,3928019,N,Y,34.915987,-81.0027248
MLS Listing,,Single Family Residential,3038 Mulberry Ln,Lancaster,SC,29720,320000,3,2.0,Lancaster,1490,21344,2022,6,215,,Active,,,https://www.redfin.com/SC/Lancaster/3038-Mulberry-Ln-29720/home/52167875,CANOPYMLS,3928719,N,Y,34.6721137,-80.7699435
MLS Listing,,Single Family Residential,115 Hemphill Ave,Chester,SC,29706,84000,2,1.0,Chester,1599,10018,1900,6,53,,Active,,,https://www.redfin.com/SC/Chester/115-Hemphill-Ave-29706/home/52193751,CANOPYMLS,3928503,N,Y,34.7124493,-81.2098033
MLS Listing,,Single Family Residential,5801 Soft Shell Dr #302,Lancaster,SC,29720,383999,4,2.5,Walnut Creek,2118,5401,2023,6,181,52,Active,,,https://www.redfin.com/SC/Lancaster/5801-Soft-Shell-Dr-29720/unit-302/home/183312578,CANOPYMLS,3928710,N,Y,34.9333407,-80.7835048
MLS Listing,,Townhouse,740 Atherton Way,Rock Hill,SC,29730,279000,2,2.5,Manchester Village,1440,,2002,7,194,154,Active,December-18-2022 02:00 PM,December-18-2022 04:00 PM,https://www.redfin.com/SC/Rock-Hill/740-Atherton-Way-29730/home/52140827,CANOPYMLS,3928645,N,Y,34.937533,-80.9775775
MLS Listing,,Vacant Land,2755 Adage Rd,Lancaster,SC,29720,950000,,,Lancaster,,919116,,7,,,Active,,,https://www.redfin.com/SC/Lancaster/2755-Adage-Rd-29720/home/52168384,CANOPYMLS,3928455,N,Y,34.7852498,-80.7996037
MLS Listing,,Townhouse,8212 Waxhaw Hwy #35,Waxhaw,NC,28173,315000,2,2.0,Waxhaw,1698,,2020,7,186,135,Active,,,https://www.redfin.com/NC/Waxhaw/8212-Waxhaw-Hwy-28173/unit-35/home/183302335,CANOPYMLS,3928167,N,Y,34.9244297,-80.7322747
MLS Listing,,Single Family Residential,6823 Wolf Pond Rd,Monroe,NC,28112,375000,3,2.0,Monroe,1758,118047,1992,7,213,,Active,,,https://www.redfin.com/NC/Monroe/6823-Wolf-Pond-Rd-28112/home/43783490,CANOPYMLS,3927355,N,Y,34.8391435,-80.5310134
MLS Listing,,Townhouse,5069 Gribble Ln,Lancaster,SC,29720,380000,4,2.5,Walnut Creek,2381,,2018,7,160,219,Active,December-17-2022 12:00 PM,December-17-2022 02:00 PM,https://www.redfin.com/SC/Lancaster/5069-Gribble-Ln-29720/home/144692907,CANOPYMLS,3928566,N,Y,34.9203498,-80.8030641
MLS Listing,,Single Family Residential,237 Pinewood Ln,Rock Hill,SC,29730,625000,4,3.0,Country Club Estates,2544,41382,1965,8,246,4,Active,,,https://www.redfin.com/SC/Rock-Hill/237-Pinewood-Ln-29730/home/52112664,CANOPYMLS,3926761,N,Y,34.8900167,-81.0338659
MLS Listing,,Ranch,144 Dover Rd,Spartanburg,SC,29301,219900,3,2.0,Vanderbilt Hill,1999,19166,1963,8,110,,Active,,,https://www.redfin.com/SC/Spartanburg/144-Dover-Rd-29301/home/110373583,SPMLS,296220,N,Y,34.9419775,-81.9699521
MLS Listing,,Single Family Residential,3095 Dindle Dr,Lancaster,SC,29720,424900,3,2.0,Walnut Creek,1823,7797,2019,8,233,50,Active,,,https://www.redfin.com/SC/Lancaster/3095-Dindle-Dr-29720/home/145018547,CANOPYMLS,3928316,N,Y,34.9251206,-80.8023286
MLS Listing,,Single Family Residential,4083 Murray St,Indian Land,SC,29707,435000,3,2.0,Sun City Carolina Lakes,1515,6534,2009,8,287,294,Active,,,https://www.redfin.com/SC/Indian-Land/4083-Murray-St-29707/home/52180901,CANOPYMLS,3927850,N,Y,34.9183396,-80.8441578
MLS Listing,,Single Family Residential,261 Cedar Springs Rd,Spartanburg,SC,29302,219979,3,2.0,,1200,17424,,8,183,,Active,,,https://www.redfin.com/SC/Spartanburg/261-Cedar-Springs-Rd-29302/home/110820198,Greater Greenville MLS,1487973,N,Y,34.9165418,-81.885301
MLS Listing,,Single Family Residential,23190 Goose Down Ln,Lancaster,SC,29720,319900,3,2.5,Edgewater,1744,4356,2021,8,183,153,Active,,,https://www.redfin.com/SC/Lancaster/23190-Goose-Down-Ln-29720/home/52178422,CANOPYMLS,3928505,N,Y,34.6336958,-80.8793765
MLS Listing,,Vacant Land,172 Bernice Dr,Moore,SC,29369,35000,,,Spartanburg,,,,8,,,Active,,,https://www.redfin.com/SC/Moore/172-Bernice-Dr-29369/home/110554199,SPMLS,296209,N,Y,34.8938003,-81.9904236
MLS Listing,,Single Family Residential,6075 Haddington Dr Lot 20,Roebuck,SC,29376,479900,5,4.0,Roebuck,3200,,2023,8,150,29,Active,,,https://www.redfin.com/SC/Roebuck/6075-Haddington-Dr-29376/unit-20/home/183294771,Greater Greenville MLS,1487955,N,Y,34.8949177,-81.965479
MLS Listing,,Single Family Residential,11795 Bush River Rd,Kinards,SC,29355,699900,5,2.5,,4200,392040,,8,167,,Active,,,https://www.redfin.com/SC/Kinards/11795-Bush-River-Rd-29355/home/85947277,Greater Greenville MLS,1487949,N,Y,34.3480087,-81.7929912
MLS Listing,,Single Family Residential,1431 Sturgis Rd,Rock Hill,SC,29730,350000,3,1.5,Rock Hill,1250,66211,1958,8,280,,Active,,,https://www.redfin.com/SC/Rock-Hill/1431-Sturgis-Rd-29730/home/52127674,CANOPYMLS,3927899,N,Y,34.9291035,-80.9566466
MLS Listing,,Single Family Residential,2110 Pomerol Dr,Moore,SC,29369,292900,4,2.5,Bordeaux,2200,7840,2017,8,133,29,Active,,,https://www.redfin.com/SC/Moore/2110-Pomerol-Dr-29369/home/112981001,Greater Greenville MLS,1487933,N,Y,34.896572,-81.9668415
MLS Listing,,Single Family Residential,5817 Soft Shell Dr #299,Lancaster,SC,29720,419999,4,2.5,Walnut Creek,2201,7361,2023,8,191,50,Active,,,https://www.redfin.com/SC/Lancaster/5817-Soft-Shell-Dr-29720/unit-299/home/183293858,CANOPYMLS,3928461,N,Y,34.933841,-80.783516
MLS Listing,,Single Family Residential,902 Constantine Rd,Richburg,SC,29729,279900,3,2.5,Knightsbridge,1800,5227,2022,8,156,25,Active,,,https://www.redfin.com/SC/Unknown/902-Constantine-Rd-29729/home/183293618,CANOPYMLS,3928450,N,Y,34.747248,-81.024996
MLS Listing,,Single Family Residential,1883 Corwin Dr,Rock Hill,SC,29732,200000,3,1.0,Rock Hill,970,10018,1962,8,206,,Active,,,https://www.redfin.com/SC/Rock-Hill/1883-Corwin-Dr-29732/home/52099630,CANOPYMLS,3928059,N,Y,34.928916,-81.092461
MLS Listing,,Single Family Residential,212 Metcalf Ct,Spartanburg,SC,29306,283900,3,2.0,Spartanburg,1600,23958,,8,177,17,Active,,,https://www.redfin.com/SC/Spartanburg/212-Metcalf-Ct-29306/home/110794282,Greater Greenville MLS,1487893,N,Y,34.8747947,-81.9406306
MLS Listing,,Single Family Residential,386 Adams Lake Rd,Union,SC,29379,815000,3,1.0,Other (See Remarks),2200,4138200,1986,9,370,,Active,,,https://www.redfin.com/SC/Union/386-Adams-Lake-Rd-29379/home/85903737,Greater Greenville MLS,1487885,N,Y,34.7905317,-81.5176254
MLS Listing,,Single Family Residential,13 Maple St,Great Falls,SC,29055,145000,2,1.0,Great Falls,1115,10890,1930,9,130,,Active,,,https://www.redfin.com/SC/Great-Falls/13-Maple-St-29055/home/52185980,CANOPYMLS,3927001,N,Y,34.5681417,-80.9003032
MLS Listing,,Single Family Residential,2095 Waverly Ct,Lancaster,SC,29720,495000,4,3.0,Walnut Creek,2762,6534,2018,9,179,45,Active,,,https://www.redfin.com/SC/Lancaster/2095-Waverly-Ct-29720/home/144692857,CANOPYMLS,3830816,N,Y,34.9191799,-80.8008969
MLS Listing,,Single Family Residential,1045 Susan Cir,Rock Hill,SC,29730,350500,3,3.0,Oak Park,1814,56628,1959,9,193,,Active,,,https://www.redfin.com/SC/Rock-Hill/1045-Susan-Cir-29730/home/52099515,CANOPYMLS,3928276,N,Y,34.9212078,-81.0759615
MLS Listing,,Single Family Residential,1007 Delridge St,Waxhaw,NC,28173,530000,3,2.5,Millbridge,2308,7405,2017,9,230,75,Active,December-17-2022 12:00 PM,December-17-2022 03:00 PM,https://www.redfin.com/NC/Waxhaw/1007-Delridge-St-28173/home/112965205,CANOPYMLS,3927709,N,Y,34.9318005,-80.7661051
MLS Listing,,Single Family Residential,2048 Standing Timber Rd,Lancaster,SC,29720,475000,4,3.0,Timber Creek,3126,87120,2007,9,152,15,Active,,,https://www.redfin.com/SC/Lancaster/2048-Standing-Timber-Rd-29720/home/52152792,CANOPYMLS,3927870,N,Y,34.773765,-80.7754179
MLS Listing,,Single Family Residential,9201 Mini Ranch Rd,Waxhaw,NC,28173,435000,3,2.0,Waxhaw,1795,236095,1992,9,242,,Active,December-18-2022 11:00 AM,December-18-2022 01:00 PM,https://www.redfin.com/NC/Waxhaw/9201-Mini-Ranch-Rd-28173/home/43782200,CANOPYMLS,3928291,N,Y,34.8337628,-80.774815
MLS Listing,,Vacant Land,2720 Old Course Rd,Monroe,NC,28112,85000,,,Stonebridge,,26136,,9,,61,Active,,,https://www.redfin.com/NC/Monroe/2720-Old-Course-Rd-28112/home/43850586,CANOPYMLS,3928329,N,Y,34.9386,-80.625517
MLS Listing,,Vacant Land,3516 Out Of Bounds Dr,Monroe,NC,28112,115000,,,Stonebridge,,20037,,9,,61,Active,,,https://www.redfin.com/NC/Monroe/3516-Out-of-Bounds-Dr-28112/home/43850582,CANOPYMLS,3928326,N,Y,34.939594,-80.628151
MLS Listing,,Single Family Residential,2719 Deloache Ave,Newberry,SC,29106,79000,3,1.0,,1200,9147,,9,66,,Active,,,https://www.redfin.com/SC/Newberry/2719-Deloache-Ave-29108/home/85939572,Greater Greenville MLS,1487856,N,Y,34.2814134,-81.5959904
MLS Listing,,Single Family Residential,250 Limestone St,Pacolet,SC,29372,127500,3,1.0,Other (See Remarks),1200,14374,1915,9,106,,Active,,,https://www.redfin.com/SC/Pacolet/250-Limestone-St-29372/home/110368147,Greater Greenville MLS,1487850,N,Y,34.9245527,-81.7411614
MLS Listing,,Single Family Residential,1113 Yearling Way,Roebuck,SC,29376,302890,4,2.5,Roebuck,2000,6098,2022,9,151,40,Active,,,https://www.redfin.com/SC/Roebuck/1113-Yearling-WAY-29376/home/183260915,Greater Greenville MLS,1487824,N,Y,34.9008601048432,-81.9660117381287
MLS Listing,,Single Family Residential,961 Bunker Trce,Rock Hill,SC,29730,330000,3,2.5,Roddey Park,1690,4791,2019,9,195,32,Active,,,https://www.redfin.com/SC/Rock-Hill/961-Bunker-Trce-29730/home/167938760,CANOPYMLS,3926695,N,Y,34.899946,-81.043105
MLS Listing,,Single Family Residential,120 Colleton Ln,Clinton,SC,29325,215000,3,2.0,Clinton,1200,,2022,9,179,,Active,,,https://www.redfin.com/SC/Clinton/120-Colleton-Ln-29325/home/164927464,Greater Greenville MLS,1487768,N,Y,34.467192,-81.903889
MLS Listing,,Single Family Residential,276 Caulder Cir,Spartanburg,SC,29306,137500,2,1.0,,700,7840,1957,9,196,,Active,,,https://www.redfin.com/SC/Spartanburg/276-Caulder-Cir-29306/home/79460202,Greater Greenville MLS,1487759,N,Y,34.9328491,-81.9240041
MLS Listing,,Single Family Residential,4408 Griffith Rd,Monroe,NC,28112,263000,3,1.0,Monroe,1131,43734,1964,9,233,,Active,,,https://www.redfin.com/NC/Monroe/4408-Griffith-Rd-28112/home/43781446,CANOPYMLS,3927564,N,Y,34.906371,-80.5812196
MLS Listing,,Single Family Residential,540 Caulder Ave,Spartanburg,SC,29306,69000,3,1.0,Spartanburg,898,12632,,10,77,,Active,,,https://www.redfin.com/SC/Spartanburg/540-Caulder-Ave-29306/home/183229145,SPMLS,296171,N,Y,34.9308332,-81.9161172
MLS Listing,,Single Family Residential,808 Constantine Rd,Richburg,SC,29729,294900,4,2.5,Knightsbridge,2201,5227,2022,10,134,25,Active,,,https://www.redfin.com/SC/Unknown/808-Constantine-Rd-29729/home/183225029,CANOPYMLS,3927992,N,Y,34.747357,-81.026432
MLS Listing,,Single Family Residential,815 Constantine Rd,Richburg,SC,29729,294900,4,2.5,Knightsbridge,2201,5227,2022,10,134,25,Active,,,https://www.redfin.com/SC/Unknown/815-Daniel-Ln-29729/home/183224962,CANOPYMLS,3927990,N,Y,34.746846,-81.026099
MLS Listing,,Single Family Residential,713 Daniel Ln,Richburg,SC,29729,294900,4,2.5,Knightsbridge,2201,5227,2022,10,134,25,Active,,,https://www.redfin.com/SC/Unknown/713-Daniel-Ln-29729/home/183224929,CANOPYMLS,3927984,N,Y,34.747401,-81.026786
MLS Listing,,Single Family Residential,707 Daniel Ln,Richburg,SC,29729,294900,4,2.5,Knightsbridge,2201,5227,2022,10,134,25,Active,,,https://www.redfin.com/SC/Unknown/707-Daniel-Ln-29729/home/183224879,CANOPYMLS,3927982,N,Y,34.747848,-81.027078
MLS Listing,,Single Family Residential,1404 Kings Cir,Lancaster,SC,29720,220000,3,2.0,Lancaster,1431,48351,1947,10,154,,Active,,,https://www.redfin.com/SC/Lancaster/1404-Kings-Cir-29720/home/52156092,CANOPYMLS,3927559,N,Y,34.7042577,-80.7779217
MLS Listing,,Single Family Residential,723 Daniel Ln,Richburg,SC,29729,271900,3,2.5,Knightsbridge,1679,5227,2022,10,162,25,Active,,,https://www.redfin.com/SC/Unknown/723-Daniel-Ln-29729/home/183224167,CANOPYMLS,3927948,N,Y,34.746845,-81.027088
MLS Listing,,Single Family Residential,807 Constantine Rd,Richburg,SC,29729,269900,3,2.5,Knightsbridge,1679,5227,2022,10,161,25,Active,,,https://www.redfin.com/SC/Unknown/807-Daniel-Ln-29729/home/183224120,CANOPYMLS,3927945,N,Y,34.747356,-81.02579
MLS Listing,,Single Family Residential,339 Bellingrath Blvd,Rock Hill,SC,29730,379000,3,2.5,Roddey Park,2367,5227,2018,10,160,32,Active,,,https://www.redfin.com/SC/Rock-Hill/339-Bellingrath-Blvd-29730/home/144514951,CANOPYMLS,3927756,N,Y,34.8993365,-81.0465919
MLS Listing,,Ranch,209 Cemetery Cir,Moore / Roebuck,SC,29369-9690,249900,3,2.0,Moore,1694,33105,,10,148,,Active,December-17-2022 12:00 PM,December-17-2022 03:00 PM,https://www.redfin.com/SC/Moore/209-State-Road-S-42-1915-29369/home/182901826,SPMLS,296160,N,Y,34.8841506,-81.9790701
MLS Listing,,Vacant Land,401 Johnson Rd,Roebuck,SC,29376-0000,45000,,1.0,Roebuck,,,,10,,,Active,,,https://www.redfin.com/SC/Roebuck/401-Johnson-Rd-29376/home/110558284,SPMLS,296156,N,Y,34.790721,-81.93165
MLS Listing,,Single Family Residential,1030 Jones Rd,Kershaw,SC,29067,250000,3,2.0,Kershaw,1817,65775,1979,10,138,,Active,,,https://www.redfin.com/SC/Kershaw/1030-Jones-Rd-29067/home/86761660,CANOPYMLS,3926087,N,Y,34.555183,-80.499733
MLS Listing,,Vacant Land,7875 Gulf Creek Rd,Lancaster,SC,29720,165900,,,Riverchase Estates,,69696,,10,,108,Active,,,https://www.redfin.com/SC/Unknown/7875-Gulf-Creek-Rd-29720/home/183221711,CANOPYMLS,3927893,N,Y,34.813801,-80.88513
MLS Listing,,Vacant Land,7941 Gulf Creek Rd,Lancaster,SC,29720,185900,,,Riverchase Estates,,81457,,10,,108,Active,,,https://www.redfin.com/SC/Unknown/7941-Gulf-Creek-Rd-29720/home/183220460,CANOPYMLS,3927889,N,Y,34.811898,-80.885516
MLS Listing,,Vacant Land,8063 Gulf Creek Rd,Lancaster,SC,29720,175900,,,Riverchase Estates,,71002,,10,,108,Active,,,https://www.redfin.com/SC/Unknown/8063-Gulf-Creek-Rd-29720/home/183217751,CANOPYMLS,3927882,N,Y,34.810136,-80.886331
MLS Listing,,Vacant Land,3954 Ostler Ct #14,Lancaster,SC,29720,399900,,,Riverchase Estates,,64468,,10,,108,Active,,,https://www.redfin.com/SC/Lancaster/3954-Ostler-CT-29720/unit-14/home/183216968,CANOPYMLS,3927877,N,Y,34.811404,-80.889421
MLS Listing,,Vacant Land,7918 Gulf Creek Rd,Lancaster,SC,29720,265900,,,Riverchase Estates,,142876,,10,,108,Active,,,https://www.redfin.com/SC/Unknown/7918-Gulf-Creek-Rd-29720/home/183216757,CANOPYMLS,3927854,N,Y,34.811404,-80.889421
MLS Listing,,Vacant Land,8656 Rainier Ct #42,Lancaster,SC,29720,115900,,,Riverchase Estates,,44866,,10,,108,Active,,,https://www.redfin.com/SC/Lancaster/8656-Rainier-CT-29720/unit-42/home/183216301,CANOPYMLS,3927846,N,Y,34.811404,-80.889421
MLS Listing,,Vacant Land,8111 Gulf Creek Rd,Lancaster,SC,29720,99900,,,Riverchase Estates,,36154,,10,,108,Active,,,https://www.redfin.com/SC/Unknown/8111-Gulf-Creek-Rd-29720/home/183215228,CANOPYMLS,3927839,N,Y,34.810699,-80.882769
MLS Listing,,Vacant Land,0000 Steel Hill Rd,Lancaster,SC,29720,350000,,,Lancaster,,261795,,10,,,Active,,,https://www.redfin.com/SC/LANCASTER/STEEL-HILL-RD-29720/home/52155692,CANOPYMLS,3927495,N,Y,34.855896,-80.849397
MLS Listing,,Vacant Land,8121 Gulf Creek Rd,Lancaster,SC,29720,89900,,,Riverchase Estates,,38332,,10,,108,Active,,,https://www.redfin.com/SC/Unknown/8121-Gulf-Creek-Rd-29720/home/183214274,CANOPYMLS,3927830,N,Y,34.805695,-80.883434
MLS Listing,,Single Family Residential,658 Rock Hill Hwy,Lancaster,SC,29720,399000,3,2.0,Lancaster,1204,43560,1999,10,331,,Active,,,https://www.redfin.com/SC/Lancaster/658-Rock-Hill-Hwy-29720/home/52165084,CANOPYMLS,3926785,N,Y,34.8383806,-80.8290207
MLS Listing,,Single Family Residential,114 Wendover Ct,Spartanburg,SC,29302,1195000,5,4.5,Andrews Farm,4200,15245,2003,10,285,,Active,,,https://www.redfin.com/SC/Spartanburg/114-Wendover-Ct-29302/home/110480424,Greater Greenville MLS,1487682,N,Y,34.9443323,-81.8918701
MLS Listing,,Single Family Residential,6918 Landsford Rd,Marshville,NC,28103,200000,3,2.0,Marshville,1512,230432,2006,10,132,,Active,,,https://www.redfin.com/NC/Marshville/6918-Landsford-Rd-28103/home/43842815,CANOPYMLS,3927753,N,Y,34.8450173,-80.4111234
MLS Listing,,Single Family Residential,1634 Wakefield Way,Rock Hill,SC,29730,470000,3,2.0,Seven Oaks,1980,10890,2005,11,237,63,Active,,,https://www.redfin.com/SC/Rock-Hill/1634-Wakefield-Way-29730/home/52065569,CANOPYMLS,3927589,N,Y,34.9304845,-80.9803081
MLS Listing,,Single Family Residential,116 Highland Dr,Union,SC,29379,185000,3,2.0,Union County,1723,,1970,11,107,,Active,,,https://www.redfin.com/SC/Union/116-Highland-Dr-29379/home/85910183,SPMLS,296141,N,Y,34.7089149,-81.6265628
MLS Listing,,Vacant Land,325 Gwinn Mill Rd,Pauline,SC,29376,120000,,3.0,Pauline,,116305,,11,,,Active,,,https://www.redfin.com/SC/Pauline/325-Gwinn-Mill-Rd-29374/home/110364612,SPMLS,296121,N,Y,34.767989,-81.886352
MLS Listing,,Vacant Land,Blackstock Rd,Pauline,SC,29374,274900,,6.0,Pauline,,1314640,,12,,,Active,,,https://www.redfin.com/SC/PAULINE/BLACKSTOCK-RD-29374/home/110804657,SPMLS,296118,N,Y,34.772181,-81.875589
MLS Listing,,Single Family Residential,1966 Great Falls Rd,Blackstock,SC,29014,330000,3,2.0,Blackstock,1283,76230,2006,12,257,,Active,,,https://www.redfin.com/SC/Blackstock/1966-Great-Falls-Hwy-29014/home/52199676,CANOPYMLS,3925541,N,Y,34.6275112,-81.1265671
MLS Listing,,Vacant Land,436 Whitestone Glendale Rd,Spartanburg,SC,29302,70000,,3.0,Spartanburg,,141570,,12,,,Active,,,https://www.redfin.com/SC/Spartanburg/436-Whitestone-Glendale-Rd-29302/home/110703116,SPMLS,296115,N,Y,34.9221639,-81.834753
MLS Listing,,Single Family Residential,881 Wateree Estates Rd,Winnsboro,SC,29180,185900,2,2.0,Winnsboro,984,50529,2005,12,189,,Active,,,https://www.redfin.com/SC/Winnsboro/881-State-Rd-S-20-317-29180/home/86729143,CANOPYMLS,3927367,N,Y,34.425896,-80.8833287
MLS Listing,,Single Family Residential,1025 Meadow Dr E,Lancaster,SC,29720,262000,4,2.0,Forest Hills,1580,16552,1967,12,166,,Active,,,https://www.redfin.com/SC/Lancaster/1025-W-Meadow-Dr-29720/home/52154346,CANOPYMLS,3926147,N,Y,34.7210686,-80.795189
MLS Listing,,Single Family Residential,931 Spring St,Rock Hill,SC,29730,269850,3,2.0,Rock Hill,1088,8712,2022,12,248,,Active,,,https://www.redfin.com/SC/Rock-Hill/931-Spring-St-29730/home/164860705,CANOPYMLS,3927311,N,Y,34.9266203,-81.0067864
MLS Listing,,Single Family Residential,140 Poole Rd,Clinton,SC,29325,265000,4,2.0,,1600,871200,,12,166,,Active,,,https://www.redfin.com/SC/Clinton/140-Poole-Rd-29325/home/87118673,Greater Greenville MLS,1487580,N,Y,34.5196509,-81.89701
MLS Listing,,Ranch,6271 S Pine St,Pacolet,SC,29372,249900,3,1.5,Pacolet,1900,,1957,12,132,,Active,,,https://www.redfin.com/SC/Pacolet/6271-S-Pine-St-29372/home/110548014,SPMLS,296088,N,Y,34.9027867,-81.7791507
MLS Listing,,Vacant Land,185 Hall Rd,Gaffney,SC,29340,250000,,5.0,Gaffney,,,,12,,,Active,,,https://www.redfin.com/SC/Gaffney/185-Hall-Rd-29340/home/121497940,SPMLS,296086,N,Y,34.941256,-81.5570259
MLS Listing,,Ranch,314 Charlesworth Ave,Spartanburg,SC,29306,165000,3,1.0,Spartanburg,1200,,1956,12,138,,Active,,,https://www.redfin.com/SC/Spartanburg/314-Charlesworth-Ave-29306/home/110644053,SPMLS,296084,N,Y,34.9250766,-81.9519259
MLS Listing,,Single Family Residential,1022 Bellview Church Rd,Laurens,SC,29360,114900,3,1.0,,1000,185130,,13,115,,Active,,,https://www.redfin.com/SC/Laurens/1022-Bellview-Church-Rd-29360/home/87098902,Greater Greenville MLS,1487552,N,Y,34.5198621,-81.9410569
MLS Listing,,Vacant Land,00 Bellview Church Rd,Laurens,SC,29360,50000,,,,,117612,,13,,,Active,,,https://www.redfin.com/SC/Unknown/Bellview-Church-Rd-29360/home/181418711,Greater Greenville MLS,1487551,N,Y,34.5193791264319,-81.9412272109985
MLS Listing,,Mobile/Manufactured Home,217 Toal Rd,Enoree,SC,29335,55000,3,2.0,Enoree,1568,23522,,13,35,,Active,,,https://www.redfin.com/SC/Enoree/217-State-Rd-S-42-54-29335/home/79475433,SPMLS,296077,N,Y,34.7097586,-81.8197249
MLS Listing,,Vacant Land,101 Crosby St,Chester,SC,29706,16500,,,Chester,,10018,,14,,,Active,,,https://www.redfin.com/SC/Chester/101-Crosby-St-29706/home/52192633,CANOPYMLS,3927031,N,Y,34.7124435,-81.2009284
MLS Listing,,Single Family Residential,965 Pine Ridge Rd,Chester,SC,29706,183000,3,1.0,Chester,1122,70131,1959,14,163,,Active,,,https://www.redfin.com/SC/Chester/965-Pine-Ridge-Rd-29706/home/52190694,CANOPYMLS,3922181,N,Y,34.7108958,-81.2471723
MLS Listing,,Single Family Residential,201 Carlisle Ct,Winnsboro,SC,29180,209000,3,2.5,,1926,46173,1972,14,109,,Active,,,https://www.redfin.com/SC/Winnsboro/201-Carlisle-Ct-29180/home/86724627,Charleston Trident MLS,22029988,N,Y,34.3785641,-81.0772551
MLS Listing,,Single Family Residential,231 Morgan St,Rock Hill,SC,29730,138400,2,1.0,Rock Hill,1161,26571,1922,14,119,,Active,,,https://www.redfin.com/SC/Rock-Hill/231-Morgan-St-29730/home/52109386,CANOPYMLS,3926667,N,Y,34.928079,-81.0451684
MLS Listing,,Single Family Residential,211 Baker St,Rock Hill,SC,29730,279900,3,2.0,Sunset Park,1328,7405,2022,14,211,,Active,,,https://www.redfin.com/SC/Rock-Hill/211-Baker-St-29730/home/164856490,CANOPYMLS,3925725,N,Y,34.9214607,-81.0446529
MLS Listing,,Single Family Residential,746 Jefferson Ave,Rock Hill,SC,29730,274900,3,2.0,Woodland Park,1328,10018,2022,14,207,,Active,,,https://www.redfin.com/SC/Rock-Hill/746-Jefferson-Ave-29730/home/164936720,CANOPYMLS,3925739,N,Y,34.9164845,-81.0295514
MLS Listing,,Single Family Residential,1130 Confederate Ave,Lancaster,SC,29720,259900,4,2.0,Erwin Farm,1431,20908,2023,14,182,,Active,,,https://www.redfin.com/SC/Lancaster/1130-Confederate-Ave-29720/home/52142486,CANOPYMLS,3926982,N,Y,34.6927462,-80.8157297
MLS Listing,,Single Family Residential,101 Brandon St,Union,SC,29379,153900,5,2.0,,1800,20908,,14,86,,Active,,,https://www.redfin.com/SC/Union/101-Brandon-St-29379/home/85904738,Greater Greenville MLS,1487508,N,Y,34.7231168,-81.6111497
MLS Listing,,Single Family Residential,2545 N Rocky River Rd,Lancaster,SC,29720,1750000,4,2.5,Lancaster,4657,2744280,2011,15,376,,Active,,,https://www.redfin.com/SC/Lancaster/2545-N-Rocky-River-Rd-29720/home/52145432,CANOPYMLS,3919152,N,Y,34.7802756,-80.633204
MLS Listing,,Single Family Residential,696 Forest Rd,Rock Hill,SC,29730,265900,3,2.0,Hillside Acres,1127,20037,1990,15,236,,Active,,,https://www.redfin.com/SC/Rock-Hill/696-Forest-Rd-29730/home/52112142,CANOPYMLS,3926451,N,Y,34.8807865,-81.0535795
MLS Listing,,Single Family Residential,2520 Morningside Dr,Lancaster,SC,29720,299000,3,2.0,Country Club Heights,1573,42688,1969,15,190,,Active,December-17-2022 12:00 PM,December-17-2022 03:00 PM,https://www.redfin.com/SC/Lancaster/2520-Morningside-Dr-29720/home/52161842,CANOPYMLS,3926954,N,Y,34.6618299,-80.7761365
MLS Listing,,Single Family Residential,329 Woodley Rd,Spartanburg,SC,29306,285777,3,2.0,Other (See Remarks),1400,,2022,15,204,,Active,,,https://www.redfin.com/SC/Spartanburg/329-Woodley-Rd-29306/home/183152856,Greater Greenville MLS,1487498,N,Y,34.9086313,-81.9421246
MLS Listing,,Single Family Residential,100 Meadowinds Dr,Spartanburg,SC,29306,294900,3,2.0,Meadowind Farms,1600,13503,2021,15,184,12,Active,,,https://www.redfin.com/SC/Spartanburg/100-Meadowinds-Dr-29306/home/110482185,Greater Greenville MLS,1487480,N,Y,34.9062357,-81.9042179
MLS Listing,,Single Family Residential,640 Preston Brooks Dr,Catawba,SC,29704,190000,2,2.0,Richmond Acres,1488,49658,2001,15,128,,Active,,,https://www.redfin.com/SC/Catawba/640-Preston-Brooks-Dr-29704/home/52193127,CANOPYMLS,3926530,N,Y,34.8195866,-80.9487434
MLS Listing,,Single Family Residential,1205 Maddy Ln,Rock Hill,SC,29732,450000,4,3.0,Stoneridge Lakes,2535,14810,2016,15,178,21,Active,,,https://www.redfin.com/SC/Rock-Hill/1205-Maddy-Ln-29732/home/144818232,CANOPYMLS,3926268,N,Y,34.9432075,-81.1174097
MLS Listing,,Single Family Residential,421 Lakeside Dr,Rock Hill,SC,29730,636000,4,4.0,Country Club Estates,4095,83635,1960,15,155,,Active,,,https://www.redfin.com/SC/Rock-Hill/421-Lakeside-Dr-29730/home/52112631,CANOPYMLS,3926768,N,Y,34.8834818,-81.0356779
MLS Listing,,Single Family Residential,128 Convair Dr,Spartanburg,SC,29301-2812,275000,3,2.0,Woodland Heights,1600,43560,1968,15,172,,Active,,,https://www.redfin.com/SC/Spartanburg/128-Convair-Dr-29301/home/110493536,Greater Greenville MLS,1487424,N,Y,34.9310274,-81.9706765
MLS Listing,,Single Family Residential,1338 Westwood Rd,Lancaster,SC,29720,270000,3,2.0,Lancaster,1830,13068,1968,15,148,,Active,,,https://www.redfin.com/SC/Lancaster/1338-Westwood-Rd-29720/home/52155446,CANOPYMLS,3924068,N,Y,34.711038,-80.8012468
MLS Listing,,Single Family Residential,523 Olivia Springs Dr,Spartanburg,SC,29302,305000,3,2.0,Spartanburg,1400,6534,2020,15,218,115,Active,,,https://www.redfin.com/SC/Spartanburg/523-Olivia-Springs-Dr-29302/home/174550948,Greater Greenville MLS,1487422,N,Y,34.9142294,-81.8870925
MLS Listing,,Single Family Residential,112 Madora Dr,Spartanburg,SC,29306,249800,3,2.0,,1800,26571,,15,139,,Active,,,https://www.redfin.com/SC/Spartanburg/112-Madora-Dr-29306/home/110540504,Greater Greenville MLS,1487402,N,Y,34.9159773,-81.9467047
MLS Listing,,Single Family Residential,2310 Old Hills Bridge Rd,Enoree,SC,29335-2315,339000,3,2.0,Other (See Remarks),1600,185130,1995,15,212,,Active,,,https://www.redfin.com/SC/Enoree/2310-Old-Hills-Bridge-Rd-29335/home/110378765,Greater Greenville MLS,1487400,N,Y,34.7294347,-81.8925313
MLS Listing,,Single Family Residential,4020 Watermark Rd,Kershaw,SC,29067,139995,3,2.0,Kershaw,1331,130680,1986,16,105,,Active,,,https://www.redfin.com/SC/Kershaw/4020-Watermark-Rd-29067/home/52147543,CANOPYMLS,3926509,N,Y,34.615011,-80.4655378
MLS Listing,,Single Family Residential,6512 Plyler Mill Rd,Monroe,NC,28112,245000,2,1.0,*,1148,43995,1953,16,213,,Active,December-18-2022 01:00 AM,December-18-2022 03:00 PM,https://www.redfin.com/NC/Monroe/6512-Plyler-Mill-Rd-28112/home/43779572,CANOPYMLS,3926171,N,Y,34.8415979,-80.5883416
MLS Listing,,Single Family Residential,1800 Bardell St,Lancaster,SC,29720,279000,3,2.0,Lancaster,1420,19166,2000,16,196,,Active,,,https://www.redfin.com/SC/Lancaster/1800-Bardell-St-29720/home/52151770,CANOPYMLS,3926112,N,Y,34.6846737,-80.7698202
MLS Listing,,Vacant Land,0 Henry Harris Rd,Indian Land,SC,29707,200000,,,Indian Land,,99316,,16,,,Active,,,https://www.redfin.com/SC/INDIAN-LAND/HENRY-HARRIS-RD-29720/home/52145619,CANOPYMLS,3926600,N,Y,34.93983,-80.811196
MLS Listing,,Single Family Residential,118 A Floyd Grant St,Chester,SC,29731,115000,2,1.0,Chester,550,3920,1970,16,209,,Active,,,https://www.redfin.com/SC/Rock-Hill/118-A-Floyd-Grant-ST-29731/home/180705030,CANOPYMLS,3926499,N,Y,34.706788,-81.219764
MLS Listing,,Mobile/Manufactured Home,284 Nash Rd,Moore,SC,29369,224777,3,2.0,Moore,2230,128937,1986,16,101,,Active,,,https://www.redfin.com/SC/Moore/284-Nash-Rd-29369/home/79475752,SPMLS,296023,N,Y,34.8888458,-81.9918077
MLS Listing,,Single Family Residential,5670 Soft Shell Dr #471,Lancaster,SC,29720,489999,4,2.5,Walnut Creek,2753,6490,2023,16,178,50,Active,,,https://www.redfin.com/SC/Lancaster/5670-Soft-Shell-Dr-29720/unit-471/home/183120174,CANOPYMLS,3926608,N,Y,34.932584,-80.785901
MLS Listing,,Mobile/Manufactured Home,140 Prayer Ranch Rd,Enoree,SC,29335,369000,3,2.0,,1600,497890,,16,231,,Active,,,https://www.redfin.com/SC/Enoree/140-Prayer-Rnch-Rd-29335/home/174545284,Greater Greenville MLS,1487361,N,Y,34.6591807,-81.8841037
MLS Listing,,Single Family Residential,352 Whitner St,Rock Hill,SC,29730,235000,2,2.0,Rock Hill,1084,6098,1920,16,217,,Active,,,https://www.redfin.com/SC/Rock-Hill/352-Whitner-St-29730/home/52110413,CANOPYMLS,3925566,N,Y,34.9204018,-81.0309322
MLS Listing,,Townhouse,329 Hancock Union Ln,Rock Hill,SC,29732,225000,2,2.5,Constitution Park,1226,1742,2006,16,184,172,Active,,,https://www.redfin.com/SC/Rock-Hill/329-Hancock-Union-Ln-29732/home/52074687,CANOPYMLS,3925803,N,Y,34.9448444,-81.0463349
MLS Listing,,Single Family Residential,1060 Princeton Dr,Indian Land,SC,29707,750000,5,3.5,The Retreat at Rayfield,3289,10454,2016,17,228,75,Active,,,https://www.redfin.com/SC/Indian-Land/1060-Princeton-Dr-29707/home/113653888,CANOPYMLS,3925935,N,Y,34.9397243,-80.8496066
MLS Listing,,Single Family Residential,1689 Evans Dr Unit C,Lancaster,SC,29720,264900,4,2.0,Lancaster,1390,24393,2022,17,191,,Active,,,https://www.redfin.com/SC/Lancaster/1689-Evans-Dr-29720/unit-C/home/183138699,CANOPYMLS,3926426,N,Y,34.687454,-80.7580087
MLS Listing,,Single Family Residential,103 Ella St,Chester,SC,29706,224999,2,1.0,Chester,1441,13068,1950,17,156,,Active,,,https://www.redfin.com/SC/Chester/103-Ella-St-29706/home/52188764,CANOPYMLS,3925479,N,Y,34.698861,-81.2093015
MLS Listing,,Vacant Land,656 Grand Harbor Blvd,Ninety Six,SC,29666,100000,,,Other (See Remarks),,8712,,17,,,Active,,,https://www.redfin.com/SC/Ninety-Six/656-Grand-Harbor-Blvd-29666/home/124820827,Greater Greenville MLS,1487312,N,Y,34.206572,-81.965914
MLS Listing,,Single Family Residential,614 Blake St,Rock Hill,SC,29730,274900,3,2.0,Rock Hill,1328,17424,2022,17,207,,Active,,,https://www.redfin.com/SC/Rock-Hill/614-Blake-St-29730/home/164908429,CANOPYMLS,3925733,N,Y,34.9046548,-81.0360576
MLS Listing,,Single Family Residential,514 Rich St,Rock Hill,SC,29730,279900,3,2.0,Rock Hill,1328,2613,2022,17,211,,Active,,,https://www.redfin.com/SC/Rock-Hill/514-Rich-St-29730/home/52113622,CANOPYMLS,3925730,N,Y,34.9112752,-81.0281912
MLS Listing,,Mobile/Manufactured Home,1231 Meansville Rd,Union,SC,29379,365000,3,2.0,Union County,1064,1836925,1994,17,343,,Active,,,https://www.redfin.com/SC/Union/1231-Meansville-Rd-29379/home/112028371,SPMLS,295993,N,Y,34.7576513,-81.6724915
MLS Listing,,Vacant Land,115 Otts Shoals Rd,Roebuck,SC,29376,47000,,,Roebuck,,19602,,17,,,Active,,,https://www.redfin.com/SC/Roebuck/115-Otts-Shoals-Rd-29376/home/183064574,SPMLS,295985,N,Y,34.8586177,-81.9451843
MLS Listing,,Single Family Residential,370 N Timm Creek Ave,Roebuck,SC,29376,279900,3,2.0,Other (See Remarks),1600,11761,,17,175,22,Active,,,https://www.redfin.com/SC/Roebuck/370-N-Timm-Creek-Ave-29376/home/142929836,Greater Greenville MLS,1487278,N,Y,34.850076,-81.960809
MLS Listing,,Single Family Residential,234 Daves Rd,York,SC,29745,225000,4,2.0,Pepper Ridge,2240,89733,2002,17,100,,Active,,,https://www.redfin.com/SC/York/234-State-Rd-S-46-167-29745/home/52094460,CANOPYMLS,3926312,N,Y,34.9123005,-81.204265
MLS Listing,,Single Family Residential,1114 & 1116 Radcliff Rd,Chester,SC,29706,375000,2,2.0,Chester,2083,217800,1941,18,180,,Active,,,https://www.redfin.com/SC/Chester/1116-Radcliff-Rd-29706/home/183059188,CANOPYMLS,3926120,N,Y,34.7041122,-81.2748693
MLS Listing,,Single Family Residential,3192 Stone Station Rd,Roebuck,SC,29376,269900,3,2.0,Roebuck,1458,18295,2022,18,185,,Active,,,https://www.redfin.com/SC/Roebuck/3192-Stone-Station-RD-29376/home/181899443,SPMLS,295956,N,Y,34.8795683,-81.9662139
MLS Listing,,Single Family Residential,4515 Payne Rd,Kershaw,SC,29067,349000,3,2.0,Kershaw,1642,65340,2022,18,213,,Active,,,https://www.redfin.com/SC/Kershaw/4515-Payne-Rd-29067/home/183057011,CANOPYMLS,3925811,N,Y,34.6008224,-80.494541
MLS Listing,,Single Family Residential,2850 Old Camden Hwy #572,Lancaster,SC,29720,245000,3,2.0,Lancaster,1379,50529,1963,18,178,,Active,,,https://www.redfin.com/SC/Lancaster/2850-Old-Camden-Hwy-29720/unit-572/home/182781518,CANOPYMLS,3925768,N,Y,34.6618075,-80.7121076
MLS Listing,,Single Family Residential,4055 Oakmere Rd #955,Waxhaw,NC,28173,549999,4,3.5,Millbridge,2791,10759,2016,18,197,75,Active,,,https://www.redfin.com/NC/Waxhaw/4055-Oakmere-Rd-28173/unit-955/home/183055970,CANOPYMLS,3926068,N,Y,34.932513,-80.7650878
MLS Listing,,Single Family Residential,2079 Eastview Rd,Rock Hill,SC,29732,475000,3,2.5,Rock Hill,2207,49658,1966,18,215,,Active,,,https://www.redfin.com/SC/Rock-Hill/2079-Eastview-Rd-29732/home/52098305,CANOPYMLS,3926054,N,Y,34.933159,-81.1059667
MLS Listing,,Vacant Land,159 Polo Ct,Ninety Six,SC,29666,150000,,,Lake Greenwood,,10018,,18,,63,Active,,,https://www.redfin.com/SC/Ninety-Six/159-Polo-Ct-29666/home/124909824,Greater Greenville MLS,1487211,N,Y,34.191997,-81.94118
MLS Listing,,Single Family Residential,1268 Holland Rd,Rock Hill,SC,29732,379900,3,2.5,Rock Hill,2297,172933,1999,18,165,,Active,,,https://www.redfin.com/SC/Rock-Hill/1268-Holland-Rd-29732/home/52068898,CANOPYMLS,3925996,N,Y,34.9347841,-81.1249081
MLS Listing,,Vacant Land,000 Plantation Way,Jonesville,SC,29353,312000,,,Magnolia Plantation,,580219,,18,,,Active,,,https://www.redfin.com/SC/Unknown/Plantation-Way-29353/home/183054645,CANOPYMLS,3925982,N,Y,34.85748,-81.745556
MLS Listing,,Vacant Land,1.5 Acres Holland Rd,Rock Hill,SC,29732,60000,,,Rock Hill,,65340,,18,,,Active,,,https://www.redfin.com/SC/Rock-Hill/1-5-Acres-Holland-Rd-29732/home/183054357,CANOPYMLS,3925987,N,Y,34.934874,-81.123682
MLS Listing,,Vacant Land,1.62 Acres Holland Rd,Rock Hill,SC,29732,80000,,,Rock Hill,,70567,,18,,,Active,,,https://www.redfin.com/SC/Rock-Hill/1-62-Acres-Holland-Rd-29732/home/183054308,CANOPYMLS,3925944,N,Y,34.935516,-81.124015
MLS Listing,,Vacant Land,4337 Persimmon Rd,Lancaster,SC,29720,239999,,,Lancaster,,102801,,18,,106,Active,,,https://www.redfin.com/SC/Lancaster/4337-Persimmon-Rd-29720/home/174667831,CANOPYMLS,3924994,N,Y,34.8102466,-80.8794464
MLS Listing,,Ranch,345 Briarwood Rd,Spartanburg,SC,29301,249900,3,2.0,Spartanburg,1924,,1963,18,130,,Active,,,https://www.redfin.com/SC/Spartanburg/345-Briarwood-Rd-29301/home/110505668,SPMLS,295933,N,Y,34.9367736,-81.9621328
MLS Listing,,Single Family Residential,2288 Avondale Dr,Spartanburg,SC,29302,325000,4,2.0,,2200,26136,1971,19,148,,Active,,,https://www.redfin.com/SC/Spartanburg/2288-Avondale-Dr-29302/home/110399902,Greater Greenville MLS,1487168,N,Y,34.9364337,-81.8860474
MLS Listing,,Single Family Residential,3220 Hayes Ln,Lancaster,SC,29720,674900,4,2.5,Lancaster,3434,429501,2001,19,197,,Active,,,https://www.redfin.com/SC/Lancaster/3220-Hayes-Ln-29720/home/52155127,CANOPYMLS,3925456,N,Y,34.7986249,-80.7375303
MLS Listing,,Single Family Residential,127 Mistybrook Dr,Spartanburg,SC,29302,158000,2,1.5,Spartanburg,1072,,1986,19,147,,Active,,,https://www.redfin.com/SC/Spartanburg/127-Misty-Brook-Dr-29302/home/110365155,SPMLS,295423,N,Y,34.9142054,-81.8768805
MLS Listing,,Single Family Residential,171 Northside Cir,Heath Springs,SC,29058,249000,3,2.0,Heath Springs,1195,20473,2022,19,208,,Active,,,https://www.redfin.com/SC/Heath-Springs/171-Northside-CIR-29058/home/183045504,CANOPYMLS,3925841,N,Y,34.595932,-80.675414
MLS Listing,,Vacant Land,0000 Brunson Rd #1,Fort Lawn,SC,29714,95000,,,Wildlife Bay,,75358,,19,,21,Active,,,https://www.redfin.com/SC/Fort-Lawn/Brunson-Rd-29714/unit-1/home/183044267,CANOPYMLS,3925795,N,Y,34.656856,-80.895498
MLS Listing,,Ranch,199 Collins Ave,Spartanburg,SC,29306,199900,3,2.0,Spartanburg,1560,13068,,19,128,,Active,,,https://www.redfin.com/SC/Spartanburg/199-Collins-Ave-29306/home/110616126,SPMLS,295927,N,Y,34.9314639,-81.9192713
MLS Listing,,Vacant Land,3268 Sherman Dr,Lancaster,SC,29720,88500,,,Riverchase,,38332,,19,,108,Active,,,https://www.redfin.com/SC/Lancaster/3268-Sherman-Dr-29720/home/168673767,CANOPYMLS,3925758,N,Y,34.8169048,-80.8723274
MLS Listing,,Single Family Residential,108 HAROLD St,Union,SC,29379,105000,3,1.0,Union County,1224,,,19,86,,Active,,,https://www.redfin.com/SC/Union/108-Harold-St-29379/home/85905104,SPMLS,295923,N,Y,34.7072631,-81.6268624
MLS Listing,,Vacant Land,0 Flowers Dr,Laurens,SC,29360,65000,,,,,128066,,19,,,Active,,,https://www.redfin.com/SC/Laurens/Flower-Dr-29360/home/182002875,Greater Greenville MLS,1487135,N,Y,34.4794928960741,-81.9835831534646
MLS Listing,,Vacant Land,0 Southport Rd,Spartanburg,SC,29306,99000,,,,,175546,,19,,,Active,,,https://www.redfin.com/SC/Spartanburg/0-Southport-Rd-29306/home/183158268,Greater Greenville MLS,1487134,N,Y,34.9239012,-81.971228
MLS Listing,,Vacant Land,,Union,SC,29379,5000,,,,,10018,,19,,,Active,,,https://www.redfin.com/SC/Union/Undisclosed-address-29379/home/183051487,Greater Greenville MLS,1487132,N,Y,34.7012854,-81.6326428
MLS Listing,,Vacant Land,,Union,SC,29379,5000,,,,,5662,,19,,,Active,,,https://www.redfin.com/SC/Union/Undisclosed-address-29379/home/183038324,Greater Greenville MLS,1487131,N,Y,34.7012854,-81.6326428
MLS Listing,,Vacant Land,,Union,SC,29379,5000,,,,,5662,,19,,,Active,,,https://www.redfin.com/SC/Union/Undisclosed-address-29379/home/183038322,Greater Greenville MLS,1487130,N,Y,34.7012854,-81.6326428
MLS Listing,,Vacant Land,,Union,SC,29379,5000,,,,,5227,,19,,,Active,,,https://www.redfin.com/SC/Union/Undisclosed-address-29379/home/183038287,Greater Greenville MLS,1487129,N,Y,34.7012854,-81.6326428
MLS Listing,,Vacant Land,,Union,SC,29379,5000,,,,,5227,,19,,,Active,,,https://www.redfin.com/SC/Unknown/Undisclosed-address-29379/home/183038247,Greater Greenville MLS,1487128,N,Y,34.7175,-81.6052
MLS Listing,,Vacant Land,,Union,SC,29379,5000,,,,,16117,,19,,,Active,,,https://www.redfin.com/SC/UNION/Undisclosed-address-29379/home/183038205,Greater Greenville MLS,1487127,N,Y,34.703176,-81.626651
MLS Listing,,Single Family Residential,611 Heatherwood Dr,Monroe,NC,28112,560000,3,3.0,Heatherloch,2441,174675,1987,19,229,3,Active,,,https://www.redfin.com/NC/Monroe/611-Heatherwood-Dr-28112/home/43779440,CANOPYMLS,3922834,N,Y,34.9262637,-80.5615743
MLS Listing,,Vacant Land,0 Old Milton Rd,Clinton,SC,29325,23500,,,,,126759,,19,,,Active,,,https://www.redfin.com/SC/Clinton/0-Old-Milton-Rd-29325/home/183036301,Greater Greenville MLS,1487121,N,Y,34.4364901,-81.8944447
MLS Listing,,Single Family Residential,307 & 309 Carnes Aly,Lancaster,SC,29720,154478,4,2.0,Lancaster,1344,11325,1956,19,115,,Active,,,https://www.redfin.com/SC/Lancaster/307-Carnes-Aly-29720/home/183036111,CANOPYMLS,3925653,N,Y,34.7247797,-80.7690919
MLS Listing,,Single Family Residential,5006 Sand Trap Ct #142,Monroe,NC,28112,567700,4,2.5,Stonebridge,3177,7710,2013,20,179,97,Active,,,https://www.redfin.com/NC/Monroe/5006-Sand-Trap-Ct-28112/unit-142/home/52273837,CANOPYMLS,3922747,N,Y,34.9403929,-80.6373525
MLS Listing,,Single Family Residential,123 Mainsail Way,Spartanburg,SC,29302,332130,5,3.0,Spartanburg,2600,7840,2023,20,128,42,Active,,,https://www.redfin.com/SC/Spartanburg/123-Mainsail-WAY-29302/home/181812462,Greater Greenville MLS,1482101,N,Y,34.9040336301437,-81.9056358520508
MLS Listing,,Vacant Land,00 Renno Rd,Kinards,SC,29355,139500,,,,,478288,,21,,,Active,,,https://www.redfin.com/SC/Kinards/00-Renno-RD-29355/home/183026178,Greater Greenville MLS,1487102,N,Y,34.4721597438199,-81.7679206878662
MLS Listing,,Townhouse,1383 Pampas Cir,Rock Hill,SC,29732,199999,3,2.0,Camellia Corners,1058,,2005,21,189,,Active,,,https://www.redfin.com/SC/Rock-Hill/1383-Pampas-Cir-29732/home/52063975,CANOPYMLS,3925123,N,Y,34.9430961,-81.056733
MLS Listing,,Ranch,127 Tanglewood Dr,Union,SC,29379,299000,3,2.0,Tanglewood Acre,2082,43560,,21,144,,Active,,,https://www.redfin.com/SC/Union/127-Tanglewood-Dr-29379/home/85909737,SPMLS,295913,N,Y,34.754942,-81.61389
MLS Listing,,Vacant Land,276 Sunbird Ct #3,York,SC,29745,150000,,,York,,217800,,21,,,Active,,,https://www.redfin.com/SC/York/276-Sunbird-CT-29745/unit-3/home/182279291,CANOPYMLS,3913217,N,Y,34.922986,-81.176103
MLS Listing,,Single Family Residential,3104 Taxahaw Rd,Lancaster,SC,29720,310000,3,2.0,Lancaster,1399,39204,1955,22,222,,Active,,,https://www.redfin.com/SC/Lancaster/3104-Taxahaw-Rd-29720/home/52148622,CANOPYMLS,3923822,N,Y,34.7056368,-80.6732868
MLS Listing,,Single Family Residential,4507 Payne Rd,Kershaw,SC,29067,349000,3,2.0,Kershaw,1674,65340,2022,22,208,,Active,,,https://www.redfin.com/SC/Kershaw/4507-Payne-Rd-29067/home/183022872,CANOPYMLS,3925468,N,Y,34.599972,-80.493753
MLS Listing,,Single Family Residential,991 Bunker Trce,Rock Hill,SC,29730,374900,3,2.5,Roddey Park,2326,4791,2019,22,161,,Active,,,https://www.redfin.com/SC/Rock-Hill/991-Bunker-Trce-29730/home/167938753,CANOPYMLS,3925453,N,Y,34.9005984,-81.0440037
MLS Listing,,Single Family Residential,231 Broadway St,Glendale,SC,29346,95000,3,1.0,Glendale Mill,1512,24829,1903,22,63,,Active,,,https://www.redfin.com/SC/Glendale/231-Broadway-St-29346/home/110547926,SPMLS,295908,N,Y,34.9439859,-81.8372423
MLS Listing,,Single Family Residential,136 Stone Village Ct,Spartanburg,SC,29302,255000,3,2.5,,1600,3049,,22,159,,Active,,,https://www.redfin.com/SC/Spartanburg/136-Stone-Village-Ct-29302/home/110644111,Greater Greenville MLS,1487057,N,Y,34.9302089,-81.873931
MLS Listing,,Ranch,116 Mudbridge Rd,Buffalo,SC,29321,165000,3,1.0,Union County,1008,39204,1994,22,164,,Active,,,https://www.redfin.com/SC/Buffalo/116-Mudbridge-Rd-29321/home/85909907,SPMLS,295902,N,Y,34.7243529,-81.6996659
MLS Listing,,Single Family Residential,116 Foote St,Chester,SC,29706,274000,3,2.0,Chester,2271,7840,1965,23,121,,Active,,,https://www.redfin.com/SC/Chester/116-Foote-St-29706/home/52187072,CANOPYMLS,3923863,N,Y,34.713079,-81.2091724
MLS Listing,,Single Family Residential,407 Rosewood Ct,Lancaster,SC,29720,430000,4,3.5,Lancaster,2688,50529,1952,23,160,,Active,,,https://www.redfin.com/SC/Lancaster/407-Rosewood-Ct-29720/home/52154197,CANOPYMLS,3924241,N,Y,34.7231952,-80.780908
MLS Listing,,Single Family Residential,3912 Happy Hollow Ln,Waxhaw,NC,28173,314000,3,2.0,Waxhaw,1172,43560,1997,23,268,,Active,,,https://www.redfin.com/NC/Waxhaw/3912-Happy-Hollow-Ln-28173/home/43781837,CANOPYMLS,3921948,N,Y,34.922492,-80.6947069
MLS Listing,,Single Family Residential,1907 Old Mill Rd,Richburg,SC,29729,209000,4,2.0,Hazelwood,1440,98881,2003,23,145,,Active,,,https://www.redfin.com/SC/Richburg/1907-Old-Mill-Rd-29729/home/52198944,CANOPYMLS,3925383,N,Y,34.6243453,-81.0657847
MLS Listing,,Mobile/Manufactured Home,224 Brandi Ln,Clinton,SC,29325,145900,3,2.0,,1200,13939,,23,122,,Active,,,https://www.redfin.com/SC/Clinton/224-Brandy-Ln-29325/home/60752804,Greater Greenville MLS,1487051,N,Y,34.465087,-81.903882
MLS Listing,,Single Family Residential,302 Moore St,Lancaster,SC,29720,199000,2,2.5,Lancaster,2404,11761,1969,23,83,,Active,,,https://www.redfin.com/SC/Lancaster/302-Moore-St-29720/home/52152024,CANOPYMLS,3912498,N,Y,34.7179793,-80.7658021
MLS Listing,,Mobile/Manufactured Home,341 Dillon Dr,Clinton,SC,29325,150000,3,2.0,Clinton,1600,22215,,23,94,,Active,,,https://www.redfin.com/SC/Clinton/341-Dillon-Dr-29325/home/164932001,Greater Greenville MLS,1487049,N,Y,34.466143,-81.902253
MLS Listing,,Single Family Residential,470 Carolina Club Dr,Spartanburg,SC,29306,829900,4,5.0,Carolina Country Club 033,4800,43560,1999,23,173,197,Active,,,https://www.redfin.com/SC/Spartanburg/470-Carolina-Club-Dr-29306/home/79469946,Greater Greenville MLS,1487048,N,Y,34.8740597,-81.907715
MLS Listing,,Single Family Residential,5005 Millbridge Pkwy,Waxhaw,NC,28173,649900,5,3.5,Millbridge,3572,10454,2020,24,182,75,Active,,,https://www.redfin.com/NC/Waxhaw/5005-Millbridge-Pkwy-28173/home/169492566,CANOPYMLS,3924507,N,Y,34.9291015,-80.7791552
MLS Listing,,Single Family Residential,9023 Providence Rd S,Waxhaw,NC,28173,485000,3,2.0,Waxhaw,2643,86248,1986,24,184,,Active,,,https://www.redfin.com/NC/Waxhaw/9023-Providence-Rd-S-28173/home/43824303,CANOPYMLS,3924221,N,Y,34.8326654,-80.6984139
MLS Listing,,Single Family Residential,375 Livingston Dr,Lancaster,SC,29720,385000,3,2.5,Walnut Creek,2144,6751,2018,24,180,52,Active,December-17-2022 12:00 PM,December-17-2022 02:00 PM,https://www.redfin.com/SC/Lancaster/375-Livingston-Dr-29720/home/146856793,CANOPYMLS,3925260,N,Y,34.9289662,-80.7899962
MLS Listing,,Vacant Land,192 4th St,Kershaw,SC,29067,6400,,,Kershaw,,5227,,24,,,Active,,,https://www.redfin.com/SC/Kershaw/192-E-4th-St-29067/home/52165393,CANOPYMLS,3923647,N,Y,34.55873,-80.582375
MLS Listing,,Townhouse,28141 Song Sparrow Ln,Indian Land,SC,29707,330000,2,2.0,Sun City Carolina Lakes,1295,,2007,24,255,360,Active,,,https://www.redfin.com/SC/Indian-Land/28141-Song-Sparrow-Ln-29707/home/52177933,CANOPYMLS,3925018,N,Y,34.9348785,-80.8386222
MLS Listing,,Vacant Land,0 Laurel Hill Rd,Indian Land,SC,29720,200000,,,Indian Land,,75794,,24,,,Active,,,https://www.redfin.com/SC/LANCASTER/LAUREL-HILL-RD-29720/home/52144191,CANOPYMLS,3925116,N,Y,34.945026,-80.834232
MLS Listing,,Single Family Residential,1765 Hall Spencer Rd,Edgemoor,SC,29712,237900,5,3.0,Edgemoor,1344,130680,1990,24,177,,Active,,,https://www.redfin.com/SC/Edgemoor/1765-Hall-Spencer-Rd-29712/home/52125977,CANOPYMLS,3925231,N,Y,34.839156,-80.976256
MLS Listing,,Single Family Residential,1943 Old Mill Rd,Richburg,SC,29729,120000,3,2.0,Hazelwood,2240,129808,1998,24,54,,Active,,,https://www.redfin.com/SC/Richburg/1943-Old-Mill-Rd-29729/home/52194769,CANOPYMLS,3925021,N,Y,34.6238191,-81.0685447
MLS Listing,,Vacant Land,175 Black St,Rock Hill,SC,29730,2700000,,,Rock Hill,,65775,,24,,,Active,,,https://www.redfin.com/SC/Rock-Hill/175-W-Black-St-29730/home/164907451,CANOPYMLS,3924574,N,Y,34.926649,-81.0319023
MLS Listing,,Single Family Residential,1657 Wade Funderburk Rd,Pageland,SC,29728,249999,3,2.0,Pageland,1777,120661,1995,25,141,,Active,,,https://www.redfin.com/SC/Pageland/1657-State-Rd-S-13-106-29728/home/85845442,CANOPYMLS,3922096,N,Y,34.7990455,-80.4714138
MLS Listing,,Single Family Residential,100 Hunters Run,Clinton,SC,29325,849900,4,4.5,,4200,158122,1982,25,202,,Active,,,https://www.redfin.com/SC/Clinton/100-Hunters-Run-29325/home/87111964,Greater Greenville MLS,1486971,N,Y,34.449706,-81.8904411
MLS Listing,,Single Family Residential,2004 Deep River Way,Waxhaw,NC,28173,549000,5,4.0,Millbridge,2733,9147,2020,25,201,75,Active,,,https://www.redfin.com/NC/Waxhaw/2004-Deep-River-Way-28173/home/171366852,CANOPYMLS,3924067,N,Y,34.9245081,-80.7774456
MLS Listing,,Vacant Land,1446 Autumnwood Dr #12,Rock Hill,SC,29730,48000,3,,Cedarbrook,,43560,,25,,,Active,,,https://www.redfin.com/SC/Rock-Hill/1446-Autumnwood-Dr-29730/unit-12/home/182973805,CANOPYMLS,3918228,N,Y,34.8532389,-81.0839123
MLS Listing,,Single Family Residential,1089 Bowser St,Rock Hill,SC,29730,305000,3,3.0,Sunset Park,1750,13503,1971,25,174,,Active,,,https://www.redfin.com/SC/Rock-Hill/1089-Bowser-St-29730/home/52111350,CANOPYMLS,3895207,N,Y,34.9167637,-81.0477457
MLS Listing,,Vacant Land,2067 Great Falls Hwy Hwy,Lancaster,SC,29720,99500,,,Lancaster,,21780,,25,,,Active,,,https://www.redfin.com/SC/Lancaster/2067-Great-Falls-Hwy-29720/home/52172676,CANOPYMLS,3924878,N,Y,34.686044,-80.792189
MLS Listing,,Single Family Residential,3182 Stone Station Rd,Roebuck,SC,29376,269900,3,2.0,Roebuck,1560,18295,2022,25,173,,Active,,,https://www.redfin.com/SC/Roebuck/3182-Stone-Station-RD-29376/home/179930261,SPMLS,295873,N,Y,34.8795683,-81.9662139
MLS Listing,,Single Family Residential,169 Bevel Ln,Heath Springs,SC,29058,239900,3,2.0,Heath Springs,1284,6969,2022,25,187,,Active,,,https://www.redfin.com/SC/Heath-Springs/169-Bevel-Ln-29058/home/52162114,CANOPYMLS,3925102,N,Y,34.607163,-80.683086
MLS Listing,,Single Family Residential,113 Sunset Dr,Chester,SC,29706,315000,4,2.5,Chester,2520,82764,1962,25,125,,Active,,,https://www.redfin.com/SC/Chester/113-Sunset-Dr-29706/home/52195181,CANOPYMLS,3906831,N,Y,34.6953821,-81.2094952
MLS Listing,,Single Family Residential,211 Webber Lake Rd,Union,SC,29379,285000,4,3.5,Union County,2776,36154,,25,103,,Active,,,https://www.redfin.com/SC/Union/211-State-Rd-S-44-70-29379/home/85909732,SPMLS,295869,N,Y,34.7534777,-81.5989026
MLS Listing,,Vacant Land,0 Dogwood Circle Dr,Kershaw,SC,29067,25500,,,Kershaw,,69696,,25,,,Active,,,https://www.redfin.com/SC/KERSHAW/DOGWOOD-CIRCLE-DR-29067/home/52170351,CANOPYMLS,3924855,N,Y,34.536831,-80.605432
MLS Listing,,Single Family Residential,304 Pine Lake Dr,Spartanburg,SC,29301,264900,4,3.0,Woodland Heights,2400,19602,1964,25,110,,Active,,,https://www.redfin.com/SC/Spartanburg/304-Pine-Lake-Ct-29301/home/110470164,Greater Greenville MLS,1486923,N,Y,34.9303522,-81.9611314
MLS Listing,,Ranch,9562 Van Wyck Rd,Lancaster,SC,29720,1273415,2,,Lancaster,,809780,,25,,,Active,,,https://www.redfin.com/SC/Lancaster/9562-Van-Wyck-Rd-29720/home/52150200,CANOPYMLS,3924842,N,Y,34.9166849,-80.8392277
MLS Listing,,Vacant Land,000 Purity Rd,Chester,SC,29706,220000,,,Chester,,968774,,25,,,Active,,,https://www.redfin.com/SC/Unknown/Purity-Rd-29706/home/182989200,CANOPYMLS,3923733,N,Y,34.7221647268667,-81.2156303756714
MLS Listing,,Single Family Residential,4907 Waxhaw Marvin Rd,Waxhaw,NC,28173,289000,3,2.0,Waxhaw,834,65340,1960,26,347,,Active,,,https://www.redfin.com/NC/Waxhaw/4907-Waxhaw-Marvin-Rd-28173/home/43795869,CANOPYMLS,3921623,N,Y,34.9326925,-80.7626853
MLS Listing,,Single Family Residential,3 Pitts St,Rock Hill,SC,29730,285000,3,2.0,Aragon Baldwin Mills,1813,16552,1925,26,157,,Active,,,https://www.redfin.com/SC/Rock-Hill/3-Pitts-St-29730/home/52115298,CANOPYMLS,3921583,N,Y,34.9331517,-81.0058184
MLS Listing,,Single Family Residential,2826 Harrington Pl,Waxhaw,NC,28173,725000,4,3.5,Harrington Hall,3252,43255,2022,26,223,29,Active,,,https://www.redfin.com/NC/Waxhaw/2826-Harrington-Pl-28173/home/43849397,CANOPYMLS,3919629,N,Y,34.9397295,-80.7035566
MLS Listing,,Single Family Residential,7324 Wolf Pond Rd,Monroe,NC,28112,425000,3,2.0,Monroe,2460,249163,1965,26,173,,Active,,,https://www.redfin.com/NC/Monroe/7324-Wolf-Pond-Rd-28112/home/43783491,CANOPYMLS,3922069,N,Y,34.8236821,-80.5284203
MLS Listing,,Single Family Residential,3061 Whitestone Glendale Rd,Spartanburg,SC,29302,80000,5,2.5,,2641,58370,1938,26,30,,Active,,,https://www.redfin.com/SC/Spartanburg/3061-Whitestone-Glendale-Rd-29302/home/110547535,Charleston Trident MLS,22027936,N,Y,34.9402973,-81.8406653
MLS Listing,,Single Family Residential,5283 Indian Creek Rd,Kinards,SC,29355,235000,2,1.0,,1600,427323,,26,147,,Active,,,https://www.redfin.com/SC/Kinards/5283-Indian-Creek-Rd-29355/home/164622742,Greater Greenville MLS,1486851,N,Y,34.4280838,-81.7374854
MLS Listing,,Ranch,510 Groce Rd,Spartanburg,SC,29302,465000,5,3.0,,3239,146797,1983,26,144,,Active,,,https://www.redfin.com/SC/Spartanburg/510-State-Rd-S-42-500-29302/home/79467426,SPMLS,295819,N,Y,34.8524873,-81.8668909
MLS Listing,,Vacant Land,00 Hubbard Rd,Lancaster,SC,29720,1109000,,,Lancaster,,305791,,26,,,Active,,,https://www.redfin.com/SC/LANCASTER/HUBBARD-RD-29720/home/52158143,CANOPYMLS,3924683,N,Y,34.745067,-80.782416
MLS Listing,,Single Family Residential,1177 Westshore Dr,Ridgeway,SC,29130,560000,3,3.0,Westshore,2696,26136,1982,26,208,,Active,,,https://www.redfin.com/SC/Ridgeway/1177-Westshore-Dr-29130/home/64357703,CANOPYMLS,3924616,N,Y,34.4011993,-80.8393574
MLS Listing,,Single Family Residential,502 W Meeting St,Lancaster,SC,29720,248000,4,2.0,Lancaster,1533,21344,1938,26,162,,Active,,,https://www.redfin.com/SC/Lancaster/502-W-Meeting-St-29720/home/52165455,CANOPYMLS,3923844,N,Y,34.718407,-80.7793067
MLS Listing,,Single Family Residential,361 Hidden Crk,Spartanburg,SC,29306,740000,4,3.5,Carolina Country Club,4120,30491,2000,27,180,156,Active,,,https://www.redfin.com/SC/Spartanburg/361-Hidden-Creek-Cir-29306/home/110394995,SPMLS,295805,N,Y,34.8695949,-81.9072246
MLS Listing,,Single Family Residential,2365 Dolan Ln,Liberty Hill,SC,29074,750000,4,2.5,Liberty Hill,2816,51836,2005,27,266,,Active,,,https://www.redfin.com/SC/LIBERTY-HILL/2365-DOLAN-LN-29074/home/86750177,CANOPYMLS,3924515,N,Y,34.435202,-80.777984
MLS Listing,,Single Family Residential,196 Bearden Heights Rd,Spartanburg,SC,29306,335000,2,2.0,,1200,323215,2000,28,279,,Active,,,https://www.redfin.com/SC/Spartanburg/196-Bearden-Heights-Rd-29306/home/110728061,Greater Greenville MLS,1486808,N,Y,34.8774017,-81.9441187
MLS Listing,,Single Family Residential,317 N Church St,Union,SC,29379,165000,3,2.0,Union County,1512,,,28,109,,Active,,,https://www.redfin.com/SC/Union/317-N-Church-St-29379/home/85912806,SPMLS,295789,N,Y,34.7209473,-81.6193361
MLS Listing,,Single Family Residential,206 Essex Dr,Clinton,SC,29325,240000,3,2.0,Laurens,1400,13503,2022,28,171,,Active,,,https://www.redfin.com/SC/Clinton/206-Essex-Dr-29325/home/180946597,SPMLS,295785,N,Y,34.4626247,-81.9092918
MLS Listing,,Single Family Residential,117 Windyrush Rd,Spartanburg,SC,29301,235000,4,1.5,Camelot,1755,12632,1971,28,134,,Active,,,https://www.redfin.com/SC/Spartanburg/117-Windy-Rush-Rd-29301/home/110489359,SPMLS,295783,N,Y,34.9261042,-81.9797091
MLS Listing,,Vacant Land,1892 Catawba River Rd,Fort Lawn,SC,29714,95900,8,,Harkey Estates,,104979,,28,,,Active,,,https://www.redfin.com/SC/Fort-Lawn/1892-Catawba-River-Rd-29714/home/176367207,CANOPYMLS,3924437,N,Y,34.6723813,-80.8967128
MLS Listing,,Single Family Residential,317 State St,Rock Hill,SC,29730,150000,3,1.0,Rock Hill,1398,11325,1950,28,107,,Active,,,https://www.redfin.com/SC/Rock-Hill/317-State-St-29730/home/52110540,CANOPYMLS,3919318,N,Y,34.9190742,-81.0291633
MLS Listing,,Vacant Land,2995 Mccaw Rd,Sharon,SC,29742,40000,4,,Sharon,,79714,,28,,,Active,,,https://www.redfin.com/SC/Sharon/2995-McCaw-Rd-29742/home/164831762,CANOPYMLS,3924435,N,Y,34.9206784,-81.3825962
MLS Listing,,Single Family Residential,359 Baker St,Rock Hill,SC,29730,225000,3,2.0,Sunset Park,1061,7405,2022,28,212,,Active,,,https://www.redfin.com/SC/Rock-Hill/359-Baker-St-29730/home/164936918,CANOPYMLS,3924426,N,Y,34.9196842,-81.0434691
MLS Listing,,Vacant Land,1168 Neds Creek Rd #4,Kershaw,SC,29067,70500,,,Kershaw,,292287,,28,,,Active,,,https://www.redfin.com/SC/Kershaw/1168-Neds-Creek-Rd-29067/unit-4/home/182955913,CANOPYMLS,3923849,N,Y,34.5468792,-80.5022586
MLS Listing,,Single Family Residential,119 Princeton St,Spartanburg,SC,29306,250000,4,2.0,Spartanburg,1312,6969,1937,28,191,,Active,,,https://www.redfin.com/SC/Spartanburg/119-Princeton-St-29306/home/110656684,WUMLS,20257082,N,Y,34.9413099,-81.9129177
MLS Listing,,Single Family Residential,136 Bethlehem Church Rd,Moore,SC,29369,250000,3,2.0,Moore,962,24393,1950,28,260,,Active,,,https://www.redfin.com/SC/Moore/136-S-678-29369/home/110890985,WUMLS,20257084,N,Y,34.8989147,-81.987405
MLS Listing,,Single Family Residential,2423 Great Falls Hwy,Lancaster,SC,29720,165000,2,1.5,Lancaster,1459,108900,1942,29,113,,Active,,,https://www.redfin.com/SC/Lancaster/2423-Great-Falls-Hwy-29720/home/52151664,CANOPYMLS,3923136,N,Y,34.6755967,-80.8003815
MLS Listing,,Vacant Land,0 Flat Creek Hwy,Lancaster,SC,29720,145000,,,Lancaster,,364597,,29,,,Active,,,https://www.redfin.com/SC/LANCASTER/FLAT-CREEK-HWY-29720/home/52146286,CANOPYMLS,3924150,N,Y,34.635056,-80.531732
MLS Listing,,Single Family Residential,5791 Soft Shell Dr #305,Lancaster,SC,29720,394999,3,2.5,Walnut Creek,2052,5619,2023,29,192,50,Active,,,https://www.redfin.com/SC/Lancaster/5791-Soft-Shell-Dr-29720/unit-305/home/182917474,CANOPYMLS,3924288,N,Y,34.9329072,-80.7834913
MLS Listing,,Single Family Residential,742 Rockwood Dr,Rock Hill,SC,29730,299500,3,2.0,Rock Hill,1311,9147,2022,29,228,,Active,,,https://www.redfin.com/SC/Rock-Hill/742-Rockwood-Dr-29730/home/143101004,CANOPYMLS,3920241,N,Y,34.9104313,-81.0198003
MLS Listing,,Single Family Residential,5212 Cressingham Dr,Indian Land,SC,29707,435000,2,2.0,Belair At Carolina Lakes,1726,14374,2010,29,252,121,Active,,,https://www.redfin.com/SC/Indian-Land/5212-Cressingham-Dr-29707/home/52182484,CANOPYMLS,3924226,N,Y,34.931813,-80.820153
MLS Listing,,Single Family Residential,212 Singing Woods Ln,Spartanburg,SC,29301,239900,3,2.0,Sheffield,1408,,1971,29,170,,Active,,,https://www.redfin.com/SC/Spartanburg/212-Singing-Woods-Ln-29301/home/110550957,SPMLS,295762,N,Y,34.9263532,-81.9821801
MLS Listing,,Single Family Residential,6053 Haddington Dr Lot 14,Roebuck,SC,29376,299400,3,2.5,Roebuck,1800,5227,,29,166,29,Active,,,https://www.redfin.com/SC/Roebuck/6053-Haddington-Dr-29376/unit-14/home/182911284,Greater Greenville MLS,1486728,N,Y,34.895175,-81.966274
MLS Listing,,Single Family Residential,145 Blackstock Rd,Enoree,SC,29335,159900,2,1.0,,700,65340,,29,228,,Active,,,https://www.redfin.com/SC/Enoree/145-Blackstock-Rd-29335/home/85916720,Greater Greenville MLS,1486723,N,Y,34.6465485,-81.818444
MLS Listing,,Single Family Residential,7007 Haddington Dr Lot 31,Roebuck,SC,29376,347900,4,2.5,Roebuck,2400,5662,2023,29,145,29,Active,,,https://www.redfin.com/SC/Roebuck/7007-Haddington-Dr-29376/unit-31/home/182909353,Greater Greenville MLS,1486718,N,Y,34.893477,-81.965444
MLS Listing,,Single Family Residential,3428 Pinckney Rd,Chester,SC,29706,165000,3,1.5,Chester,1024,41817,1994,29,161,,Active,,,https://www.redfin.com/SC/Chester/3428-Pinckney-Rd-29706/home/52199310,CANOPYMLS,3924231,N,Y,34.7590958,-81.397009
MLS Listing,,Single Family Residential,113 Woodrow St,Union,SC,29379,47400,1,1.0,,700,21780,,29,68,,Active,,,https://www.redfin.com/SC/Union/113-Woodrow-St-29379/home/85914305,Greater Greenville MLS,1486703,N,Y,34.7103312,-81.6139864
MLS Listing,,Single Family Residential,2612 Griffith Hill Dr,Monroe,NC,28112,280000,2,2.5,Griffith park,1641,33105,1979,29,171,,Active,,,https://www.redfin.com/NC/Monroe/2612-Griffith-Hill-Dr-28112/home/43809189,CANOPYMLS,3924071,N,Y,34.9392189,-80.5618347
MLS Listing,,Single Family Residential,7095 Sunset Crater Pl,Lancaster,SC,29720,455000,2,2.0,Treetops,1759,7405,2016,29,259,244,Active,,,https://www.redfin.com/SC/Lancaster/7095-Sunset-Crater-Pl-29720/home/109201514,CANOPYMLS,3923639,N,Y,34.8936056,-80.8419523
MLS Listing,,Single Family Residential,443 Monroe Hwy,Lancaster,SC,29720,475000,5,3.0,Lancaster,2205,140916,1978,29,215,,Active,,,https://www.redfin.com/SC/Lancaster/443-Monroe-Hwy-29720/home/52143835,CANOPYMLS,3924157,N,Y,34.7471298,-80.7658021
MLS Listing,,Single Family Residential,102 Dogwood Dr,Great Falls,SC,29055,250000,3,2.0,Great Falls,1910,36590,1964,29,131,,Active,,,https://www.redfin.com/SC/Great-Falls/102-Dogwood-Dr-29055/home/52198438,CANOPYMLS,3922174,N,Y,34.5885199,-80.9134071
MLS Listing,,Single Family Residential,7107 Nesbit Rd,Waxhaw,NC,28173,748000,3,3.0,Cane Pointe,2946,152460,2006,30,254,,Active,,,https://www.redfin.com/NC/Waxhaw/7107-Nesbit-Rd-28173/home/43840145,CANOPYMLS,3922759,N,Y,34.8393623,-80.6500115
MLS Listing,,Single Family Residential,2129 Flat Creek Rd,Lancaster,SC,29720,188000,3,1.0,Lancaster,1326,34848,1956,30,142,,Active,,,https://www.redfin.com/SC/Lancaster/2129-Flat-Creek-Rd-29720/home/52169677,CANOPYMLS,3918512,N,Y,34.7058832,-80.7147711
MLS Listing,,Single Family Residential,5793 Soft Shell Dr #304,Lancaster,SC,29720,374999,4,2.5,Walnut Creek,2118,5401,2023,30,177,50,Active,,,https://www.redfin.com/SC/Lancaster/5793-Soft-Shell-Dr-29720/unit-304/home/182893555,CANOPYMLS,3924106,N,Y,34.933108,-80.783509
MLS Listing,,Single Family Residential,3105 Great Falls Hwy,Chester,SC,29014,293000,3,2.0,Chester,1311,117612,2023,30,223,,Active,,,https://www.redfin.com/SC/Richburg/3105-Great-Falls-Hwy-29729/home/182866451,CANOPYMLS,3924079,N,Y,34.6133466,-81.053107
MLS Listing,,Single Family Residential,3119 Great Falls Hwy,Chester,SC,29014,250000,3,2.0,Chester,1100,125888,2023,30,227,,Active,,,https://www.redfin.com/SC/Blackstock/3119-Great-Falls-Hwy-29014/home/182892765,CANOPYMLS,3924044,N,Y,34.6208062,-81.0716597
MLS Listing,,Single Family Residential,4007 Tom Greene Rd,Waxhaw,NC,28173,1495000,3,2.0,Waxhaw,3156,1393920,1999,30,474,,Active,,,https://www.redfin.com/NC/Waxhaw/4007-Tom-Greene-Rd-28173/home/43781911,CANOPYMLS,3918015,N,Y,34.8363404,-80.6294396
MLS Listing,,Vacant Land,00 Airport Rd,Enoree,SC,29335,329000,,,,,970952,,30,,,Active,,,https://www.redfin.com/SC/ENOREE/AIRPORT-RD-29335/home/111130500,Greater Greenville MLS,1486624,N,Y,34.622171,-81.901016
MLS Listing,,Single Family Residential,405 Caldwell St,Clinton,SC,29325,249900,4,3.0,,1600,13939,,30,156,,Active,,,https://www.redfin.com/SC/Clinton/405-Caldwell-St-29325/home/87125903,Greater Greenville MLS,1486621,N,Y,34.4811856,-81.8689391
MLS Listing,,Single Family Residential,20080 Dovekie Ln,Indian Land,SC,29707,420000,2,2.0,Sun City Carolina Lakes,1425,5662,2013,30,295,,Active,,,https://www.redfin.com/SC/Indian-Land/20080-Dovekie-Ln-29707/home/52334582,CANOPYMLS,3922092,N,Y,34.9366891,-80.8569142
MLS Listing,,Single Family Residential,1235 Old Coach Ln,Rock Hill,SC,29732,374900,3,2.5,Ashley Park,2008,9583,2002,30,187,6,Active,,,https://www.redfin.com/SC/Rock-Hill/1235-Old-Coach-Ln-29732/home/52137735,CANOPYMLS,3920727,N,Y,34.9385957,-81.0695365
MLS Listing,,Single Family Residential,4121 Buice Dr,Rock Hill,SC,29730,400000,3,2.0,Rock Hill,1695,60983,1973,30,236,,Active,,,https://www.redfin.com/SC/Rock-Hill/4121-Buice-Dr-29730/home/52127219,CANOPYMLS,3921584,N,Y,34.8764443,-80.9342306
MLS Listing,,Single Family Residential,330 Finley Sq,Rock Hill,SC,29730,225000,3,2.0,Finley Square,1068,11325,1992,30,211,,Active,,,https://www.redfin.com/SC/Rock-Hill/330-Finley-Sq-29730/home/52109570,CANOPYMLS,3922949,N,Y,34.9295903,-81.0424939
MLS Listing,,Multi-Family (5+ Unit),220 N Gadberry Rd,Union,SC,29379,1350000,23,23.0,Union,18000,10890,1900,30,75,,Active,,,https://www.redfin.com/SC/Union/220-N-Gadberry-St-29379/home/182883399,CANOPYMLS,3923293,N,Y,34.7167391,-81.6224957
MLS Listing,,Single Family Residential,4321 Mcconnells Hwy,Rock Hill,SC,29732,409000,3,2.0,Rock Hill,1777,152460,1973,31,230,,Active,,,https://www.redfin.com/SC/ROCK-HILL/4321-MCCONNELLS-HWY-29732/home/52094761,CANOPYMLS,3918637,N,Y,34.903237,-81.158283
MLS Listing,,Single Family Residential,3212 Skyline Rd,Rock Hill,SC,29730,220000,3,1.0,Rock Hill,1279,43560,1930,31,172,,Active,,,https://www.redfin.com/SC/Rock-Hill/3212-Skyline-Rd-29730/home/52098752,CANOPYMLS,3921482,N,Y,34.865944,-81.0963249
MLS Listing,,Single Family Residential,106 White Oak St,Chester,SC,29706,120900,2,1.0,Chester,1156,4791,1975,31,105,,Active,,,https://www.redfin.com/SC/Chester/106-White-Oak-St-29706/home/52196866,CANOPYMLS,3923841,N,Y,34.7058993,-81.2029305
MLS Listing,,Vacant Land,,Spartanburg,SC,29306,30000,,,,,8712,,31,,,Active,,,https://www.redfin.com/SC/SPARTANBURG/Undisclosed-address-29306/home/178253228,Greater Greenville MLS,1486558,N,Y,34.9235,-81.9306
MLS Listing,,Vacant Land,452 Porter Rd,Rock Hill,SC,29730,50000,,,Rock Hill,,16988,,31,,,Active,,,https://www.redfin.com/SC/Rock-Hill/452-Porter-Rd-29730/home/164858445,CANOPYMLS,3923556,N,Y,34.9065268,-80.997003
MLS Listing,,Single Family Residential,399 W River Grove Cir,Roebuck,SC,29376,429610,5,3.0,,2200,93654,,32,195,,Active,,,https://www.redfin.com/SC/Roebuck/399-W-River-Grove-Cir-29376/home/182206884,Greater Greenville MLS,1486526,N,Y,34.783808,-81.9462253
MLS Listing,,Single Family Residential,410 W River Grove Cir,Roebuck,SC,29376,493590,5,3.0,,2400,286624,,32,206,,Active,,,https://www.redfin.com/SC/Roebuck/410-W-River-Grove-Cir-29376/home/182197018,Greater Greenville MLS,1486525,N,Y,34.7863795,-81.9468646
MLS Listing,,Single Family Residential,6604 Loblolly Cir,Waxhaw,NC,28173,495000,3,3.0,Providence Pines,2312,61419,1996,32,214,,Active,,,https://www.redfin.com/NC/Waxhaw/6604-Loblolly-Cir-28173/home/43816293,CANOPYMLS,3918117,N,Y,34.8921203,-80.715876
MLS Listing,,Vacant Land,549 Castlewood Cir,Rock Hill,SC,29730,55000,,,Rock Hill,,16988,,32,,,Active,,,https://www.redfin.com/SC/Rock-Hill/549-Castlewood-Cir-29730/home/164909028,CANOPYMLS,3923554,N,Y,34.905193,-80.9991827
MLS Listing,,Single Family Residential,435 W Barr St,Lancaster,SC,29720,288997,4,3.0,Lancaster,2204,4356,2022,32,131,,Active,,,https://www.redfin.com/SC/Lancaster/435-W-Barr-St-29720/home/182861021,CANOPYMLS,3923533,N,Y,34.7199764,-80.7773669
MLS Listing,,Single Family Residential,665 Britt Ln,Richburg,SC,29729,599900,3,2.0,Richburg,2957,165092,2002,32,203,,Active,,,https://www.redfin.com/SC/Richburg/665-Britt-Ln-29729/home/52201673,CANOPYMLS,3922089,N,Y,34.711176,-80.956397
MLS Listing,,Single Family Residential,5202 Lancaster Hwy,Monroe,NC,28112,520000,3,2.5,Provident Acres,1901,246114,2022,32,274,,Active,,,https://www.redfin.com/NC/Monroe/5202-Lancaster-Hwy-28112/home/181490254,CANOPYMLS,3923437,N,Y,34.9026604,-80.6204947
MLS Listing,,Single Family Residential,400 River Grove Cir,Roebuck,SC,29374,483240,4,3.5,West River Grove,2700,161172,2023,32,179,,Active,,,https://www.redfin.com/SC/Roebuck/400-W-River-Grove-Cir-29376/home/182207702,SPMLS,295671,N,Y,34.7863795,-81.9468646
MLS Listing,,Single Family Residential,1639 Center Rd,Chester,SC,29706,149900,2,1.0,Chester,1048,96136,1940,32,143,,Active,,,https://www.redfin.com/SC/Chester/1639-Center-Rd-29706/home/182856953,CANOPYMLS,3923375,N,Y,34.7591977,-81.2797699
MLS Listing,,Vacant Land,985 Evins Rd,Pauline,SC,29374,12000,,1.0,Pauline,,67082,,32,,,Active,,,https://www.redfin.com/SC/Pauline/985-Evins-Rd-29374/home/110605087,SPMLS,295663,N,Y,34.747901,-81.882074
