SALE TYPE,SOLD DATE,PROPERTY TYPE,ADDRESS,CITY,STATE OR PROVINCE,ZIP OR POSTAL CODE,PRICE,BEDS,BATHS,LOCATION,SQUARE FEET,LOT SIZE,YEAR BUILT,DAYS ON MARKET,$/SQUARE FEET,HOA/MONTH,STATUS,NEXT OPEN HOUSE START TIME,NEXT OPEN HOUSE END TIME,URL (SEE https://www.redfin.com/buy-a-home/comparative-market-analysis FOR INFO ON PRICING),SOURCE,MLS#,FAVORITE,INTERESTED,LATITUDE,LONGITUDE
MLS Listing,,Single Family Residential,10302 10th Avenue Ct S,Tacoma,WA,98444,475000,4,3.0,Tacoma,1776,9543,2000,1,267,,Active,December-17-2022 11:00 AM,December-17-2022 01:00 PM,https://www.redfin.com/WA/Tacoma/10302-10th-Ave-Ct-S-98444/home/2870575,NWMLS,2022436,N,Y,47.1636464,-122.4483926
MLS Listing,,Single Family Residential,9315 N Syracuse St,Portland,OR,97203,374900,2,1.0,St John's,1616,4356,1906,1,232,,Active,December-18-2022 11:00 AM,December-18-2022 01:00 PM,https://www.redfin.com/OR/Portland/9315-N-Syracuse-St-97203/home/26298240,RMLS,22024557,N,Y,45.5934679,-122.7602686
MLS Listing,,Single Family Residential,2712 110th Ave E,Edgewood,WA,98372,575000,3,1.0,Edgewood,1372,22651,1949,1,419,,Active,,,https://www.redfin.com/WA/Edgewood/2712-110th-Ave-E-98372/home/22785105,NWMLS,2022928,N,Y,47.2327934,-122.2833384
MLS Listing,,Single Family Residential,7808 NE 174th Ave,Vancouver,WA,98682,740000,4,2.5,Hockinson,2589,7837,2017,1,286,80,Active,,,https://www.redfin.com/WA/Vancouver/7808-NE-174th-Ave-98682/home/144012525,NWMLS,2022496,N,Y,45.6798943,-122.4939394
MLS Listing,,Single Family Residential,17597 SE Rose St,Milwaukie,OR,97267,645500,3,2.0,Milwaukie,1700,8712,1952,1,380,,Active,,,https://www.redfin.com/OR/Milwaukie/17597-SE-Rose-St-97267/home/26052627,RMLS,22164692,N,Y,45.3959047,-122.6098686
MLS Listing,,Single Family Residential,422 Suncrest Ave NW,Salem,OR,97304,410000,3,2.0,Sunset Hills,1844,7900,1988,1,222,,Active,,,https://www.redfin.com/OR/Salem/422-Suncrest-Ave-NW-97304/home/26485855,WVMLS,800434,N,Y,44.9391695,-123.0859813
MLS Listing,,Single Family Residential,2822 148th Street Ct E,Tacoma,WA,98445,424900,3,2.5,Tacoma,1826,8500,1980,2,233,,Active,December-17-2022 11:00 AM,December-17-2022 01:00 PM,https://www.redfin.com/WA/Tacoma/2822-148th-St-Ct-E-98445/home/2945026,NWMLS,2022390,N,Y,47.1216293,-122.3907614
MLS Listing,,Single Family Residential,3644 E F St,Tacoma,WA,98404,440000,3,2.0,Tacoma,1451,5964,1905,2,303,,Active,December-17-2022 11:00 AM,December-17-2022 01:00 PM,https://www.redfin.com/WA/Tacoma/3644-E-F-St-98404/home/2983147,NWMLS,2022290,N,Y,47.2248922,-122.4239554
MLS Listing,,Single Family Residential,18027 187th Ave SE,Renton,WA,98058,995000,4,3.0,Renton,3720,17730,1967,2,267,,Active,December-17-2022 02:00 PM,December-17-2022 04:00 PM,https://www.redfin.com/WA/Renton/18027-187th-Ave-SE-98058/home/391126,NWMLS,2019852,N,Y,47.4404078,-122.0918423
MLS Listing,,Single Family Residential,1374 SW 216th Pl,Beaverton,OR,97003,569900,4,3.0,Beaverton,2020,5227,1993,2,282,,Active,December-17-2022 11:00 AM,December-17-2022 01:00 PM,https://www.redfin.com/OR/Beaverton/1374-SW-216th-Pl-97006/home/25846130,RMLS,22069539,N,Y,45.5098854,-122.8985287
MLS Listing,,Single Family Residential,2230 Church St NE,Salem,OR,97301,369000,3,1.5,Salem,1624,5000,1957,2,227,,Active,,,https://www.redfin.com/OR/Salem/2230-Church-St-NE-97301/home/26293939,WVMLS,800414,N,Y,44.9604131,-123.0259489
MLS Listing,,Single Family Residential,2820 Moraga Ave SE,Albany,OR,97322,355000,3,2.0,Deerfield,1245,7405,1978,2,285,,Active,,,https://www.redfin.com/OR/Albany/2820-Moraga-Ave-SE-97322/home/26178176,WVMLS,800413,N,Y,44.6037842,-123.0718788
MLS Listing,,Single Family Residential,1426 SW 4th St,Gresham,OR,97080,374900,2,2.0,Gresham,1728,6969,1975,2,217,,Active,December-17-2022 11:00 AM,December-17-2022 01:00 PM,https://www.redfin.com/OR/Gresham/1426-SW-4th-St-97080/home/26316488,RMLS,22305651,N,Y,45.49442,-122.44613
MLS Listing,,Condo/Co-op,1811 NW Couch St #301,Portland,OR,97209,290000,2,1.0,"ALPHABET DISTRICT, NW FLATS",739,,1915,2,392,455,Active,December-17-2022 11:00 AM,December-17-2022 01:00 PM,https://www.redfin.com/OR/Portland/1811-NW-Couch-St-97209/unit-301/home/26595421,RMLS,22005861,N,Y,45.523793,-122.6896083
MLS Listing,,Single Family Residential,3306 NE 110th St,Vancouver,WA,98686,650000,5,3.0,Salmon Creek,2647,9874,1979,2,246,,Active,,,https://www.redfin.com/WA/Vancouver/3306-NE-110th-St-98686/home/14585095,NWMLS,2020897,N,Y,45.701039,-122.6367909
MLS Listing,,Single Family Residential,4206 N Winnifred St,Tacoma,WA,98407,685000,4,2.0,Tacoma,1520,5750,1952,3,451,,Active,December-17-2022 11:00 AM,December-17-2022 01:00 PM,https://www.redfin.com/WA/Tacoma/4206-N-Winnifred-St-98407/home/2818937,NWMLS,2022343,N,Y,47.2874682,-122.5126764
MLS Listing,,Single Family Residential,14758 SW 161st Ave,Portland,OR,97224,824900,4,2.5,Portland,3183,6534,2000,3,259,,Active,December-17-2022 11:00 AM,December-17-2022 01:00 PM,https://www.redfin.com/OR/Portland/14758-SW-161st-Ave-97224/home/183352918,RMLS,22698087,N,Y,45.4129527,-122.8417113
MLS Listing,,Single Family Residential,9902 Channel Dr NW,Olympia,WA,98502,675000,3,2.0,Olympia,2090,15402,2006,3,323,149,Active,December-17-2022 10:00 AM,December-17-2022 12:00 PM,https://www.redfin.com/WA/Olympia/9902-Channel-Dr-NW-98502/home/15725413,NWMLS,2020853,N,Y,47.175208853,-122.9369471
MLS Listing,,Single Family Residential,898 Hazeltine Ave SE,Salem,OR,97306,780000,3,2.5,Creekside,2950,8240,1994,3,264,,Active,,,https://www.redfin.com/OR/Salem/898-Hazeltine-Ave-SE-97306/home/26341995,WVMLS,800191,N,Y,44.8678932,-123.0370561
MLS Listing,,Single Family Residential,8101 79th St SW,Lakewood,WA,98498,699950,5,3.0,Lakewood,3128,13340,1965,5,224,,Active,December-17-2022 02:00 PM,December-17-2022 04:00 PM,https://www.redfin.com/WA/Lakewood/8101-79th-St-SW-98498/home/2938275,NWMLS,2022127,N,Y,47.1855266,-122.5450073
MLS Listing,,Condo/Co-op,4009 SW Hwy 101 #338,Lincoln City,OR,97367,339900,1,1.0,INN AT SPANISH HEAD,420,,1969,8,809,760,Active,,,https://www.redfin.com/OR/Lincoln-City/4009-Southeast-Highway-101-97367/unit-338/home/183294277,RMLS,22416323,N,Y,44.9357471,-124.024217
MLS Listing,,Condo/Co-op,23917 12th Pl S #2503,Des Moines,WA,98198,359950,3,1.5,Zenith,1283,,1982,8,281,422,Active,December-18-2022 11:00 AM,December-18-2022 01:00 PM,https://www.redfin.com/WA/Des-Moines/23917-12th-Pl-S-98198/unit-2503/home/8190067,NWMLS,2021523,N,Y,47.388328,-122.317914
MLS Listing,,Single Family Residential,1020 160th St E,Tacoma,WA,98445,525000,3,2.5,Tacoma,1952,21780,1920,9,269,,Active,,,https://www.redfin.com/WA/Tacoma/1020-160th-St-E-98445/home/2579519,NWMLS,2021283,N,Y,47.1113029,-122.4164208
MLS Listing,,Single Family Residential,3826 S 345th St,Auburn,WA,98001,725000,4,4.0,Auburn,2300,14133,1965,9,315,,Active,,,https://www.redfin.com/WA/Auburn/3826-S-345th-St-98001/home/362987,NWMLS,2019002,N,Y,47.2926005,-122.2850483
MLS Listing,,Condo/Co-op,3646 SW Baird St #2,Portland,OR,97219,420000,2,2.0,Eastview Ridge Condominiums,1583,,2008,9,265,397,Active,,,https://www.redfin.com/OR/Portland/3646-SW-Baird-St-97219/unit-2/home/26376229,RMLS,22686855,N,Y,45.4570076,-122.7149319
MLS Listing,,Single Family Residential,6209 Discovery St E,Fife,WA,98424,579950,5,3.0,Radiance,2490,3950,2006,9,233,38,Active,,,https://www.redfin.com/WA/Fife/6209-Discovery-St-E-98424/home/3040269,NWMLS,2020586,N,Y,47.2256296,-122.3473963
MLS Listing,,Condo/Co-op,2015 NW Flanders St #312,Portland,OR,97209,225000,1,1.0,NW 23RD/ALPHABET DISTRICT,578,,1925,9,389,438,Active,,,https://www.redfin.com/OR/Portland/2015-NW-Flanders-St-97209/unit-312/home/26351456,RMLS,22399289,N,Y,45.5257959,-122.6927826
MLS Listing,,Multi-Family (2-4 Unit),25426 97th Pl S,Kent,WA,98030,1500000,6,3.0,Kent,4600,20980,1957,11,326,,Active,,,https://www.redfin.com/WA/Kent/25426-97th-Pl-S-98030/home/2066255,NWMLS,2019787,N,Y,47.3736739,-122.2104167
MLS Listing,,Single Family Residential,22546 Clearland Ln SE,Yelm,WA,98597,340000,2,1.0,Clearwood,858,8468,2020,12,396,150,Active,,,https://www.redfin.com/WA/Yelm/22546-Clearland-Ln-SE-98597/home/77493728,NWMLS,2020836,N,Y,46.827015,-122.464734
MLS Listing,,Single Family Residential,22819 SE Fir St,Black Diamond,WA,98010,975000,5,4.5,Black Diamond,4110,7426,2021,12,237,175,Active,December-17-2022 12:00 PM,December-17-2022 02:00 PM,https://www.redfin.com/WA/Black-Diamond/22819-SE-Fir-St-98010/home/171932701,NWMLS,2019182,N,Y,47.3092274,-122.0376651
MLS Listing,,Single Family Residential,2410 SW 75th Ter,Portland,OR,97225,1449000,4,3.5,WEST SLOPE,3261,6969,2019,15,444,,Active,,,https://www.redfin.com/OR/Portland/2410-SW-75th-Ter-97225/home/169089429,RMLS,22152250,N,Y,45.5027326,-122.7535749
MLS Listing,,Single Family Residential,8514 187th St Ct E,Puyallup,WA,98374,425000,3,2.0,Puyallup,1304,11337,1986,15,326,,Active,December-17-2022 02:00 AM,December-17-2022 04:00 PM,https://www.redfin.com/WA/Puyallup/8514-187th-St-Ct-E-98374/home/2718254,NWMLS,2015307,N,Y,47.085739,-122.315913
MLS Listing,,Single Family Residential,1477 SW Fritz Pl,Aloha,OR,97003,665500,5,3.5,Aloha,2600,5227,1998,15,256,,Active,,,https://www.redfin.com/OR/Aloha/1477-SW-Fritz-Pl-97006/home/26691038,RMLS,22437733,N,Y,45.5090841,-122.8844602
MLS Listing,,Condo/Co-op,320 E 32nd St #108,Tacoma,WA,98404,360000,1,2.0,East Tacoma,1162,,2002,15,310,298,Active,,,https://www.redfin.com/WA/Tacoma/320-E-32nd-St-98404/unit-108/home/3030398,NWMLS,2019590,N,Y,47.2324912,-122.4284444
MLS Listing,,Single Family Residential,4672 Barrington Ln SE,Lacey,WA,98513,419999,2,2.0,Lacey,1259,3804,1995,15,334,115,Active,,,https://www.redfin.com/WA/Olympia/4672-Barrington-Ln-SE-98513/home/15701981,NWMLS,2019767,N,Y,46.9941474,-122.8253169
MLS Listing,,Single Family Residential,19405 NE 22 Cir,Vancouver,WA,98684,825000,5,3.0,Vancouver,3459,10060,2017,15,239,75,Active,,,https://www.redfin.com/WA/Vancouver/19405-NE-22nd-Cir-98684/home/141086083,NWMLS,2018637,N,Y,45.638857,-122.4729655
MLS Listing,,Townhouse,3601 I St SE Unit 7B,Auburn,WA,98002,345000,2,1.5,Auburn,1099,,1981,15,314,400,Active,December-17-2022 12:00 PM,December-17-2022 02:00 PM,https://www.redfin.com/WA/Auburn/3601-I-St-SE-98002/unit-7B/home/70814,NWMLS,2019611,N,Y,47.2772823,-122.2169647
MLS Listing,,Single Family Residential,33225 44th Ave S,Federal Way,WA,98001,625000,4,2.5,Federal Way,2370,4500,2004,15,264,35,Active,,,https://www.redfin.com/WA/Federal-Way/33225-44th-Ave-S-98001/home/2086761,NWMLS,2018371,N,Y,47.3035746,-122.2800537
MLS Listing,,Single Family Residential,33702 51st Ave S,Auburn,WA,98001,449950,3,2.0,Auburn,1960,18840,2009,16,230,,Active,,,https://www.redfin.com/WA/Auburn/33702-51st-Ave-S-98001/home/2061667,NWMLS,2019764,N,Y,47.2997389,-122.270208
MLS Listing,,Single Family Residential,4634 Clark Ave,Keizer,OR,97303,329000,3,2.0,Keizer,1162,7405,1947,16,283,,Active,December-17-2022 11:00 AM,December-17-2022 01:00 PM,https://www.redfin.com/OR/Keizer/4634-Clark-Ave-NE-97303/home/26342008,RMLS,22636240,N,Y,44.9907581,-123.0211334
MLS Listing,,Townhouse,2838 Charlie Ct,Forest Grove,OR,97116,399000,3,2.5,Lincoln Park Village,1723,2178,2004,16,232,235,Active,,,https://www.redfin.com/OR/Forest-Grove/2838-Charlie-Ct-97116/home/25864603,RMLS,22545106,N,Y,45.53025,-123.109888
MLS Listing,,Single Family Residential,1885 19th St NE,Salem,OR,97301,390000,2,2.0,Kay's Addition,1876,6850,1943,16,208,,Active,,,https://www.redfin.com/OR/Salem/1885-19th-St-NE-97301/home/26293789,WVMLS,800092,N,Y,44.9518847,-123.0093702
MLS Listing,,Townhouse,5309 SE 72nd Pl,Portland,OR,97206,489900,2,2.5,MT SCOTT - ARLETA,1409,1742,,16,348,50,Active,,,https://www.redfin.com/OR/Portland/5309-SE-72nd-Pl-97206/home/113029348,RMLS,22333160,N,Y,45.4841685,-122.5884723
MLS Listing,,Single Family Residential,5001 SE Chase Rd,Gresham,OR,97080,475000,3,2.0,Gresham,1878,22215,1949,17,253,,Active,,,https://www.redfin.com/OR/GRESHAM/5001-SE-CHASE-RD-97080/home/26481248,RMLS,22197796,N,Y,45.479068,-122.382599
MLS Listing,,Single Family Residential,5701 S Cheyenne St,Tacoma,WA,98409,450000,3,2.0,South Tacoma,1176,5625,1986,17,383,,Active,,,https://www.redfin.com/WA/Tacoma/5701-S-Cheyenne-St-98409/home/2921500,NWMLS,2011966,N,Y,47.2053367,-122.497933
MLS Listing,,Single Family Residential,2518 163rd Street Ct E,Tacoma,WA,98445,519950,4,2.5,Spanaway,2314,4495,2012,17,225,25,Active,,,https://www.redfin.com/WA/Tacoma/2518-163rd-St-Ct-E-98445/home/11895773,NWMLS,2019746,N,Y,47.107556,-122.3959644
MLS Listing,,Single Family Residential,18810 Melissa Ave,Sandy,OR,97055,615000,4,2.5,Shaylee Meadows,2304,7405,2022,17,267,,Active,,,https://www.redfin.com/OR/Sandy/18810-Melissa-Ave-97055/home/177304100,RMLS,22279348,N,Y,45.3868461,-122.2771669
MLS Listing,,Condo/Co-op,5841 SE Columbia Way #104,Vancouver,WA,98661,1299000,3,2.5,Downtown Vancouver,2356,,2010,17,551,1210,Active,,,https://www.redfin.com/WA/Vancouver/5841-SE-Columbia-Way-98661/unit-104/home/25733430,NWMLS,2019262,N,Y,45.612501,-122.608699
MLS Listing,,Single Family Residential,20326 131st Pl SE,Kent,WA,98031,810000,5,3.5,Kent,2799,18312,1993,18,289,,Active,,,https://www.redfin.com/WA/Kent/20326-131st-Pl-SE-98031/home/222324,NWMLS,2018346,N,Y,47.4208103,-122.1663713
MLS Listing,,Condo/Co-op,25 N Broadway St #304,Tacoma,WA,98403,320000,1,1.0,Stadium District,700,,1988,18,457,297,Active,,,https://www.redfin.com/WA/Tacoma/25-N-Broadway-St-98403/unit-304/home/21677030,NWMLS,2019302,N,Y,47.2651593,-122.4475791
MLS Listing,,Single Family Residential,11920 150th Street Ct E,Puyallup,WA,98374,490000,3,2.0,Puyallup,1746,10640,1983,19,281,,Active,,,https://www.redfin.com/WA/South-Hill/11920-150th-St-Ct-E-98374/home/2972226,NWMLS,2018364,N,Y,47.1194483,-122.2701998
MLS Listing,,Single Family Residential,3736 NE 36th Ave,Portland,OR,97212,749900,4,3.0,Wilshire-Beaumont,2250,5662,1932,24,333,,Active,,,https://www.redfin.com/OR/Portland/3736-NE-36th-Ave-97212/home/26581542,RMLS,22689816,N,Y,45.5502932,-122.6264044
MLS Listing,,Single Family Residential,1111 Enstad Ln,Silverton,OR,97381,449900,3,2.0,Silverton,1448,9147,2002,24,311,,Active,,,https://www.redfin.com/OR/Silverton/1111-Enstad-Ln-97381/home/26362453,RMLS,22284555,N,Y,44.9965218,-122.7723469
MLS Listing,,Single Family Residential,3201 Loma Ct NE,Tacoma,WA,98422,1645000,4,4.0,Ne Tacoma,5134,12458,1994,24,320,,Active,,,https://www.redfin.com/WA/Tacoma/3201-Loma-Ct-NE-98422/home/2902660,NWMLS,2018434,N,Y,47.2853863,-122.4011864
MLS Listing,,Single Family Residential,4298 NE Castillo Dr,Albany,OR,97321,594000,4,2.5,Albany,2583,11761,2007,24,230,,Active,,,https://www.redfin.com/OR/Albany/4298-NE-Castillo-Dr-97321/home/25764387,RMLS,22149575,N,Y,44.6823278,-123.0645022
MLS Listing,,Single Family Residential,19264 208th Ave SE,Renton,WA,98058,1200000,5,3.0,Spring Lake,4320,430808,1953,25,278,,Active,,,https://www.redfin.com/WA/Renton/19264-208th-Ave-SE-98058/home/391649,NWMLS,2018401,N,Y,47.428152,-122.061146
MLS Listing,,Single Family Residential,9946 SE Elderberry St,Happy Valley,OR,97086,705000,4,2.5,Happy Valley,2590,3920,2020,25,272,53,Active,December-17-2022 12:00 PM,December-17-2022 02:00 PM,https://www.redfin.com/OR/Happy-Valley/9946-SE-Elderberry-St-97086/home/144303448,RMLS,22483910,N,Y,45.4509699,-122.4902121
MLS Listing,,Single Family Residential,9929 67th Avenue Ct E,Puyallup,WA,98373,543000,3,2.0,Puyallup,1300,13375,1968,26,418,,Active,,,https://www.redfin.com/WA/Puyallup/9929-67th-Ave-Ct-E-98373/home/2992990,NWMLS,2017388,N,Y,47.1667539,-122.3391232
MLS Listing,,Single Family Residential,4816 S Sheridan Ave,Tacoma,WA,98408,495000,4,2.5,Tacoma,1670,4627,2006,29,296,,Active,,,https://www.redfin.com/WA/Tacoma/4816-S-Sheridan-Ave-98408/home/11886428,NWMLS,2017840,N,Y,47.2132198,-122.4528546
MLS Listing,,Single Family Residential,7933 22nd Ave SE,Lacey,WA,98503,525000,3,2.5,Lacey,1998,5015,2021,29,263,111,Active,,,https://www.redfin.com/WA/Lacey/7933-22nd-Ave-SE-98503/home/175170304,NWMLS,2017982,N,Y,47.0270141,-122.7706008
MLS Listing,,Single Family Residential,1902 12th Ave,Milton,WA,98354,610000,3,1.0,Milton Heights,2638,8002,1920,29,231,,Active,,,https://www.redfin.com/WA/Milton/1902-12th-Ave-98354/home/2924058,NWMLS,2017727,N,Y,47.2435742,-122.3185364
MLS Listing,,Townhouse,28206 241st Ave SE,Maple Valley,WA,98038,424995,2,1.0,Maple Valley,910,3003,2005,30,467,17,Active,,,https://www.redfin.com/WA/Maple-Valley/28206-241st-Ave-SE-98038/home/2064479,NWMLS,2016668,N,Y,47.3489745,-122.0201358
MLS Listing,,Single Family Residential,401 SE 101ST Ave,Vancouver,WA,98664,399000,3,2.0,Vancouver,1152,8054,1951,30,346,,Active,,,https://www.redfin.com/WA/Vancouver/401-SE-101st-Ave-98664/home/14679250,NWMLS,2014868,N,Y,45.6186726,-122.5689604
MLS Listing,,Single Family Residential,2315 NE 82nd St,Vancouver,WA,98665,615000,4,2.5,Hazel Dell,2543,6308,2021,30,242,,Active,,,https://www.redfin.com/WA/Vancouver/2315-NE-82nd-St-98665/home/174289839,NWMLS,2014836,N,Y,45.6814052,-122.6470412
MLS Listing,,Single Family Residential,825 W X St,Washougal,WA,98671,738000,5,2.5,Washougal,2789,6403,2012,30,265,70,Active,December-17-2022 11:00 AM,December-17-2022 02:00 PM,https://www.redfin.com/WA/Washougal/825-W-X-St-98671/home/44612651,NWMLS,2015937,N,Y,45.5944058,-122.38018
MLS Listing,,Single Family Residential,4220 SE Yamhill St,Portland,OR,97215,465000,2,1.0,Portland,1872,2613,1890,31,248,,Active,,,https://www.redfin.com/OR/Portland/4220-SE-Yamhill-St-97215/home/25742473,RMLS,22172366,N,Y,45.5156676,-122.618874
MLS Listing,,Single Family Residential,510 NW 146th Way,Vancouver,WA,98685,530000,4,2.5,Salmon Creek,2116,5080,2002,31,250,,Active,,,https://www.redfin.com/WA/Vancouver/510-NW-146th-Way-98685/home/14631281,NWMLS,2016493,N,Y,45.7273338,-122.6755999
MLS Listing,,Single Family Residential,2404 NW 15th St,Battle Ground,WA,98604,517000,4,2.5,Battle Ground,1972,5460,2004,31,262,,Active,,,https://www.redfin.com/WA/Battle-Ground/2404-NW-15th-St-98604/home/14592548,NWMLS,2015212,N,Y,45.791336,-122.5627878
MLS Listing,,Single Family Residential,5023 S Oakes St,Tacoma,WA,98409,434950,4,2.0,South Tacoma,1972,6000,1920,32,221,,Active,,,https://www.redfin.com/WA/Tacoma/5023-S-Oakes-St-98409/home/2969598,NWMLS,2016805,N,Y,47.2110225,-122.472113
MLS Listing,,Single Family Residential,10308 SE French Rd,Vancouver,WA,98664,599000,3,2.0,Heights,2060,6081,2014,32,291,,Active,,,https://www.redfin.com/WA/Vancouver/10308-SE-French-Rd-98664/home/25882785,NWMLS,2004425,N,Y,45.6076364,-122.5662802
MLS Listing,,Single Family Residential,875 NW Ash St,Mcminnville,OR,97128,455900,3,2.0,McMinnville,1676,7840,1982,33,272,,Active,,,https://www.redfin.com/OR/McMinnville/875-NW-Ash-St-97128/home/26755633,RMLS,22600485,N,Y,45.2108054,-123.2070847
MLS Listing,,Single Family Residential,15960 SW Lake Forest Blvd,Lake Oswego,OR,97035,609900,3,1.0,Lake Oswego,1080,27007,1956,33,565,,Active,December-18-2022 12:00 PM,December-18-2022 02:00 PM,https://www.redfin.com/OR/Lake-Oswego/15960-SW-Lake-Forest-Blvd-97035/home/26011200,RMLS,22516430,N,Y,45.410619,-122.7417371
MLS Listing,,Single Family Residential,1925 Tualatin St,St. Helens,OR,97051,320000,4,1.0,St. Helens,1170,5662,1950,36,274,,Active,,,https://www.redfin.com/OR/St-Helens/1925-Tualatin-St-97051/home/25857679,RMLS,22634263,N,Y,45.8559001,-122.8159343
MLS Listing,,Single Family Residential,10612 SW London Ln,Wilsonville,OR,97070,774900,5,3.0,Wilsonville,2653,5227,2013,36,292,150,Active,,,https://www.redfin.com/OR/Wilsonville/10612-SW-London-Ln-97070/home/25975658,RMLS,22587136,N,Y,45.3077284,-122.7864824
MLS Listing,,Single Family Residential,34323 Hawk Hl,Philomath,OR,97370,675000,4,2.5,Wren Hill Estates,2354,107157,2019,36,287,,Active,December-18-2022 01:00 PM,December-18-2022 03:00 PM,https://www.redfin.com/OR/Philomath/34323-Hawk-Hill-Rd-97370/home/165613020,WVMLS,799686,N,Y,44.5635732,-123.4131223
MLS Listing,,Single Family Residential,7705 NE 55th Ave,Vancouver,WA,98661,475000,3,2.0,Walnut Grove,1227,6534,1990,36,387,,Active,,,https://www.redfin.com/WA/Vancouver/7705-NE-55th-Ave-98661/home/14634386,NWMLS,2015010,N,Y,45.6780905,-122.6154052
MLS Listing,,Single Family Residential,3142 Cardinal Dr NW,Olympia,WA,98502,575000,4,2.5,Cooper Point,2554,8198,2003,37,225,26,Active,,,https://www.redfin.com/WA/Olympia/3142-Cardinal-Dr-NW-98502/home/15679775,NWMLS,2015761,N,Y,47.078299,-122.9628284
MLS Listing,,Single Family Residential,6623 S Junett St,Tacoma,WA,98409,410000,3,2.0,South Tacoma,1180,6000,1922,37,347,,Active,,,https://www.redfin.com/WA/Tacoma/6623-S-Junett-St-98409/home/2979746,NWMLS,2015377,N,Y,47.196506,-122.4740549
MLS Listing,,Single Family Residential,2503 SE Yamhill St,Portland,OR,97214,749900,4,1.0,BUCKMAN / BELMONT,2880,3920,1923,37,260,,Active,,,https://www.redfin.com/OR/Portland/2503-SE-Yamhill-St-97214/home/26491446,RMLS,22452557,N,Y,45.5159189,-122.6399397
MLS Listing,,Townhouse,20819 SW Skiver St,Beaverton,OR,97078,415000,3,2.5,Beaverton,1456,1742,2004,37,285,230,Active,,,https://www.redfin.com/OR/Beaverton/20819-SW-Skiver-St-97007/home/26707890,RMLS,22241834,N,Y,45.473979,-122.893265
MLS Listing,,Condo/Co-op,2530 NE Killingsworth St #4,Portland,OR,97211,299000,2,1.0,Portland,791,,1948,37,378,330,Active,,,https://www.redfin.com/OR/Portland/2530-NE-Killingsworth-St-97211/unit-4/home/26443597,RMLS,22680311,N,Y,45.5623852,-122.6396234
MLS Listing,,Single Family Residential,3237 Ridge Pointe Dr,Forest Grove,OR,97116,725000,4,3.0,Forest Grove,2879,13503,2004,37,252,,Active,,,https://www.redfin.com/OR/Forest-Grove/3237-Ridge-Pointe-Dr-97116/home/26703211,RMLS,22463080,N,Y,45.5339001,-123.1503678
MLS Listing,,Single Family Residential,167 Stone Mill Rd,Kalama,WA,98625,559000,4,2.5,Kalama,2080,87120,2019,37,269,,Active,,,https://www.redfin.com/WA/Kalama/167-Stone-Mill-Rd-98625/home/21629139,NWMLS,2015289,N,Y,46.0187673,-122.8339442
MLS Listing,,Single Family Residential,3813 E Q St,Tacoma,WA,98404,470000,3,2.5,Se Tacoma,2024,3540,2005,38,232,100,Active,,,https://www.redfin.com/WA/Tacoma/3813-E-Q-St-98404/home/3042674,NWMLS,2014926,N,Y,47.2217538,-122.4054076
MLS Listing,,Single Family Residential,4818 NE Halsey St,Portland,OR,97213,749000,6,3.0,Portland,2544,5662,1927,38,294,,Active,,,https://www.redfin.com/OR/Portland/4818-NE-Halsey-St-97213/home/182610743,RMLS,22529958,N,Y,45.5335797,-122.6135136
MLS Listing,,Single Family Residential,24027 141st Ln SE,Kent,WA,98042,910000,5,3.0,Kent,3030,5862,2019,38,300,132,Active,,,https://www.redfin.com/WA/Kent/24027-141st-Ln-SE-98042/home/170483734,NWMLS,2015190,N,Y,47.3860423,-122.1533379
MLS Listing,,Single Family Residential,5926 NE Weller Ct,Hillsboro,OR,97124,699900,4,3.0,Hillsboro,2377,6098,2002,39,294,,Active,,,https://www.redfin.com/OR/Hillsboro/5926-NE-Weller-Ct-97124/home/26696628,RMLS,22126222,N,Y,45.5223375,-122.9203483
MLS Listing,,Single Family Residential,27811 215th Pl SE,Maple Valley,WA,98038,615000,3,2.5,Maple Valley,1610,6500,1992,42,382,22,Active,December-17-2022 02:00 PM,December-17-2022 04:00 PM,https://www.redfin.com/WA/Maple-Valley/27811-215th-Pl-SE-98038/home/369714,NWMLS,2011409,N,Y,47.3520388,-122.0546053
MLS Listing,,Single Family Residential,1221 NE 194th Ct,Portland,OR,97230,475000,3,2.5,Portland,1760,6969,1973,43,270,,Active,,,https://www.redfin.com/OR/Portland/1221-NE-194th-Ct-97230/home/26487223,RMLS,22022431,N,Y,45.531681,-122.4634105
MLS Listing,,Single Family Residential,5228 54th Ave SE,Lacey,WA,98503,475000,4,2.5,Lacey,1978,3040,2012,44,240,3,Active,,,https://www.redfin.com/WA/Lacey/5228-54th-Ave-SE-98503/home/39926988,NWMLS,2013984,N,Y,46.999902,-122.8178833
MLS Listing,,Single Family Residential,7713 38th Ct SE,Lacey,WA,98503,515000,3,2.5,Lacey,1880,11704,1994,44,274,18,Active,,,https://www.redfin.com/WA/Lacey/7713-38th-Ct-SE-98503/home/15706240,NWMLS,2014018,N,Y,47.0129184,-122.7756351
MLS Listing,,Single Family Residential,428 Green Acres Pl,Algona,WA,98001,585000,4,2.5,Algona,1921,4950,2009,44,305,,Active,,,https://www.redfin.com/WA/ALGONA/428-GREEN-ACRES-PL-98001/home/22459296,NWMLS,2006615,N,Y,47.268922,-122.240359
MLS Listing,,Single Family Residential,21555 SE 290th Pl,Kent,WA,98042,599950,4,2.5,Lake Sawyer,2390,4019,2010,45,251,58,Active,,,https://www.redfin.com/WA/Kent/21555-SE-290th-Pl-98042/home/12318129,NWMLS,2013130,N,Y,47.3412382,-122.0550287
MLS Listing,,Single Family Residential,18753 132nd St E,Bonney Lake,WA,98391,646000,4,2.0,Bonney Lake,1726,5625,2021,45,374,75,Active,,,https://www.redfin.com/WA/Bonney-Lake/18753-132nd-St-E-98391/home/173318907,NWMLS,2010869,N,Y,47.1378144,-122.1800742
MLS Listing,,Mobile/Manufactured Home,834 Mountain Villa Dr,Enumclaw,WA,98022,157000,2,2.0,Enumclaw,960,,2020,46,164,,Active,,,https://www.redfin.com/WA/Enumclaw/834-Mountain-Villa-Dr-98022/home/179608278,NWMLS,2012453,N,Y,47.1959849,-121.9865695
MLS Listing,,Single Family Residential,3102 Winkel Way,West Linn,OR,97068,899900,4,3.0,West Linn,2905,6969,2011,50,310,40,Active,,,https://www.redfin.com/OR/West-Linn/3102-Winkel-Way-97068/home/26091308,RMLS,22690984,N,Y,45.3622076,-122.6374831
MLS Listing,,Single Family Residential,8414 172nd Street Ct E,Puyallup,WA,98375,520000,3,2.5,Puyallup,2244,6201,2003,50,232,42,Active,,,https://www.redfin.com/WA/Puyallup/8414-172nd-St-Ct-E-98375/home/3006867,NWMLS,2011642,N,Y,47.0996255,-122.3167261
MLS Listing,,Single Family Residential,5006 N Commercial Ave,Portland,OR,97217,565000,3,1.0,Portland,2116,4791,1944,50,267,,Active,,,https://www.redfin.com/OR/Portland/5006-N-Commercial-Ave-97217/home/25765920,RMLS,22311730,N,Y,45.5592238,-122.6708967
MLS Listing,,Single Family Residential,1438 E 34th St,Tacoma,WA,98404,319999,2,1.0,East Tacoma,670,5850,1942,50,478,,Active,,,https://www.redfin.com/WA/Tacoma/1438-E-34th-St-98404/home/2845502,NWMLS,2011991,N,Y,47.2324539,-122.4101148
MLS Listing,,Single Family Residential,645 25th St SE,Salem,OR,97301,315000,2,1.0,Simpson Add,656,7250,1910,50,480,,Active,,,https://www.redfin.com/OR/Salem/645-25th-St-SE-97301/home/26396584,WVMLS,799289,N,Y,44.9287461,-123.0109879
MLS Listing,,Townhouse,2904 28th St SE,Auburn,WA,98092,449999,2,2.5,Forest Villa,2040,1898,1978,50,221,400,Active,,,https://www.redfin.com/WA/Auburn/2904-28th-St-SE-98092/home/215410,NWMLS,2011615,N,Y,47.2852443,-122.1901765
MLS Listing,,Single Family Residential,2624 NE 130th Ct,Vancouver,WA,98684,435000,3,2.5,Evergreen Highway,1624,2249,2016,50,268,55,Active,,,https://www.redfin.com/WA/Vancouver/2624-NE-130th-Ct-98684/home/102252174,NWMLS,2008854,N,Y,45.6415983,-122.5396514
MLS Listing,,Townhouse,1631 SW 172nd Ter,Beaverton,OR,97003,420000,3,2.5,Beaverton,1444,1306,2005,51,291,280,Active,,,https://www.redfin.com/OR/Beaverton/1631-SW-172nd-Ter-97006/home/26721841,RMLS,22558614,N,Y,45.5079199,-122.8540566
MLS Listing,,Single Family Residential,6442 Casper Dr N,Keizer,OR,97303,750000,2,2.5,McNary Estates Phase 18,2670,8366,2001,51,281,,Active,,,https://www.redfin.com/OR/Keizer/6442-Casper-Dr-N-97303/home/26320363,WVMLS,799240,N,Y,45.0132255,-123.0318998
MLS Listing,,Single Family Residential,1111 Northcliff Rd,Shelton,WA,98584,530000,3,3.0,Shelton,3050,30928,1956,51,174,,Active,,,https://www.redfin.com/WA/Shelton/1111-Northcliff-Rd-98584/home/179740605,NWMLS,2010882,N,Y,47.2204827,-123.1046362
MLS Listing,,Single Family Residential,10815 Broadway Ave S,Tacoma,WA,98444,399000,3,1.5,Tacoma,1658,10000,1924,51,241,,Active,,,https://www.redfin.com/WA/Tacoma/10815-Broadway-Ave-S-98444/home/2801660,NWMLS,2003537,N,Y,47.1587091,-122.4394519
MLS Listing,,Single Family Residential,17260 SW 108th Ave,Tualatin,OR,97062,719900,3,2.5,Tualatin,2800,6969,2005,51,257,,Active,January-7-2023 11:00 AM,January-7-2023 01:00 PM,https://www.redfin.com/OR/Tualatin/17260-SW-108th-Ave-97062/home/26647631,RMLS,22296138,N,Y,45.3949278,-122.7872535
MLS Listing,,Single Family Residential,112 SE 78th Ave,Portland,OR,97215,699900,6,2.0,Montavilla,1624,4791,1961,51,431,,Active,,,https://www.redfin.com/OR/Portland/112-SE-78th-Ave-97215/home/182511898,RMLS,22668186,N,Y,45.5217991,-122.5832849
MLS Listing,,Single Family Residential,13434 SE 124th Ave,Clackamas,OR,97015,599900,3,3.0,Clackamas,2025,10454,1978,51,296,,Active,,,https://www.redfin.com/OR/Clackamas/13434-SE-124th-Ave-97015/home/26016122,RMLS,22509779,N,Y,45.4255183,-122.5358788
MLS Listing,,Single Family Residential,2869 Mayfly Ave,Salem,OR,97304,614000,5,3.0,Salem,2188,7405,2014,53,281,15,Active,December-17-2022 01:00 PM,December-17-2022 04:00 PM,https://www.redfin.com/OR/Salem/2869-Mayfly-Ave-NW-97304/home/26460871,RMLS,22059320,N,Y,44.9589693,-123.0882979
MLS Listing,,Single Family Residential,5441 S 372nd St,Auburn,WA,98001,540000,2,2.0,Jovita Heights,1392,19680,1986,54,388,,Active,,,https://www.redfin.com/WA/Auburn/5441-S-372nd-St-98001/home/364715,NWMLS,2010732,N,Y,47.2681367,-122.2656567
MLS Listing,,Single Family Residential,910 N Stevens St,Tacoma,WA,98406,599950,5,3.5,North Tacoma,2640,5000,1971,54,227,,Active,,,https://www.redfin.com/WA/Tacoma/910-N-Stevens-St-98406/home/2965041,NWMLS,2010357,N,Y,47.2584485,-122.4965257
MLS Listing,,Single Family Residential,11723 194th Street Ct E,Graham,WA,98338,1150000,3,2.0,Graham,1730,435600,1998,57,665,,Active,,,https://www.redfin.com/WA/Graham/11723-194th-St-Ct-E-98338/home/2649038,NWMLS,2009249,N,Y,47.08069,-122.273041
MLS Listing,,Single Family Residential,14313 SW Aynsley Way,Tigard,OR,97224,750000,5,2.5,BARRINGTON HEIGHTS,3150,8712,1992,57,238,12,Active,December-18-2022 11:00 AM,December-18-2022 01:00 PM,https://www.redfin.com/OR/Portland/14313-SW-Aynsley-Way-97224/home/26623357,RMLS,22543944,N,Y,45.4068316,-122.8241568
MLS Listing,,Single Family Residential,33209 Glacier Ave SE,Black Diamond,WA,98010,799000,5,3.5,Black Diamond,3120,4639,2019,57,256,130,Active,,,https://www.redfin.com/WA/Black-Diamond/33209-Glacier-Ave-SE-98010/home/145710037,NWMLS,2010267,N,Y,47.3047375,-122.0244191
MLS Listing,,Single Family Residential,273 Dolphin Ave NE,Ocean Shores,WA,98569,475000,3,2.0,Ocean Shores,1491,12763,2020,57,319,,Active,,,https://www.redfin.com/WA/Ocean-Shores/273-Dolphin-Ave-NE-98569/home/14773066,NWMLS,2009276,N,Y,46.990586,-124.153285
MLS Listing,,Condo/Co-op,8100 NE 104th Cir #4,Vancouver,WA,98662,339000,3,2.5,Vancouver,1415,,2002,57,240,283,Active,,,https://www.redfin.com/WA/Vancouver/8100-NE-104th-Cir-98662/unit-4/home/14643439,NWMLS,2004641,N,Y,45.697073,-122.590363
MLS Listing,,Single Family Residential,16611 140th Ave E,Puyallup,WA,98374,1900000,5,3.5,Puyallup,6160,1138,2023,58,308,,Active,,,https://www.redfin.com/WA/Puyallup/16611-140th-Ave-E-98374/home/22092456,NWMLS,2009849,N,Y,47.105029,-122.243756
MLS Listing,,Single Family Residential,7807 SE Ogden St,Portland,OR,97206,399900,3,1.0,Portland,876,11325,1938,58,457,,Active,,,https://www.redfin.com/OR/Portland/7807-SE-Ogden-St-97206/home/26499396,RMLS,22026288,N,Y,45.4712785,-122.5827381
MLS Listing,,Single Family Residential,9307 S 237th Pl,Kent,WA,98031,760000,4,2.5,Kent,2560,9873,1991,58,297,,Active,,,https://www.redfin.com/WA/Kent/9307-S-237th-Pl-98031/home/386476,NWMLS,2007674,N,Y,47.388797,-122.2163784
MLS Listing,,Condo/Co-op,1234 SW 18th Ave #208,Portland,OR,97205,400000,1,1.0,GOOSE HOLLOW / THE JEFFERSON,825,,2008,58,485,482,Active,,,https://www.redfin.com/OR/Portland/1234-SW-18th-Ave-97201/unit-208/home/25744711,RMLS,22189927,N,Y,45.5181302,-122.6922737
MLS Listing,,Single Family Residential,585 Lorida St S,Salem,OR,97302,675000,6,3.0,Sunrise Heights,3622,12482,1955,58,186,,Active,,,https://www.redfin.com/OR/Salem/585-Lorida-St-S-97302/home/26350950,WVMLS,798921,N,Y,44.9174442,-123.0527565
MLS Listing,,Single Family Residential,11104 Lundstrom Dr SW,Lakewood,WA,98498,485000,3,1.5,Lakewood,1420,11050,1960,58,342,,Active,,,https://www.redfin.com/WA/Lakewood/11104-Lundstrom-Dr-SW-98498/home/2802658,NWMLS,2007736,N,Y,47.1566117,-122.5601444
MLS Listing,,Single Family Residential,3615 Auburn Way S Unit B,Auburn,WA,98092,360000,2,2.5,Green Valley,1136,1,2000,59,317,150,Active,,,https://www.redfin.com/WA/Auburn/3615-Auburn-Way-S-98092/unit-B/home/175999225,NWMLS,2009248,N,Y,47.2880039,-122.1788229
MLS Listing,,Condo/Co-op,13203 97th Ave E #303,Puyallup,WA,98373,240000,1,1.0,Puyallup,710,,2008,59,338,325,Active,,,https://www.redfin.com/WA/Puyallup/13203-97th-Ave-E-98373/unit-303/home/23101418,NWMLS,2008205,N,Y,47.136501,-122.299114
MLS Listing,,Single Family Residential,6323 SW Flower St,Portland,OR,97221,899900,5,3.5,Portland,3400,11761,1995,60,265,,Active,,,https://www.redfin.com/OR/Portland/6323-S-Flower-St-97221/home/26497251,RMLS,22548610,N,Y,45.4836025,-122.742202
MLS Listing,,Condo/Co-op,12600 NW Barnes Rd #8,Portland,OR,97229,225000,2,1.0,Portland,812,,1979,62,277,506,Active,,,https://www.redfin.com/OR/Portland/12600-NW-Barnes-Rd-97229/unit-8/home/26669718,RMLS,22671194,N,Y,45.5226839,-122.8062429
MLS Listing,,Single Family Residential,4404 Pacific St SW,Lakewood,WA,98499,387999,3,2.0,Lakewood,1008,9000,1954,64,385,,Active,,,https://www.redfin.com/WA/Lakewood/4404-Pacific-St-SW-98499/home/2894807,NWMLS,1987508,N,Y,47.1622467,-122.4955061
MLS Listing,,Condo/Co-op,1830 NW Riverscape St #601,Portland,OR,97209,445000,1,1.0,PACIFICA,833,,2008,64,534,483,Active,,,https://www.redfin.com/OR/Portland/1830-NW-Riverscape-St-97209/unit-601/home/26644648,RMLS,22366281,N,Y,45.5389466,-122.6889231
MLS Listing,,Single Family Residential,9915 NE 115th Ave,Vancouver,WA,98662,495000,3,2.5,Vancouver,2156,5565,2002,64,230,,Active,,,https://www.redfin.com/WA/Vancouver/9915-NE-115th-Ave-98662/home/14631300,NWMLS,2002407,N,Y,45.6940997,-122.5549755
MLS Listing,,Single Family Residential,2916 45th St NE,Tacoma,WA,98422,585000,3,2.5,Browns Point,1638,6301,1995,65,357,5,Active,,,https://www.redfin.com/WA/Tacoma/2916-45th-St-NE-98422/home/2867415,NWMLS,2005705,N,Y,47.297207,-122.4075474
MLS Listing,,Single Family Residential,6317 119th St E,Puyallup,WA,98373,504950,4,3.0,Puyallup,1925,5867,2001,65,262,8,Active,,,https://www.redfin.com/WA/Puyallup/6317-119th-St-E-98373/home/2997526,NWMLS,2005736,N,Y,47.1486203,-122.3445494
MLS Listing,,Single Family Residential,1606 Hanover Dr SE,Lacey,WA,98503,484999,3,2.0,Lacey,1622,11916,1978,65,299,15,Active,,,https://www.redfin.com/WA/Lacey/1606-Hanover-Dr-SE-98503/home/15724477,NWMLS,2004241,N,Y,47.0317537,-122.8052728
MLS Listing,,Single Family Residential,904 NW 4th Ave,Camas,WA,98607,695000,4,2.5,Camas,1888,14810,1942,65,368,,Active,,,https://www.redfin.com/WA/Camas/904-NW-4th-Ave-98607/home/14652323,NWMLS,2000702,N,Y,45.5819347,-122.41975
MLS Listing,,Single Family Residential,11312 109th St,Anderson Island,WA,98303,574000,3,2.5,Lake Josephine,3026,17380,1992,66,190,92,Active,December-18-2022 12:00 PM,December-18-2022 03:00 PM,https://www.redfin.com/WA/Anderson-Island/11312-109th-St-98303/home/2881736,NWMLS,2006779,N,Y,47.1582561,-122.6895268
MLS Listing,,Single Family Residential,24615 102nd Pl SE,Kent,WA,98030,699000,5,3.5,East Hill,2470,5700,2001,66,283,,Active,,,https://www.redfin.com/WA/Kent/24615-102nd-Pl-SE-98030/home/396208,NWMLS,2006721,N,Y,47.3812035,-122.2046481
MLS Listing,,Single Family Residential,9225 195th St Ct E,Graham,WA,98338,489500,3,2.5,Graham,2046,6771,2011,66,239,,Active,,,https://www.redfin.com/WA/Graham/9225-195th-St-Ct-E-98338/home/25690848,NWMLS,2006643,N,Y,47.0791863,-122.306028
MLS Listing,,Single Family Residential,3004 NE 145th Ave,Vancouver,WA,98682,510000,4,2.5,Cascade Park,2084,6479,1998,67,245,,Active,,,https://www.redfin.com/WA/Vancouver/3004-NE-145th-Ave-98682/home/14623934,NWMLS,2005042,N,Y,45.6440694,-122.5240582
MLS Listing,,Single Family Residential,17450 SW Sarala St,Beaverton,OR,97007,675000,4,2.5,Beaverton,2759,6098,1995,67,245,,Active,,,https://www.redfin.com/OR/Beaverton/17450-SW-Sarala-St-97007/home/26682724,RMLS,22016018,N,Y,45.4625892,-122.8560204
MLS Listing,,Single Family Residential,7909 90th Ave SW,Lakewood,WA,98498,635000,4,3.0,Tacoma,2135,8951,1969,68,297,,Active,,,https://www.redfin.com/WA/Lakewood/7909-90th-Ave-SW-98498/home/2938897,NWMLS,2005314,N,Y,47.1850859,-122.5560117
MLS Listing,,Single Family Residential,8013 SE 140th Dr,Portland,OR,97236,775000,5,3.0,Portland,3050,8712,2016,70,254,15,Active,,,https://www.redfin.com/OR/Portland/8013-SE-140th-Dr-97236/home/49685202,RMLS,22312792,N,Y,45.4651351,-122.520443
MLS Listing,,Townhouse,3434 SE Pepperwood Way,Hillsboro,OR,97123,425000,4,2.5,Hillsboro,1856,1306,2008,71,229,181,Active,,,https://www.redfin.com/OR/Hillsboro/3434-SE-Pepperwood-Way-97123/home/26735743,RMLS,22383586,N,Y,45.4956309,-122.9320545
MLS Listing,,Single Family Residential,3565 Sunset Dr W,University Place,WA,98466,1150000,5,4.5,University Place,3193,14165,2017,71,360,,Active,,,https://www.redfin.com/WA/University-Place/3565-Sunset-Dr-W-98466/home/2469005,NWMLS,2005232,N,Y,47.2266116,-122.544748
MLS Listing,,Single Family Residential,3336 Hoffman Hill Blvd,Dupont,WA,98327,524950,4,2.5,Dupont,1792,2784,2019,71,293,89,Active,,,https://www.redfin.com/WA/DuPont/3336-Hoffman-Hill-Blvd-98327/home/147023457,NWMLS,2004109,N,Y,47.0896312,-122.6800193
MLS Listing,,Single Family Residential,12395 SW Fielding Ct,Beaverton,OR,97008,585000,3,2.0,GREENWAY,1610,10454,1978,71,363,,Active,,,https://www.redfin.com/OR/Beaverton/12395-SW-Fielding-Ct-97008/home/26695621,RMLS,22518794,N,Y,45.457322,-122.8049636
MLS Listing,,Single Family Residential,3437 NE 126th Ave,Portland,OR,97230,565000,4,3.0,ARGAY TERRACE,3180,9147,1961,71,178,,Active,,,https://www.redfin.com/OR/Portland/3437-NE-126th-Ave-97230/home/26360333,RMLS,22554901,N,Y,45.5478274,-122.5339135
MLS Listing,,Single Family Residential,9017 189th St E,Puyallup,WA,98375,499950,4,2.5,Puyallup,2050,5000,2003,72,244,50,Active,,,https://www.redfin.com/WA/Puyallup/9017-189th-St-E-98375/home/3003740,NWMLS,2002415,N,Y,47.0843021,-122.3083628
MLS Listing,,Mobile/Manufactured Home,2611 S 288th St #21,Federal Way,WA,98003,125000,3,2.0,Federal Way,1296,,1991,72,96,,Active,,,https://www.redfin.com/WA/Federal-Way/2611-S-288th-St-98003/unit-21/home/22226,NWMLS,1999022,N,Y,47.3431911,-122.2985899
MLS Listing,,Single Family Residential,16721 SW Juliann Ln,Beaverton,OR,97007,699900,3,2.5,SUMMERCREST SOUTH,2368,8276,1992,72,296,,Active,,,https://www.redfin.com/OR/Aloha/16721-SW-Juliann-Ln-97007/home/25743662,RMLS,22298897,N,Y,45.4605283,-122.8491649
MLS Listing,,Single Family Residential,24020 139th Pl SE,Kent,WA,98042,1010000,4,3.0,Kent,3064,7396,2018,73,330,200,Active,,,https://www.redfin.com/WA/Kent/24020-139th-Pl-SE-98042/home/144466552,NWMLS,1993759,N,Y,47.3863442,-122.1553406
MLS Listing,,Single Family Residential,7217 Topaz Ct SW,Lakewood,WA,98498,725000,4,2.5,Lakewood,2193,26236,2022,74,331,1,Active,,,https://www.redfin.com/WA/Tacoma/7217-Topaz-Ct-SW-98498/home/22757278,NWMLS,2003543,N,Y,47.196713,-122.534349
MLS Listing,,Single Family Residential,29740 174th Ave SE,Kent,WA,98042,715000,4,2.5,Covington,2820,21671,1983,75,254,,Active,,,https://www.redfin.com/WA/Kent/29740-174th-Ave-SE-98042/home/381917,NWMLS,1998904,N,Y,47.3343406,-122.1089479
MLS Listing,,Single Family Residential,10119 NE 37th St,Vancouver,WA,98662,465000,3,2.0,Heights,1444,9994,1974,78,322,,Active,,,https://www.redfin.com/WA/Vancouver/10119-NE-37th-St-98662/home/14599866,NWMLS,2000840,N,Y,45.6496692,-122.5683243
MLS Listing,,Single Family Residential,6802 SW 33rd Pl,Portland,OR,97219,710000,3,2.5,Portland,2320,13939,1920,79,306,,Active,,,https://www.redfin.com/OR/Portland/6802-SW-33rd-Pl-97219/home/26428254,RMLS,22150048,N,Y,45.4753819,-122.7106393
MLS Listing,,Multi-Family (2-4 Unit),561 47th Ct SE,Salem,OR,97317,429000,4,2.0,Lincoln Park #3,1800,8000,1970,79,238,,Active,,,https://www.redfin.com/OR/Salem/561-47th-Ct-SE-97317/home/26292547,WVMLS,798387,N,Y,44.922539,-122.967014
MLS Listing,,Single Family Residential,6635 SE Woodstock Blvd,Portland,OR,97206,400000,2,1.0,Portland,720,4791,1953,79,556,,Active,,,https://www.redfin.com/OR/Portland/6635-SE-Woodstock-Blvd-97206/home/26518721,RMLS,22015457,N,Y,45.4793736,-122.5951228
MLS Listing,,Single Family Residential,201 W Alder St,Shelton,WA,98584,399000,3,2.0,Downtown,1450,3920,1935,79,275,,Active,,,https://www.redfin.com/WA/Shelton/201-W-Alder-St-98584/home/16730592,NWMLS,2000927,N,Y,47.2158392,-123.1008181
MLS Listing,,Single Family Residential,4509 40th St NE,Tacoma,WA,98422,599000,3,2.5,Tacoma,1990,6400,1991,79,301,,Active,,,https://www.redfin.com/WA/Tacoma/4509-40th-St-NE-98422/home/2857884,NWMLS,2001118,N,Y,47.2931528,-122.3869893
MLS Listing,,Single Family Residential,17601 SW Jay St,Beaverton,OR,97003,475000,3,2.5,Beaverton,1673,3049,2001,80,284,29,Active,,,https://www.redfin.com/OR/Beaverton/17601-SW-Jay-St-97006/home/26560169,RMLS,22452178,N,Y,45.510501,-122.858263
MLS Listing,,Townhouse,29041 SW Costa Cir,Wilsonville,OR,97070,424900,2,2.5,Wilsonville,1371,,2014,80,310,266,Active,,,https://www.redfin.com/OR/Wilsonville/29041-SW-Costa-Cir-W-97070/home/65668604,RMLS,22544286,N,Y,45.3137259,-122.7939854
MLS Listing,,Single Family Residential,19409 Twinkle Dr E,Spanaway,WA,98387,399000,3,1.0,Spanaway,992,8011,1967,80,402,,Active,,,https://www.redfin.com/WA/Spanaway/19409-Twinkle-Dr-E-98387/home/2774749,NWMLS,2000709,N,Y,47.0803187,-122.4154529
MLS Listing,,Single Family Residential,121 Jumbo Mine Ln,Cle Elum,WA,98922,2500000,5,4.5,Tumble Creek,4219,35284,2007,85,593,380,Active,,,https://www.redfin.com/WA/Cle-Elum/121-Jumbo-Mine-Ln-98922/home/16785305,NWMLS,1999710,N,Y,47.210368,-121.0422966
MLS Listing,,Single Family Residential,1898 Overview Dr NE,Tacoma,WA,98422,777950,3,2.0,Browns Point,1895,8200,1987,86,411,,Active,,,https://www.redfin.com/WA/Tacoma/1898-Overview-Dr-NE-98422/home/2779745,NWMLS,1998813,N,Y,47.3102054,-122.418137
MLS Listing,,Single Family Residential,8721 161st St E,Puyallup,WA,98375,530000,4,2.5,Puyallup,1994,6546,2001,86,266,27,Active,December-17-2022 02:00 PM,December-17-2022 04:00 PM,https://www.redfin.com/WA/Puyallup/8721-161st-St-E-98375/home/2999569,NWMLS,1997791,N,Y,47.1108597,-122.3128253
MLS Listing,,Single Family Residential,17525 SW Blanton St,Aloha,OR,97078,549999,4,2.0,Aloha,1713,7840,1935,86,321,,Active,,,https://www.redfin.com/OR/Aloha/17525-SW-Blanton-St-97007/home/26711413,RMLS,22518320,N,Y,45.4913679,-122.8579302
MLS Listing,,Single Family Residential,3816 N 37th St,Tacoma,WA,98407,1250000,5,3.0,Tacoma,4498,7000,1924,87,278,,Active,,,https://www.redfin.com/WA/Tacoma/3816-N-37th-St-98407/home/2899241,NWMLS,1997785,N,Y,47.2812191,-122.4880816
MLS Listing,,Single Family Residential,8043 68th Loop SE,Olympia,WA,98513,679000,4,3.0,Olympia,2791,15584,1993,88,243,50,Active,,,https://www.redfin.com/WA/Olympia/8043-68th-Loop-SE-98513/home/15694046,NWMLS,1998019,N,Y,46.98545,-122.7680285
MLS Listing,,Townhouse,21907 39th Pl S,Kent,WA,98032,459900,2,2.5,Kent,1293,1,2000,90,356,563,Active,,,https://www.redfin.com/WA/Kent/21907-39th-Pl-S-98032/home/17080352,NWMLS,1997646,N,Y,47.4054043,-122.2841788
MLS Listing,,Single Family Residential,15 Klone St,Hoquiam,WA,98550,375000,3,2.0,Ocean Shores,2211,21344,1959,92,170,,Active,,,https://www.redfin.com/WA/Hoquiam/15-Klone-St-98550/home/14751331,NWMLS,1996848,N,Y,47.0217556,-124.1648618
MLS Listing,,Single Family Residential,5035 NE Simpson St,Portland,OR,97218,599900,2,2.0,Portland,2168,6969,1942,92,277,,Active,,,https://www.redfin.com/OR/Portland/5035-NE-Simpson-St-97218/home/25844918,RMLS,22639273,N,Y,45.5652809,-122.610914
MLS Listing,,Vacant Land,E Side NW Germantown Rd,Portland,OR,97231,85000,,,Portland,,13503,,93,,,Active,,,https://www.redfin.com/OR/PORTLAND/E-SIDE-NW-GERMANTOWN-RD-97231/home/49686524,RMLS,22109626,N,Y,45.590055,-122.781979
MLS Listing,,Single Family Residential,3830 SE 68th Ave,Portland,OR,97206,415000,2,1.5,FOSTER - POWELL,1107,3920,1904,93,375,,Active,,,https://www.redfin.com/OR/Portland/3830-SE-68th-Ave-97206/home/26474022,RMLS,22128906,N,Y,45.4944834,-122.5929539
MLS Listing,,Single Family Residential,35301 SE 1st St,Washougal,WA,98671,775000,3,2.5,Washougal,2717,240887,1996,93,285,58,Active,,,https://www.redfin.com/WA/Washougal/35301-SE-1st-St-98671/home/14596729,NWMLS,1991893,N,Y,45.6218461,-122.3093942
MLS Listing,,Single Family Residential,5916 164th Avenue Ct E,Sumner,WA,98390,699900,4,2.5,Downtown Sumner,2238,9338,2014,95,313,,Active,,,https://www.redfin.com/WA/Sumner/5916-164th-Ave-Ct-E-98390/home/21471559,NWMLS,1995046,N,Y,47.2030308,-122.2105661
MLS Listing,,Townhouse,20504 Noble Ln,West Linn,OR,97068,477500,3,2.5,West Linn,1997,2613,2001,95,239,252,Active,,,https://www.redfin.com/OR/West-Linn/20504-Noble-Ln-97068/home/26052315,RMLS,22260253,N,Y,45.365535,-122.6476782
MLS Listing,,Single Family Residential,672 Mt Olympus Ave SE,Ocean Shores,WA,98569,541000,3,2.5,Ocean Shores,1168,25859,1964,99,463,,Active,,,https://www.redfin.com/WA/Ocean-Shores/672-Mt-Olympus-Ave-SE-98569/home/14770081,NWMLS,1993404,N,Y,46.9651251,-124.1441735
MLS Listing,,Single Family Residential,5221 Windsor Ter,West Linn,OR,97068,899900,5,3.5,West Linn,4800,10454,1989,99,187,,Active,,,https://www.redfin.com/OR/West-Linn/5221-Windsor-Ter-97068/home/26041163,RMLS,22693774,N,Y,45.362858,-122.6221493
MLS Listing,,Single Family Residential,9405 SE 42nd Ave,Milwaukie,OR,97222,945000,4,1.5,Close-in Southeast,3372,25264,1910,99,280,,Active,,,https://www.redfin.com/OR/Milwaukie/9405-SE-42nd-Ave-97222/home/26062912,RMLS,22066068,N,Y,45.4546129,-122.6206186
MLS Listing,,Single Family Residential,3327 S Alaska St,Tacoma,WA,98418,474950,3,2.0,Tacoma,1422,7700,1920,100,334,,Active,,,https://www.redfin.com/WA/Tacoma/3327-S-Alaska-St-98418/home/2755918,NWMLS,1992532,N,Y,47.228967,-122.4574671
MLS Listing,,Single Family Residential,550 E 18th St,La Center,WA,98629,612000,3,2.5,La Center,2371,8551,2001,100,258,13,Active,,,https://www.redfin.com/WA/La-Center/550-E-18th-St-98629/home/14606127,NWMLS,1990112,N,Y,45.8714241,-122.6668252
MLS Listing,,Single Family Residential,2621 N Sumner St,Portland,OR,97217,750000,3,2.0,Madrona Hill,2001,4791,1928,100,375,,Active,,,https://www.redfin.com/OR/Portland/2621-N-Sumner-St-97217/home/26595663,RMLS,22624772,N,Y,45.5607721,-122.6940618
MLS Listing,,Condo/Co-op,1150 NW Quimby St #340,Portland,OR,97209,465000,1,1.0,VISTA NORTH PEARL CONDOMINIUMS,786,,2018,101,592,578,Active,,,https://www.redfin.com/OR/Portland/1150-NW-Quimby-St-97209/unit-340/home/170024809,RMLS,22149364,N,Y,45.5333849,-122.6832219
MLS Listing,,Single Family Residential,10706 Fruitland Ave E,Puyallup,WA,98373,1190000,5,3.5,Puyallup,2362,56628,1976,102,504,,Active,,,https://www.redfin.com/WA/Puyallup/10706-S-Fruitland-98373/home/2815438,NWMLS,1991356,N,Y,47.159665,-122.3302814
MLS Listing,,Condo/Co-op,1221 SW 10th Ave #212,Portland,OR,97205,309999,1,1.0,THE ELIOT,734,,2006,104,422,400,Active,,,https://www.redfin.com/OR/Portland/1221-SW-10th-Ave-97205/unit-212/home/26603262,RMLS,22311095,N,Y,45.5166092,-122.6843096
MLS Listing,,Single Family Residential,11821 SE Ash St,Portland,OR,97216,425000,3,2.5,VENTURA PARK,1638,6969,1962,107,259,,Active,,,https://www.redfin.com/OR/Portland/11821-SE-Ash-St-97216/home/26530214,RMLS,22052624,N,Y,45.5212384,-122.5413066
MLS Listing,,Single Family Residential,3266 Cloverdale Dr SE,Turner,OR,97392,1200000,3,2.5,Turner,2555,338026,2009,108,470,,Active,,,https://www.redfin.com/OR/Turner/3266-Cloverdale-Dr-SE-97392/home/26307365,WVMLS,797295,N,Y,44.816244,-122.9959217
MLS Listing,,Single Family Residential,21310 131st Street Ct E,Bonney Lake,WA,98391,449900,3,1.5,Bonney Lake,1896,12506,1995,112,237,10,Active,,,https://www.redfin.com/WA/Sumner/21310-131st-St-Ct-E-98391/home/2950122,NWMLS,1981443,N,Y,47.1364763,-122.1462444
MLS Listing,,Single Family Residential,2630 N Hayden Island Dr #12,Portland,OR,97217,599000,2,2.0,Portland,1407,,1998,113,426,,Active,,,https://www.redfin.com/OR/Portland/2630-N-Hayden-Island-Dr-97217/unit-12/home/143118117,RMLS,22402637,N,Y,45.6147579,-122.6972008
MLS Listing,,Single Family Residential,10806 W Morris Blvd,Steilacoom,WA,98388,649000,3,3.0,Ketron,2680,41861,1969,114,242,,Active,,,https://www.redfin.com/WA/STEILACOOM/10806-W-MORRIS-BLVD-98388/home/2853675,NWMLS,1986752,N,Y,47.158576409,-122.6363446
MLS Listing,,Single Family Residential,4207 SE Henderson St,Portland,OR,97206,670000,3,2.5,Portland,1878,7840,1956,114,357,,Active,,,https://www.redfin.com/OR/Portland/4207-SE-Henderson-St-97206/home/26425419,RMLS,22422214,N,Y,45.4700287,-122.6189861
MLS Listing,,Single Family Residential,9268 SE Duke St,Portland,OR,97266,350000,2,1.0,Portland,1076,3920,1954,114,325,,Active,,,https://www.redfin.com/OR/Portland/9268-SE-Duke-St-97266/home/26595278,RMLS,22150616,N,Y,45.4758133,-122.5680273
MLS Listing,,Single Family Residential,25 Rips Ln SW,Lakewood,WA,98499,374999,3,1.0,Tacoma,942,6500,1950,115,398,,Active,,,https://www.redfin.com/WA/Tacoma/25-Rips-Ln-SW-98499/home/2905333,NWMLS,1987485,N,Y,47.1661063,-122.4987508
MLS Listing,,Single Family Residential,9803 192nd Ave E,Bonney Lake,WA,98391,570000,3,2.5,Bonney Lake,2604,30000,1960,120,219,,Active,,,https://www.redfin.com/WA/Bonney-Lake/9803-192nd-Ave-E-98391/home/2851976,NWMLS,1985463,N,Y,47.1678396,-122.1752742
MLS Listing,,Single Family Residential,1206 Rainier St,Steilacoom,WA,98388,1050000,5,3.5,Steilacoom,2657,7240,2018,121,395,,Active,,,https://www.redfin.com/WA/Steilacoom/1206-Rainier-St-98388/home/22088186,NWMLS,1985220,N,Y,47.1696687,-122.6020023
MLS Listing,,Single Family Residential,29668 128th Ct SE,Auburn,WA,98092,674888,4,2.5,Lea Hill,2940,4880,2001,122,230,38,Active,December-18-2022 02:00 PM,December-18-2022 04:00 PM,https://www.redfin.com/WA/Auburn/29668-128th-Ct-SE-98092/home/402737,NWMLS,1984381,N,Y,47.3359016,-122.1699692
MLS Listing,,Single Family Residential,9242 SW 4th Ave,Portland,OR,97219,925000,4,2.5,Portland,3244,6534,2013,128,285,,Active,,,https://www.redfin.com/OR/Portland/9242-SW-4th-Ave-97219/home/45425423,RMLS,22400782,N,Y,45.4583815,-122.6825039
MLS Listing,,Condo/Co-op,937 NW Glisan St #433,Portland,OR,97209,525000,2,2.0,Portland,1074,,2008,134,489,756,Active,,,https://www.redfin.com/OR/Portland/937-NW-Glisan-St-97209/unit-433/home/26657203,RMLS,22093648,N,Y,45.5266865,-122.6807217
MLS Listing,,Single Family Residential,14012 SE Harold St,Portland,OR,97236,525000,4,3.0,Portland,1806,5227,2002,135,291,,Active,,,https://www.redfin.com/OR/Portland/14012-SE-Harold-St-97236/home/26537267,RMLS,22048311,N,Y,45.4830515,-122.519558
MLS Listing,,Vacant Land,5860 Bonita Rd,Lake Oswego,OR,97035,374999,,,Lake Oswego,,,,138,,,Active,,,https://www.redfin.com/OR/Lake-Oswego/5860-Bonita-Rd-97035/home/179326917,RMLS,22640905,N,Y,45.415001,-122.7370647
MLS Listing,,Vacant Land,5830 Bonita Rd,Lake Oswego,OR,97035,374999,,,Lake Oswego,,,,138,,,Active,,,https://www.redfin.com/OR/Lake-Oswego/5830-Bonita-Rd-97035/home/179326919,RMLS,22028874,N,Y,45.4150019,-122.73685
MLS Listing,,Single Family Residential,33507 143rd Pl SE,Auburn,WA,98092,2600000,4,8.0,Auburn,7205,144614,2007,140,361,13,Active,,,https://www.redfin.com/WA/Auburn/33507-143rd-Pl-SE-98092/home/12301929,NWMLS,1976472,N,Y,47.3040058,-122.1531083
MLS Listing,,Condo/Co-op,1722 SE 110th Ct #84,Vancouver,WA,98664,429000,3,2.5,Vancouver,1893,,2000,140,227,463,Active,,,https://www.redfin.com/WA/Vancouver/1722-SE-110th-Ct-98664/unit-84/home/14643763,RMLS,22438523,N,Y,45.607982,-122.559932
MLS Listing,,Single Family Residential,7933 SE 15th Ave,Portland,OR,97202,1350000,4,2.0,Sellwood,1741,7405,1905,145,775,,Active,,,https://www.redfin.com/OR/Portland/7933-SE-15th-Ave-97202/home/26615755,RMLS,22392415,N,Y,45.4666353,-122.6513769
MLS Listing,,Single Family Residential,8233 NE Going Pl,Portland,OR,97220,349900,2,1.0,Portland,768,6098,1949,149,456,,Active,,,https://www.redfin.com/OR/Portland/8233-NE-Going-Pl-97220/home/26563496,RMLS,22330207,N,Y,45.5574511,-122.5777899
MLS Listing,,Single Family Residential,7225 Olive Ave SE,Auburn,WA,98092,740000,4,3.0,Lakeland,2768,10190,2007,170,267,88,Active,,,https://www.redfin.com/WA/Auburn/7225-Olive-Ave-SE-98092/home/12488358,NWMLS,1961428,N,Y,47.2413414,-122.2080694
MLS Listing,,Single Family Residential,8049 Yelm Hwy SE,Olympia,WA,98513,209999,2,1.0,Olympia,938,10454,1901,171,224,,Active,,,https://www.redfin.com/WA/Olympia/8049-Yelm-Hwy-SE-98513/home/15748053,NWMLS,1956339,N,Y,46.9842629,-122.7677299
MLS Listing,,Vacant Land,142 Dharma Way,Washougal,WA,98671,289900,,,Skamania,,203860,,176,,,Active,,,https://www.redfin.com/WA/Washougal/142-Dharma-Rd-98671/home/25887334,NWMLS,1957819,N,Y,45.5933403,-122.2181451
MLS Listing,,Single Family Residential,401 W Ocean Ave,Westport,WA,98595,599999,4,2.5,Westport,3196,7200,1927,177,188,,Active,,,https://www.redfin.com/WA/Westport/401-W-Ocean-Ave-98595/home/14761088,NWMLS,1954129,N,Y,46.8865683,-124.1082417
MLS Listing,,Vacant Land,0 XXX 96th Street Ct W,Anderson Island,WA,98303,250000,,,Anderson Island,,248292,,187,,,Active,,,https://www.redfin.com/WA/Anderson-Island/0-XXX-96th-Street-Ct-W-98303/home/179890974,NWMLS,1942253,N,Y,47.17011,-122.725353
MLS Listing,,Vacant Land,Smith Rd,St. Helens,OR,97051,375000,,,St. Helens,,1742400,,232,,,Active,,,https://www.redfin.com/OR/St-Helens/Smith-RD-ST-97051/home/179270340,RMLS,22022234,N,Y,45.893952,-122.851486
MLS Listing,,Single Family Residential,208 Faith Dr,Jefferson,OR,97352,459900,4,3.5,Jefferson,2116,6098,1999,1,217,,Active,,,https://www.redfin.com/OR/Jefferson/208-Faith-Dr-97352/home/26274337,RMLS,22498104,N,Y,44.7128982,-123.009302
MLS Listing,,Single Family Residential,14400 SW Wilson Dr,Beaverton,OR,97008,525000,3,2.0,Hyland Hills,1437,8276,1971,1,365,,Active,,,https://www.redfin.com/OR/Beaverton/14400-SW-Wilson-Dr-97008/home/26731676,RMLS,22113010,N,Y,45.4650207,-122.825689
MLS Listing,,Single Family Residential,198 Division Ave,Morton,WA,98356,399999,4,2.0,Morton,1852,12197,1958,1,216,,Active,,,https://www.redfin.com/WA/Morton/198-Division-Ave-98356/home/16777667,NWMLS,2023070,N,Y,46.5570316,-122.2718078
MLS Listing,,Single Family Residential,374 Carmel Ave,Manzanita,OR,97130,615000,2,1.0,Manzanita,960,4791,1972,1,641,,Active,,,https://www.redfin.com/OR/Manzanita/374-Carmel-Ave-97130/home/135257647,RMLS,22558617,N,Y,45.7169739,-123.938495
MLS Listing,,Single Family Residential,5467 NW Lianna Way,Portland,OR,97229,495000,4,2.5,Portland,1850,5662,1997,1,268,,Active,,,https://www.redfin.com/OR/Portland/5467-NW-Lianna-Way-97229/home/26687175,RMLS,22351108,N,Y,45.5590627,-122.8523388
MLS Listing,,Townhouse,16805 Chula Vista Ave,Sandy,OR,97055,395000,3,2.5,Sandy,1950,1742,2017,1,203,,Active,,,https://www.redfin.com/OR/Sandy/16805-Chula-Vista-Ave-97055/home/25977708,RMLS,22053205,N,Y,45.4012268,-122.298982
MLS Listing,,Single Family Residential,1108 Garrison St,The Dalles,OR,97058,380000,3,2.0,The Dalles,2054,4791,1930,1,185,,Active,,,https://www.redfin.com/OR/The-Dalles/1108-Garrison-St-97058/home/55361671,RMLS,22545249,N,Y,45.5989868,-121.1938476
MLS Listing,,Single Family Residential,14615 SW Hazeltree Ter,Tigard,OR,97224,799000,5,4.0,Bull Mountain-Ames Orchard,3569,41382,2000,1,224,,Active,,,https://www.redfin.com/OR/Tigard/14615-SW-Hazeltree-Ter-97224/home/26705155,RMLS,22483364,N,Y,45.4140982,-122.804162
MLS Listing,,Single Family Residential,16911 127th Avenue Ct E #24,Puyallup,WA,98374,479950,3,2.0,Puyallup,1629,5309,2023,1,295,96,Active,,,https://www.redfin.com/WA/South-Hill/16911-127th-Avenue-Ct-E-98374/unit-24/home/183390217,NWMLS,2023066,N,Y,47.1019722,-122.2594503
MLS Listing,,Single Family Residential,13017 NE 106th Cir,Vancouver,WA,98662,499999,3,2.0,Fox Hollow,1369,4356,2022,1,365,,Active,,,https://www.redfin.com/WA/Vancouver/13017-NE-106th-Cir-98682/home/179953906,RMLS,22354090,N,Y,45.6987628,-122.5425917
MLS Listing,,Single Family Residential,16926 127th Avenue Ct E #15,Puyallup,WA,98374,519950,3,2.5,Puyallup,2189,5451,2023,1,238,96,Active,,,https://www.redfin.com/WA/South-Hill/16926-127th-Avenue-Ct-E-98374/unit-15/home/183390130,NWMLS,2023065,N,Y,47.1015561,-122.260157
MLS Listing,,Single Family Residential,36400 NE Ridge View Dr,Yacolt,WA,98675,829900,5,3.0,Beaver Brook,3062,235224,1993,1,271,29,Active,,,https://www.redfin.com/WA/Yacolt/36400-NE-Ridgeview-Dr-98675/home/14644498,RMLS,22607032,N,Y,45.8853164,-122.480862
MLS Listing,,Single Family Residential,16405 SE Deer Meadow Loop,Damascus,OR,97089,665000,4,2.5,BURLWOOD ESTATES,2816,6534,2004,1,236,25,Active,,,https://www.redfin.com/OR/Damascus/16405-SE-Deer-Meadow-Loop-97089/home/26069753,RMLS,22131982,N,Y,45.4034151,-122.4939442
MLS Listing,,Mobile/Manufactured Home,2109 SW Marie Dr #136,Mcminnville,OR,97128,155500,3,2.0,McMinnville,1512,,1997,1,103,,Active,,,https://www.redfin.com/OR/McMinnville/2109-SW-Marie-Dr-97128/unit-136/home/26744957,RMLS,22521496,N,Y,45.2009542,-123.2269522
MLS Listing,,Single Family Residential,6339 S Island Dr E,Bonney Lake,WA,98391,1000000,4,3.5,Inlet Island,3112,9777,2022,1,321,13,Active,December-17-2022 01:00 PM,December-17-2022 03:00 PM,https://www.redfin.com/WA/Bonney-Lake/6339-S-Island-Dr-E-98391/home/146020968,NWMLS,2022919,N,Y,47.1987292,-122.1520731
MLS Listing,,Single Family Residential,16907 127th Avenue Ct E #25,Puyallup,WA,98374,559950,4,2.5,Puyallup,2564,7407,2023,1,218,96,Active,,,https://www.redfin.com/WA/South-Hill/16907-127th-Avenue-Ct-E-98374/unit-25/home/183389239,NWMLS,2023062,N,Y,47.1021115,-122.259435
MLS Listing,,Mobile/Manufactured Home,2065 Nomad Ct SE,Salem,OR,97306,99000,2,2.0,Salem,1344,,1977,1,74,705,Active,,,https://www.redfin.com/OR/Salem/2065-Nomad-Ct-SE-97306/home/26262619,RMLS,22538415,N,Y,44.8551013,-123.0166989
MLS Listing,,Single Family Residential,2739 Merced Ct,Salem,OR,97306,559500,4,3.0,Salem,2480,6098,2007,1,226,,Active,,,https://www.redfin.com/OR/Salem/2739-Merced-Ct-SE-97306/home/26267397,RMLS,22064584,N,Y,44.8740575,-123.0058399
MLS Listing,,Single Family Residential,4926 NE 23rd Ct,Vancouver,WA,98663,509900,3,2.5,ALEXANDER ESTATES,2012,3920,2022,1,253,60,Active,December-17-2022 12:00 PM,December-17-2022 04:00 PM,https://www.redfin.com/WA/Vancouver/4926-NE-23rd-Ct-98663/home/175544610,RMLS,22615171,N,Y,45.657791,-122.64746
MLS Listing,,Single Family Residential,2811 E 9th St,Vancouver,WA,98661,425000,3,1.0,HUDSONS BAY,1412,4791,1945,1,301,,Active,December-17-2022 01:00 PM,December-17-2022 03:00 PM,https://www.redfin.com/WA/Vancouver/2811-E-9th-St-98661/home/14615644,RMLS,22317274,N,Y,45.6273284,-122.6416726
MLS Listing,,Single Family Residential,11621 NE Oregon St,Portland,OR,97220,522000,5,3.0,Ellenwood,2520,10890,1962,1,207,,Active,,,https://www.redfin.com/OR/Portland/11621-NE-Oregon-St-97220/home/25809391,RMLS,22148863,N,Y,45.5283517,-122.5435938
MLS Listing,,Vacant Land,255 Guy Moore Dr,Detroit,OR,97342,85000,,,Mackey Creek Addition,,5625,,1,,,Active,,,https://www.redfin.com/OR/Detroit/255-Guy-Moore-Rd-97342/home/26342203,WVMLS,800453,N,Y,44.7301493,-122.1374811
MLS Listing,,Condo/Co-op,5702 N 33rd St Unit 19A,Tacoma,WA,98407,395000,2,2.0,North Tacoma,984,3768,1987,1,401,377,Active,,,https://www.redfin.com/WA/Tacoma/5702-N-33rd-St-98407/unit-19A/home/12488290,NWMLS,2019484,N,Y,47.2774952,-122.5135032
MLS Listing,,Single Family Residential,809 Cody           (lot 69) St SE,Rainier,WA,98576,519950,3,2.5,Rainier,2184,12962,2023,1,238,25,Active,,,https://www.redfin.com/WA/Rainier/809-Cody-St-SE-98576/home/167634774,NWMLS,2023055,N,Y,46.887211,-122.677397
MLS Listing,,Multi-Family (2-4 Unit),713 SE 28th Ave,Portland,OR,97214,899900,5,4.0,BUCKMAN / BELMONT,3859,,1904,1,233,,Active,,,https://www.redfin.com/OR/Portland/713-SE-28th-Ave-97214/home/26493427,RMLS,22477799,N,Y,45.517574,-122.6374042
MLS Listing,,Single Family Residential,14735 SW Daphne Ct,Beaverton,OR,97007,541000,3,2.0,Beaverton,1568,8712,1983,1,345,,Active,December-17-2022 02:00 PM,December-17-2022 04:00 PM,https://www.redfin.com/OR/Beaverton/14735-SW-Daphne-Ct-97007/home/26709665,RMLS,22575200,N,Y,45.4728098,-122.8290614
MLS Listing,,Single Family Residential,6318 121st Ave E,Puyallup,WA,98372,579900,3,2.5,North Puyallup,2197,5155,2022,1,264,78,Active,,,https://www.redfin.com/WA/Puyallup/6318-121st-Ave-E-98372/home/177861749,NWMLS,2023052,N,Y,47.1997475,-122.2684194
MLS Listing,,Single Family Residential,2114 N Huson St,Tacoma,WA,98406,455000,3,1.0,North Tacoma,1264,7225,1948,1,360,,Active,December-17-2022 12:00 PM,December-17-2022 02:00 PM,https://www.redfin.com/WA/Tacoma/2114-N-Huson-St-98406/home/2963620,NWMLS,2020934,N,Y,47.2679071,-122.5042775
MLS Listing,,Single Family Residential,6420 121st Ave E,Puyallup,WA,98372,569900,3,2.5,North Puyallup,2197,4286,2022,1,259,78,Active,,,https://www.redfin.com/WA/Puyallup/6420-121st-Ave-E-98372/home/177861766,NWMLS,2023051,N,Y,47.1984309,-122.2683217
MLS Listing,,Mobile/Manufactured Home,2065 Nomad Ct SE #73,Salem,OR,97306,99000,2,2.0,Salem,1344,,1977,1,74,,Active,,,https://www.redfin.com/OR/Salem/2065-Nomad-Ct-SE-97306/unit-73/home/175849890,WVMLS,800452,N,Y,44.8551013,-123.0166989
MLS Listing,,Single Family Residential,6416 121st Ave E,Puyallup,WA,98372,544900,3,2.5,North Puyallup,1800,5049,2022,1,303,78,Active,,,https://www.redfin.com/WA/Puyallup/6416-121st-Ave-E-98372/home/177861765,NWMLS,2023050,N,Y,47.1985684,-122.2683884
MLS Listing,,Single Family Residential,6323 121st Ave E,Puyallup,WA,98372,549900,3,2.5,North Puyallup,1800,5000,2022,1,306,78,Active,,,https://www.redfin.com/WA/Puyallup/6323-121st-Ave-E-98372/home/177861777,NWMLS,2023049,N,Y,47.1995591,-122.2678707
MLS Listing,,Single Family Residential,16922 127th Avenue Ct E #14,Puyallup,WA,98374,534950,3,2.5,Puyallup,2345,4710,2023,1,228,96,Active,,,https://www.redfin.com/WA/South-Hill/16922-127th-Avenue-Ct-E-98374/unit-14/home/183388021,NWMLS,2023047,N,Y,47.1017172,-122.2601548
MLS Listing,,Mobile/Manufactured Home,6785 Rhododendron Ave,Gleneden Beach,OR,97388,375000,3,2.0,GGNR,1440,10018,1978,1,260,,Active,,,https://www.redfin.com/OR/Gleneden-Beach/6785-Rhododendron-Ave-97388/home/134105001,RMLS,22254419,N,Y,44.8802061,-124.0341997
MLS Listing,,Single Family Residential,2809 NE 100th St,Vancouver,WA,98686,489900,4,2.5,Royal Ridge,1852,3920,2015,1,265,,Active,,,https://www.redfin.com/WA/Vancouver/2809-NE-100th-St-98686/home/25753782,RMLS,22219890,N,Y,45.6938813,-122.6418206
MLS Listing,,Single Family Residential,5708 NE Killingsworth St,Portland,OR,97218,625000,3,3.0,CULLY ASSOCIATION OF NEIGHBORS,2705,9583,1927,1,231,,Active,December-18-2022 11:00 AM,December-18-2022 01:00 PM,https://www.redfin.com/OR/Portland/5708-NE-Killingsworth-St-97218/home/25754049,RMLS,22339636,N,Y,45.5625491,-122.6041563
MLS Listing,,Single Family Residential,11011 NE 26th St,Vancouver,WA,98684,775000,3,1.0,Vancouver,1259,39639,1951,1,616,,Active,,,https://www.redfin.com/WA/Vancouver/11011-NE-26th-St-98684/home/14584261,RMLS,22698094,N,Y,45.6404398,-122.5594433
MLS Listing,,Vacant Land,37870 E Grant St Next TO,Lebanon,OR,97355,719000,,,Lebanon,,22215,,1,,,Active,,,https://www.redfin.com/OR/Lebanon/37870-E-Grant-St-97355/home/26166785,RMLS,22267796,N,Y,44.5361445,-122.8838806
MLS Listing,,Condo/Co-op,205 N Hayden Bay Dr,Portland,OR,97217,329000,2,2.0,Hayden Island- Columbia Point,1023,,1991,1,322,503,Active,,,https://www.redfin.com/OR/Portland/205-N-Hayden-Bay-Dr-97217/home/26595515,RMLS,22570438,N,Y,45.6100701,-122.6722477
MLS Listing,,Single Family Residential,2660 SW Maycrest Ter,Beaverton,OR,97003,589950,3,2.5,Beaverton Creek,2006,,2023,1,294,38,Active,,,https://www.redfin.com/OR/Beaverton/2660-SW-Maycrest-TER-97003/home/183387771,RMLS,22078050,N,Y,45.500478,-122.859575
MLS Listing,,Single Family Residential,270 NE 197th Ave,Portland,OR,97230,409900,3,1.5,Portland,1277,8276,1966,1,321,,Active,,,https://www.redfin.com/OR/Portland/270-NE-197th-Ave-97230/home/26486137,RMLS,22022778,N,Y,45.5245181,-122.4597359
MLS Listing,,Single Family Residential,13260 Monmouth Hwy,Monmouth,OR,97361,700000,6,3.5,Monmouth,2899,219107,1979,1,241,,Active,,,https://www.redfin.com/OR/Monmouth/13260-Monmouth-Hwy-97361/home/55484697,WVMLS,800451,N,Y,44.8435719,-123.3021398
MLS Listing,,Single Family Residential,26330 119th Dr SE,Kent,WA,98030,585000,3,2.5,Kent,1671,6846,1990,1,350,,Active,,,https://www.redfin.com/WA/Kent/26330-119th-Dr-SE-98030/home/401134,NWMLS,2021094,N,Y,47.3658767,-122.1810154
MLS Listing,,Single Family Residential,1144 Williams Ave #08,Enumclaw,WA,98022,599950,3,2.0,Enumclaw,1629,8416,2023,1,368,58,Active,December-17-2022 10:00 AM,December-17-2022 05:00 PM,https://www.redfin.com/WA/Enumclaw/1612-Cole-St-98022/unit-08/home/183387521,NWMLS,2023045,N,Y,47.203909,-121.989771
MLS Listing,,Single Family Residential,11 Curtis Ln,Longview,WA,98632,299900,3,4.0,Pacific Way,3252,9200,1997,1,92,,Active,,,https://www.redfin.com/WA/Longview/11-Curtis-Ln-98632/home/14860320,NWMLS,2022137,N,Y,46.1756033,-122.9711457
MLS Listing,,Single Family Residential,329 N James St,Silverton,OR,97381,600000,4,2.0,Silverton,2108,23522,1917,1,285,,Active,,,https://www.redfin.com/OR/Silverton/329-N-James-St-97381/home/26273382,WVMLS,793470,N,Y,45.0126049,-122.7904645
MLS Listing,,Single Family Residential,149 C Niblett Way,Longview,WA,98632,69900,2,1.0,Longview,816,10018,1980,1,86,,Active,,,https://www.redfin.com/WA/Longview/149-Niblett-Way-98632/home/14842337,NWMLS,2022904,N,Y,46.176311,-122.9327201
MLS Listing,,Single Family Residential,911 Pierce St,Steilacoom,WA,98388,795000,3,3.0,Steilacoom,2440,12800,1967,1,326,,Active,,,https://www.redfin.com/WA/Steilacoom/911-Pierce-St-98388/home/2821785,NWMLS,2022562,N,Y,47.1666445,-122.594303
MLS Listing,,Single Family Residential,10018 254th Ave E,Buckley,WA,98321,1325000,3,2.5,Buckley,2244,1417007,2016,1,590,,Active,,,https://www.redfin.com/WA/Buckley/10018-254th-Ave-E-98321/home/22758105,NWMLS,2022773,N,Y,47.1662302,-122.0917819
MLS Listing,,Mobile/Manufactured Home,300 SW 7th Ave #412,Battle Ground,WA,98604,225000,3,2.0,Battle Ground,1512,,1994,1,149,1000,Active,,,https://www.redfin.com/WA/Battle-Ground/300-SW-7th-Ave-98604/unit-412/home/14668959,RMLS,22504420,N,Y,45.7780683,-122.5463072
MLS Listing,,Single Family Residential,22550 241st Ave SE,Maple Valley,WA,98038,875000,4,3.0,Highlands,2460,33600,1984,1,356,,Active,,,https://www.redfin.com/WA/Maple-Valley/22550-241st-Ave-SE-98038/home/374027,NWMLS,2022685,N,Y,47.3989983,-122.0200254
MLS Listing,,Single Family Residential,6206 Armour Dr SE,Olympia,WA,98513,600000,3,2.0,Capital City Golf,1848,8665,1985,1,325,27,Active,December-17-2022 11:00 AM,December-17-2022 02:00 PM,https://www.redfin.com/WA/Olympia/6206-Armour-Dr-SE-98513/home/15726287,NWMLS,2022462,N,Y,46.9923985,-122.8109654
MLS Listing,,Mobile/Manufactured Home,2610 341st Street Ct S #18,Roy,WA,98580,60000,3,1.0,Roy,924,,1979,1,65,,Active,,,https://www.redfin.com/WA/Roy/2610-341st-Street-Ct-S-98580/unit-18/home/183386746,NWMLS,2022849,N,Y,46.9472453,-122.4671094
MLS Listing,,Vacant Land,0 Lewisville Hwy,Battle Ground,WA,98604,380000,,,Battle Ground,,125017,,1,,,Active,,,https://www.redfin.com/WA/Battle-Ground/NE-Lewisville-Hwy-Unknown/home/52916593,RMLS,22159983,N,Y,45.851479,-122.524143
MLS Listing,,Vacant Land,0 Church St Unit 82-84,Dayton,OR,97114,150000,,,Dayton,,22215,,1,,,Active,,,https://www.redfin.com/OR/Dayton/82-Church-St-97114/unit-82-84/home/183386741,RMLS,22115521,N,Y,45.2235508,-123.0749119
MLS Listing,,Vacant Land,35631 Meridian Rd Next TO,Scio,OR,97374,319000,,,Scio,,245242,,1,,,Active,,,https://www.redfin.com/OR/Scio/35631-Meridian-Rd-97374/home/26129448,RMLS,22430734,N,Y,44.622086,-122.740232
MLS Listing,,Townhouse,418 N Bridgeton Rd,Portland,OR,97217,549000,3,3.5,BRIDGETON NEIGHBORHOOD,2304,,1997,1,238,,Active,December-18-2022 01:00 PM,December-18-2022 03:00 PM,https://www.redfin.com/OR/Portland/418-N-Bridgeton-Rd-97217/home/26437865,RMLS,22184614,N,Y,45.6031506,-122.6703877
MLS Listing,,Single Family Residential,2518 SE 14th Ave,Portland,OR,97202,599000,4,2.0,Portland,2537,3920,1911,1,236,,Active,,,https://www.redfin.com/OR/Portland/2518-SE-14th-Ave-97202/home/26334212,RMLS,22598151,N,Y,45.5045501,-122.6514513
MLS Listing,,Single Family Residential,6605 N Powers St,Portland,OR,97203,349900,1,1.0,Portland,792,4791,1923,1,442,,Active,December-17-2022 11:00 AM,December-17-2022 02:00 PM,https://www.redfin.com/OR/Portland/6605-N-Powers-St-97203/home/26493625,RMLS,22685136,N,Y,45.5939843,-122.7306393
MLS Listing,,Single Family Residential,193 Sea Crest Ln,Otter Rock,OR,97369,1458000,3,3.5,Otter Rock,3240,8276,2011,1,450,166,Active,,,https://www.redfin.com/OR/Otter-Rock/193-Sea-Crest-Ln-97369/home/134245890,RMLS,22553687,N,Y,44.7559186,-124.0628488
MLS Listing,,Single Family Residential,507 4th St NE,Auburn,WA,98002,420000,2,1.0,Downtown - Auburn,1100,4820,1923,1,382,,Active,December-18-2022 12:00 PM,December-18-2022 03:00 PM,https://www.redfin.com/WA/Auburn/507-4th-St-NE-98002/home/217589,NWMLS,2023019,N,Y,47.3110567,-122.222591
MLS Listing,,Condo/Co-op,4601 Grandview Dr W Unit R212,University Place,WA,98466,240000,2,1.5,University Place,851,,1974,1,282,564,Active,,,https://www.redfin.com/WA/University-Place/4601-Grandview-Dr-W-98466/unit-R212/home/2957000,NWMLS,2023030,N,Y,47.2147207,-122.5666262
MLS Listing,,Single Family Residential,1218 NW Mountain Aire Dr SE,Olympia,WA,98503,525000,3,2.5,Hawks Prairie,1859,11189,1975,1,282,,Active,,,https://www.redfin.com/WA/Olympia/1218-Mountain-Aire-Dr-SE-98503/home/15705030,NWMLS,2023016,N,Y,47.0367605,-122.7696642
MLS Listing,,Single Family Residential,1615 N Aurora Ave,East Wenatchee,WA,98802,539900,5,3.0,East Wenatchee,2280,10890,1997,1,237,,Active,,,https://www.redfin.com/WA/East-Wenatchee/1615-N-Aurora-Ave-98802/home/75258458,NWMLS,2022213,N,Y,47.4309497,-120.2952223
MLS Listing,,Vacant Land,417 N Portal Loop SW,Ocean Shores,WA,98569,40000,,,Ocean Shores,,7730,,1,,,Active,,,https://www.redfin.com/WA/Ocean-Shores/417-N-Portal-Loop-SW-98569/home/14766947,NWMLS,2023020,N,Y,46.936271,-124.166922
MLS Listing,,Single Family Residential,9333 SE Alder St,Portland,OR,97216,379000,2,1.0,Portland,1058,6098,1949,1,358,,Active,,,https://www.redfin.com/OR/Portland/9333-SE-Alder-St-97216/home/26429285,RMLS,22035609,N,Y,45.5177505,-122.5668333
MLS Listing,,Single Family Residential,1201 W 16th St,Vancouver,WA,98660,385000,3,2.0,Vancouver,1040,4791,1997,1,370,,Active,,,https://www.redfin.com/WA/Vancouver/1201-W-16th-St-98660/home/14640165,RMLS,22439012,N,Y,45.6331301,-122.6835972
MLS Listing,,Single Family Residential,3525 Columbia Heights Rd,Longview,WA,98632,279900,4,2.0,Columbia Heights,1608,18295,1937,1,174,,Active,,,https://www.redfin.com/WA/Longview/3525-Columbia-Heights-Rd-98632/home/14845403,NWMLS,2022686,N,Y,46.1686602,-122.9462298
MLS Listing,,Single Family Residential,907 N Water St,Ellensburg,WA,98926,339000,3,2.0,North Water,1824,6500,1939,1,186,,Active,,,https://www.redfin.com/WA/Ellensburg/907-N-Water-St-98926/home/16793445,NWMLS,2022986,N,Y,47.0012088,-120.5505906
MLS Listing,,Single Family Residential,6531 Sarazen St SE,Olympia,WA,98513,559950,3,2.5,Capital City Golf,2941,8790,1974,1,190,27,Active,December-18-2022 01:30 PM,December-18-2022 03:30 PM,https://www.redfin.com/WA/Lacey/6531-Sarazen-St-SE-98513/home/15726508,NWMLS,2023008,N,Y,46.989345,-122.8197333
MLS Listing,,Mobile/Manufactured Home,830 N Main St #48,Mt. Angel,OR,97362,129600,3,2.0,Mt. Angel,1120,,2017,1,116,620,Active,,,https://www.redfin.com/OR/Mt-Angel/830-N-Main-St-97362/unit-48/home/144336704,RMLS,22125611,N,Y,45.0738843,-122.7985707
MLS Listing,,Mobile/Manufactured Home,5708 117th Ct E #26,Puyallup,WA,98372,110000,2,2.0,Puyallup Valley,1148,,1988,1,96,,Active,,,https://www.redfin.com/WA/Puyallup/5708-117th-Ave-Ct-E-98372/unit-26/home/3019341,NWMLS,2023001,N,Y,47.2055898,-122.2730159
MLS Listing,,Condo/Co-op,325 NE Graham St #11,Portland,OR,97212,499000,3,2.0,"Graham St. Lofts, Eliot",1811,,2008,1,276,668,Active,December-17-2022 10:30 AM,December-17-2022 12:30 PM,https://www.redfin.com/OR/Portland/325-NE-Graham-St-97212/unit-11/home/25789634,RMLS,22367042,N,Y,45.5430023,-122.6619459
MLS Listing,,Single Family Residential,120 Columbia St NE,Salem,OR,97301,259000,2,1.0,Riverside Addition,725,5000,1938,1,357,,Active,,,https://www.redfin.com/OR/Salem/120-Columbia-St-NE-97301/home/26255548,WVMLS,800449,N,Y,44.95948,-123.0349533
MLS Listing,,Single Family Residential,4915 SE Stark St,Portland,OR,97215,725000,5,2.0,MT TABOR,3237,8276,1925,1,224,,Active,December-17-2022 01:00 PM,December-17-2022 03:00 PM,https://www.redfin.com/OR/Portland/4915-SE-Stark-St-97215/home/26339749,RMLS,22371474,N,Y,45.519576,-122.6125952
MLS Listing,,Single Family Residential,12434 SE 26th Ave,Milwaukie,OR,97222,499900,4,1.5,Island Station,3721,7840,1936,1,134,,Active,December-17-2022 01:00 PM,December-17-2022 03:00 PM,https://www.redfin.com/OR/Milwaukie/12434-SE-26th-Ave-97222/home/25991552,RMLS,22363695,N,Y,45.4325882,-122.6367636
MLS Listing,,Single Family Residential,2537 NE 21st Ave,Portland,OR,97212,999900,3,2.5,IRVINGTON,3031,4791,1908,1,330,,Active,December-17-2022 12:00 PM,December-17-2022 02:00 PM,https://www.redfin.com/OR/Portland/2537-NE-21st-Ave-97212/home/25805725,RMLS,22165645,N,Y,45.5410629,-122.6445785
MLS Listing,,Condo/Co-op,2455 SE Lake Rd,Milwaukie,OR,97222,320000,2,1.5,Townlake Estates,1053,,1969,1,304,405,Active,,,https://www.redfin.com/OR/Milwaukie/2455-SE-Lake-Rd-97222/home/25986795,RMLS,22263127,N,Y,45.4397952,-122.6361951
MLS Listing,,Single Family Residential,4500 SE Naef Rd,Milwaukie,OR,97267,275000,2,1.0,Milwaukie,884,5662,1947,1,311,,Active,December-18-2022 01:00 PM,December-18-2022 04:00 PM,https://www.redfin.com/OR/Milwaukie/4500-SE-Naef-Rd-97267/home/26066964,RMLS,22058309,N,Y,45.4039447,-122.6166264
MLS Listing,,Vacant Land,2nd St #3700,Gearhart,OR,97138,349000,,,Gearhart,,10018,,1,,,Active,,,https://www.redfin.com/OR/Gearhart/2nd-St-97138/unit-3700/home/183385738,RMLS,22273905,N,Y,46.025374,-123.917733
MLS Listing,,Mobile/Manufactured Home,1111 Archwood Dr SW #321,Olympia,WA,98502,69000,2,1.0,Westside,784,,1982,1,88,,Active,,,https://www.redfin.com/WA/Olympia/1111-Archwood-Dr-SW-98502/unit-321/home/15674718,NWMLS,2022894,N,Y,47.0396527,-122.9419865
MLS Listing,,Multi-Family (2-4 Unit),125 127 174th St S,Spanaway,WA,98387,750000,6,5.0,Lake Park,3180,7668,2006,1,236,,Active,,,https://www.redfin.com/WA/Spanaway/127-174th-St-S-98387/home/177172800,NWMLS,2022993,N,Y,47.0994838,-122.4334693
MLS Listing,,Mobile/Manufactured Home,17411 NW Panther Creek Rd,Carlton,OR,97111,3500000,3,2.0,Carlton,2268,4196570,1997,1,1543,,Active,,,https://www.redfin.com/OR/Carlton/17411-NW-Panther-Creek-Rd-97111/home/26758425,RMLS,22690219,N,Y,45.2908114,-123.3021796
MLS Listing,,Condo/Co-op,55 NE Village Squire Ave #2,Gresham,OR,97030,339000,2,2.0,Gresham,1104,,1978,1,307,370,Active,,,https://www.redfin.com/OR/Gresham/55-NE-Village-Squire-Ave-97030/unit-2/home/26466028,RMLS,22350574,N,Y,45.4981706,-122.4058654
MLS Listing,,Vacant Land,Lot 166 Promontory Ln,Oceanside,OR,97134,39000,,,Oceanside,,6969,,1,,,Active,,,https://www.redfin.com/OR/Oceanside/Lot-166-Promontory-Ln-97141/home/183217979,TCBMLS,22-585,N,Y,45.4479515,-123.9593286
MLS Listing,,Single Family Residential,20603 28th Ave E,Spanaway,WA,98387,825000,4,2.5,Spanaway,2474,46173,2022,1,333,,Active,,,https://www.redfin.com/WA/Spanaway/20603-28th-Ave-E-98387/home/23089710,NWMLS,2022912,N,Y,47.069406,-122.391769
MLS Listing,,Single Family Residential,7515 61st Ave NW,Gig Harbor,WA,98335,675000,4,2.5,Gig Harbor,2629,28314,1994,1,257,,Active,,,https://www.redfin.com/WA/Gig-Harbor/7515-61st-Ave-NW-98335/home/2374543,NWMLS,2023012,N,Y,47.3260237,-122.6189364
MLS Listing,,Single Family Residential,1367 Mt Pleasant Rd,Kelso,WA,98626,774900,4,2.5,Carrolls,2572,584140,1991,1,301,,Active,,,https://www.redfin.com/WA/Kelso/1367-Mt-Pleasant-Rd-98626/home/14834064,NWMLS,2022876,N,Y,46.056806,-122.830687
MLS Listing,,Single Family Residential,18121 10th Street Ct E,Lake Tapps,WA,98391,1399950,5,3.5,Tacoma Pt./Evergreen Pt.,3456,52511,1968,1,405,,Active,,,https://www.redfin.com/WA/Lake-Tapps/18121-10th-St-Ct-E-98391/home/2695174,NWMLS,2022693,N,Y,47.2486293,-122.1875902
MLS Listing,,Vacant Land,Shady Oak (Corner Of) Dr,Albany,OR,97322,260000,,,Albany,,88426,,1,,,Active,,,https://www.redfin.com/OR/Albany/Shady-Oak-Corner-Of-DR-Unknown/home/179391315,WVMLS,800447,N,Y,44.6365107,-123.1059282
MLS Listing,,Mobile/Manufactured Home,340 Evergreen Dr #39,Aumsville,OR,97325,79900,2,2.0,Aumsville,1080,,1991,1,74,,Active,,,https://www.redfin.com/OR/Aumsville/340-Evergreen-Dr-97325/unit-39/home/26271331,WVMLS,800446,N,Y,44.8418576,-122.8785971
MLS Listing,,Single Family Residential,2730 SW West Point Ave,Portland,OR,97225,1250000,4,4.0,Portland,3524,13503,1962,1,355,,Active,,,https://www.redfin.com/OR/Portland/2730-SW-West-Point-Ave-97225/home/26639036,RMLS,22326784,N,Y,45.4999738,-122.7572321
MLS Listing,,Single Family Residential,3725 SW Marquam Hill Rd,Portland,OR,97239,499900,2,1.0,Portland,1294,9147,1947,1,386,,Active,,,https://www.redfin.com/OR/Portland/3725-SW-Marquam-Hill-Rd-97239/home/26490413,RMLS,22117917,N,Y,45.4968058,-122.6961049
MLS Listing,,Townhouse,2491 Hackney Ct,Salem,OR,97317,350000,3,2.5,Salem,1423,3920,1994,1,246,,Active,December-17-2022 01:00 PM,December-17-2022 03:00 PM,https://www.redfin.com/OR/Salem/2491-Hackney-Ct-SE-97317/home/26419092,RMLS,22067173,N,Y,44.904289,-122.9676301
MLS Listing,,Vacant Land,402 Tyler St,Hoquiam,WA,98550,525000,,,North Hoquiam,,211702,,1,,,Active,,,https://www.redfin.com/WA/Hoquiam/402-Tyler-St-98550/home/162027530,NWMLS,2022980,N,Y,46.9838105,-123.8779353
MLS Listing,,Condo/Co-op,13216 NE Salmon Creek Ave Unit K5,Vancouver,WA,98686,315000,2,2.5,SALMON CREEK,1166,,1987,1,270,375,Active,,,https://www.redfin.com/WA/Vancouver/13216-NE-Salmon-Creek-Ave-98686/unit-K5/home/14618420,RMLS,22380717,N,Y,45.7181237,-122.6400622
MLS Listing,,Single Family Residential,20595 SW Nicota Ct,Beaverton,OR,97003,500000,4,2.5,Taurus Place,1573,2613,2004,1,318,,Active,,,https://www.redfin.com/OR/Beaverton/20595-SW-Nicota-Ct-97006/home/26711039,RMLS,22141783,N,Y,45.5123172,-122.888648
MLS Listing,,Single Family Residential,4112 SW Royal Ave,Gresham,OR,97080,512900,4,2.5,SUNSET VILLAGE,1779,,2022,1,288,39,Active,,,https://www.redfin.com/OR/Gresham/4112-SW-Royal-Ave-97080/home/179313853,RMLS,22457205,N,Y,45.468548,-122.470032
MLS Listing,,Single Family Residential,6601 SW Canyon Dr,Portland,OR,97225,489000,3,2.0,Portland,1180,9583,1955,1,414,,Active,December-17-2022 11:00 AM,December-17-2022 01:00 PM,https://www.redfin.com/OR/Portland/6601-SW-Canyon-Dr-97225/home/26653538,RMLS,22306510,N,Y,45.5062277,-122.7459653
MLS Listing,,Condo/Co-op,3910 NE Killingsworth St,Portland,OR,97211,387000,2,1.5,Portland,876,,2021,1,442,44,Active,,,https://www.redfin.com/OR/Portland/3910-NE-Killingsworth-St-97211/home/177039248,RMLS,22133402,N,Y,45.5625896,-122.6231107
MLS Listing,,Single Family Residential,1785 N Goerig St,Woodland,WA,98674,299900,2,1.0,Woodland,1280,12632,1920,1,234,,Active,,,https://www.redfin.com/WA/Woodland/1785-N-Goerig-St-98674/home/14846285,RMLS,22104232,N,Y,45.9172733,-122.743998
MLS Listing,,Single Family Residential,235 SW 7th Ave,Canby,OR,97013,450000,3,2.0,Canby,1435,7840,1964,1,314,,Active,December-18-2022 12:00 PM,December-18-2022 02:00 PM,https://www.redfin.com/OR/Canby/235-SW-7th-Ave-97013/home/26033701,RMLS,22358952,N,Y,45.2565917,-122.690256
MLS Listing,,Single Family Residential,1221 NE 73rd Ave,Portland,OR,97213,349900,2,1.0,MONTAVILLA,1238,3484,1911,1,283,,Active,,,https://www.redfin.com/OR/Portland/1221-NE-73rd-Ave-97213/home/26563553,RMLS,22507061,N,Y,45.5319156,-122.5880048
MLS Listing,,Single Family Residential,16608 NE 96th St,Vancouver,WA,98682,639900,4,2.5,Vancouver,2436,5227,2018,1,263,40,Active,December-17-2022 12:00 PM,December-17-2022 02:00 PM,https://www.redfin.com/WA/Vancouver/16608-NE-96th-St-98682/home/145398819,RMLS,22478558,N,Y,45.6920389,-122.5018485
MLS Listing,,Single Family Residential,17304 Heather Ln SE,Yelm,WA,98597,399900,3,2.0,Yelm,1140,12741,1994,1,351,87,Active,,,https://www.redfin.com/WA/Yelm/17304-Heather-Ln-SE-98597/home/15703379,NWMLS,2021801,N,Y,46.9632452,-122.5748911
MLS Listing,,Single Family Residential,5640 SW 202nd Ave,Aloha,OR,97078,369000,3,2.5,Aloha,1596,10018,1972,1,231,,Active,December-17-2022 11:00 AM,December-17-2022 02:00 PM,https://www.redfin.com/OR/Aloha/5640-SW-202nd-Ave-97007/home/26661700,RMLS,22403960,N,Y,45.4790838,-122.8848792
MLS Listing,,Single Family Residential,11213 NE 87th Ave,Vancouver,WA,98662,975000,4,3.0,Vancouver,3019,,2022,1,323,,Active,December-17-2022 11:00 AM,December-17-2022 01:00 PM,https://www.redfin.com/WA/Vancouver/11213-NE-87th-St-98662/home/161192051,RMLS,22234323,N,Y,45.703206,-122.583297
MLS Listing,,Mobile/Manufactured Home,18633 NW Dairy Creek Rd,North Plains,OR,97133,420000,3,1.0,North Plains,1040,59241,1965,1,404,,Active,,,https://www.redfin.com/OR/North-Plains/18633-NW-Dairy-Creek-Rd-97133/home/26644550,RMLS,22670177,N,Y,45.6549805,-123.0522576
MLS Listing,,Single Family Residential,2450 State Route 6,Raymond,WA,98577,325000,3,1.0,Lebam,804,43560,1940,1,404,,Active,,,https://www.redfin.com/WA/Raymond/2450-SR-6-98577/home/75284170,NWMLS,2022984,N,Y,46.5570939,-123.5394056
MLS Listing,,Single Family Residential,7316 46th Street Ct W,University Place,WA,98466,565000,4,2.0,University Place,1822,5609,1986,1,310,,Active,,,https://www.redfin.com/WA/University-Place/7316-46th-St-Ct-W-98466/home/2725567,NWMLS,2022840,N,Y,47.2147229,-122.5357938
MLS Listing,,Vacant Land,. Un Assigned Ave,Zillah,WA,98953,160000,,,Zillah,,93654,,1,,,Active,,,https://www.redfin.com/WA/Zillah/Un-Assigned-AVE-98953/home/183384468,YAMLS,22-3008,N,Y,46.409981,-120.278414
MLS Listing,,Vacant Land,1782 Sunburst NW,Salem,OR,97304,115000,,,Glen Eden,,8308,,1,,,Active,,,https://www.redfin.com/OR/Salem/1782-Sunburst-Ter-NW-97304/home/26464450,WVMLS,800445,N,Y,44.9522281,-123.0710704
MLS Listing,,Single Family Residential,503 N 19th Ave,Kelso,WA,98626,469000,5,3.5,Butler Acres,2518,13939,1955,1,186,,Active,,,https://www.redfin.com/WA/Kelso/503-N-19th-Ave-98626/home/14849376,NWMLS,2022941,N,Y,46.1470693,-122.89252
MLS Listing,,Single Family Residential,1394 Madrona Ave SE,Salem,OR,97302,409000,3,1.5,Salem,1322,9148,1954,1,309,,Active,December-17-2022 11:00 AM,December-17-2022 02:00 PM,https://www.redfin.com/OR/Salem/1394-Madrona-Ave-SE-97302/home/26387005,WVMLS,796413,N,Y,44.9045516,-123.0262714
MLS Listing,,Vacant Land,1471 Orchardvale Rd,Zillah,WA,98953,135000,,,Zillah,,93654,,1,,,Active,,,https://www.redfin.com/WA/Zillah/1471-Orchardvale-Rd-98953/home/127363576,YAMLS,22-3006,N,Y,46.3829117,-120.1946171
MLS Listing,,Single Family Residential,161 Spragger Way,Cle Elum,WA,98922,1998000,5,4.5,Suncadia,3263,27007,2017,1,612,175,Active,December-17-2022 11:00 AM,December-17-2022 02:00 PM,https://www.redfin.com/WA/Cle-Elum/161-Spragger-Way-98922/home/17507804,NWMLS,2022874,N,Y,47.2050421,-120.9988579
MLS Listing,,Single Family Residential,401 S 17th Ave,Yakima,WA,98902,315000,3,2.0,Yakima,1868,6534,1925,1,169,,Active,December-18-2022 01:00 PM,December-18-2022 03:00 PM,https://www.redfin.com/WA/Yakima/401-S-17th-Ave-98902/home/127032698,YAMLS,22-3005,N,Y,46.5941685,-120.5314319
MLS Listing,,Multi-Family (2-4 Unit),467 18th St NE (467.5) St NE,Salem,OR,97301-8836,375000,4,2.0,Oak Lawn Park,2406,6720,1920,1,156,,Active,,,https://www.redfin.com/OR/Salem/467-18th-St-NE-97301/home/26325367,WVMLS,800444,N,Y,44.938811,-123.0173091
MLS Listing,,Condo/Co-op,3107 Ponderosa Pl #10,Yakima,WA,98902,290000,0,,Yakima,1348,,1980,1,215,255,Active,,,https://www.redfin.com/WA/Yakima/3107-Ponderosa-Dr-98902/unit-10/home/127157816,NWMLS,2022979,N,Y,46.6057879,-120.550707
MLS Listing,,Mobile/Manufactured Home,586 N Log Cabin St,Independence,OR,97351,375000,3,2.0,Independence,1543,16800,1998,1,243,,Active,,,https://www.redfin.com/OR/Independence/586-Log-Cabin-St-97351/home/26467381,WVMLS,800443,N,Y,44.858724,-123.187405
MLS Listing,,Single Family Residential,11506 SE 226 Pl,Kent,WA,98031,313000,1,1.0,Kent,528,3200,1968,1,593,13,Active,,,https://www.redfin.com/WA/Kent/11506-SE-226th-Pl-98031/home/2091687,NWMLS,2022965,N,Y,47.3989501,-122.1875171
MLS Listing,,Single Family Residential,20 E Spencer Glen Dr,Shelton,WA,98584,184900,2,1.0,Shelton,1564,25700,1982,1,118,220,Active,,,https://www.redfin.com/WA/Shelton/20-E-Spencer-Gln-98584/home/16738839,NWMLS,2022913,N,Y,47.2720097,-122.96663
MLS Listing,,Single Family Residential,7290 SW Wilsonville Rd,Wilsonville,OR,97070,949900,4,3.0,Wilsonville,2864,96267,1989,1,332,,Active,December-17-2022 11:00 AM,December-17-2022 02:00 PM,https://www.redfin.com/OR/Wilsonville/7290-SW-Wilsonville-Rd-97070/home/25761515,RMLS,22652930,N,Y,45.3029757,-122.7518392
MLS Listing,,Single Family Residential,33223 SW Havlik Dr,Scappoose,OR,97056,499900,3,2.5,Scappoose,2061,5662,2017,1,243,30,Active,,,https://www.redfin.com/OR/Scappoose/33223-SW-Havlik-Dr-97056/home/144359664,RMLS,22580235,N,Y,45.743597,-122.885204
MLS Listing,,Single Family Residential,27900 SW Lepley Ln,Hillsboro,OR,97123,1390000,4,2.5,Hillsboro,3450,109335,2023,1,403,,Active,,,https://www.redfin.com/OR/Hillsboro/27900-SW-Lepley-Ln-97123/home/26644854,RMLS,22522740,N,Y,45.4030242,-122.9644294
MLS Listing,,Single Family Residential,E Wilson St,Carlton,OR,97111,499900,4,2.0,JR Meadows,1658,,2023,1,302,,Active,,,https://www.redfin.com/OR/Carlton/E-Wilson-ST-97111/home/183383824,RMLS,22657063,N,Y,45.289255,-123.168459
MLS Listing,,Single Family Residential,14811 SE Northshore Cir,Vancouver,WA,98683,1525000,5,5.5,RIVERCREST ESTATES,4450,30927,2006,1,343,8,Active,,,https://www.redfin.com/WA/Vancouver/14811-SE-Northshore-Cir-98683/home/14694412,RMLS,22585339,N,Y,45.5930787,-122.5196622
MLS Listing,,Condo/Co-op,651 NE 162nd Ave #102,Portland,OR,97230,239900,2,2.0,Portland,864,,2006,1,278,210,Active,,,https://www.redfin.com/OR/Portland/651-NE-162nd-Ave-97230/unit-102/home/26618767,RMLS,22472995,N,Y,45.5280784,-122.4965203
MLS Listing,,Single Family Residential,19803 SE 137th Ave E #12,Orting,WA,98366,674950,4,3.5,Orting,3183,5129,2022,1,212,65,Active,,,https://www.redfin.com/WA/Orting/19803-SE-137th-AVE-E-98360/unit-12/home/183383792,NWMLS,2022973,N,Y,47.075434,-122.245366
MLS Listing,,Single Family Residential,18910 141st St E,Bonney Lake,WA,98391,649000,2,2.0,Tehaleh,1449,5411,2014,1,448,342,Active,,,https://www.redfin.com/WA/Bonney-Lake/18910-141st-St-E-98391/home/69366834,NWMLS,2020771,N,Y,47.1269245,-122.1794101
MLS Listing,,Single Family Residential,19904 135th Ave E #120,Graham,WA,98360,457950,3,2.5,Graham,1881,5000,2022,1,243,50,Active,,,https://www.redfin.com/WA/Graham/19904-135th-Ave-E-98338/unit-120/home/183383687,NWMLS,2022968,N,Y,47.0756748,-122.2502903
MLS Listing,,Single Family Residential,11124 SE 218th Pl,Kent,WA,98042,759950,3,2.5,East Hill,2200,7621,1987,1,345,,Active,,,https://www.redfin.com/WA/Kent/11124-SE-218th-Pl-98031/home/220747,NWMLS,2022418,N,Y,47.4065475,-122.192389
MLS Listing,,Single Family Residential,19829 136TH Street Ct E #18,Graham,WA,98360,449950,2,2.0,Graham,1464,6825,2022,1,307,50,Active,,,https://www.redfin.com/WA/Orting/19829-136th-Street-Ct-E-98360/unit-18/home/183383590,NWMLS,2022966,N,Y,47.1318394,-122.23546
MLS Listing,,Single Family Residential,13716 197TH St E #18,Graham,WA,98360,449950,2,2.0,Graham,1464,6222,2022,1,307,50,Active,,,https://www.redfin.com/WA/Graham/13716-197th-St-E-98338/unit-18/home/183383491,NWMLS,2022963,N,Y,47.0774489,-122.2472631
MLS Listing,,Single Family Residential,13460 199TH Street Ct E #135,Graham,WA,98360,439950,2,2.0,Graham,1464,5906,2022,1,301,50,Active,,,https://www.redfin.com/WA/Graham/13460-199th-Street-Ct-E-98338/unit-135/home/183383455,NWMLS,2022961,N,Y,47.0747219,-122.2504337
MLS Listing,,Condo/Co-op,5315 N Yale St,Portland,OR,97203,439900,2,2.5,UNIVERSITY PARK,911,,2022,1,483,,Active,,,https://www.redfin.com/OR/Portland/5315-N-Yale-St-97203/home/183383389,RMLS,22637924,N,Y,45.5775987,-122.7281105
MLS Listing,,Vacant Land,0 Shotgun Ln,Selah,WA,98942,179000,,,Selah,,792356,,1,,,Active,,,https://www.redfin.com/WA/Selah/0-Shotgun-LN-98942/home/180345681,RMLS,22277876,N,Y,46.656091,-120.46991
MLS Listing,,Townhouse,8528 SE Woodstock Blvd,Portland,OR,97266,299000,3,2.5,Portland,1298,871,1999,1,230,,Active,,,https://www.redfin.com/OR/Portland/8528-SE-Woodstock-Blvd-97266/home/25795680,RMLS,22368607,N,Y,45.479162,-122.5747419
MLS Listing,,Vacant Land,TL 8300 Justice Way S,Salem,OR,97302,160000,,,Sunnyridge Heights 12,,7210,,1,,,Active,,,https://www.redfin.com/OR/Salem/8300-Justice-Way-S-97302/home/183383346,WVMLS,800202,N,Y,44.8848723,-123.0736881
MLS Listing,,Single Family Residential,18922 90th Avenue Ct E,Puyallup,WA,98375,499500,4,2.5,Silver Creek,2074,5000,2002,1,241,50,Active,December-17-2022 12:00 PM,December-17-2022 03:00 PM,https://www.redfin.com/WA/Puyallup/18922-90th-Ave-E-98375/home/3003703,NWMLS,2022471,N,Y,47.0835951,-122.3096307
