SALE TYPE,SOLD DATE,PROPERTY TYPE,ADDRESS,CITY,STATE OR PROVINCE,ZIP OR POSTAL CODE,PRICE,BEDS,BATHS,LOCATION,SQUARE FEET,LOT SIZE,YEAR BUILT,DAYS ON MARKET,$/SQUARE FEET,HOA/MONTH,STATUS,NEXT OPEN HOUSE START TIME,NEXT OPEN HOUSE END TIME,URL (SEE https://www.redfin.com/buy-a-home/comparative-market-analysis FOR INFO ON PRICING),SOURCE,MLS#,FAVORITE,INTERESTED,LATITUDE,LONGITUDE
MLS Listing,,Single Family Residential,4840 W Agate Ave,Las Vegas,NV,89139,440000,3,2.0,Sleepy Hollow,1575,4356,2016,1,279,68,Active,,,https://www.redfin.com/NV/Las-Vegas/4840-W-Agate-Ave-89139/home/113218780,GLVAR,2456891,N,Y,36.0245389,-115.2065853
MLS Listing,,Single Family Residential,1411 Yosemite St,Boulder City,NV,89005,695000,3,2.5,Boulder Hills Estate - Boulder City Sub 113,2209,6970,2021,1,315,50,Active,,,https://www.redfin.com/NV/Boulder-City/1411-Yosemite-St-89005/home/175528711,GLVAR,2460083,N,Y,35.9655424,-114.8483563
MLS Listing,,Single Family Residential,2001 Wildwood Lake St,Henderson,NV,89052,375000,2,2.0,Sun City Anthem,1496,5663,2003,1,251,110,Active,,,https://www.redfin.com/NV/Henderson/2001-Wildwood-Lake-St-89052/home/29947281,GLVAR,2460389,N,Y,35.9557175,-115.1181591
MLS Listing,,Condo/Co-op,9207 Tesoras Dr #402,Las Vegas,NV,89144,825000,2,2.0,Mira Villa Condo,2109,,2006,2,391,664,Active,,,https://www.redfin.com/NV/Las-Vegas/9207-Tesoras-Dr-89144/unit-402/home/29026799,GLVAR,2460063,N,Y,36.1744129,-115.2967429
MLS Listing,,Single Family Residential,1205 Granite Falls Pl,North Las Vegas,NV,89084,799000,4,3.5,Village 3 Parcel 305 At Tule Spgs,3288,5663,2018,2,243,56,Active,,,https://www.redfin.com/NV/North-Las-Vegas/1205-Granite-Falls-Pl-89084/home/167606956,GLVAR,2459485,N,Y,36.2874112,-115.159017
MLS Listing,,Single Family Residential,9228 Desert Heat Ave,Las Vegas,NV,89178,820000,6,4.5,South Mountain-Phase 2,4269,6098,2006,4,192,57,Active,December-18-2022 11:00 AM,December-18-2022 02:00 PM,https://www.redfin.com/NV/Las-Vegas/9228-Desert-Heat-Ave-89178/home/29067744,GLVAR,2458887,N,Y,36.0138047,-115.2944543
MLS Listing,,Single Family Residential,2829 Xavier Ridge Ave,North Las Vegas,NV,89086,370000,3,2.0,Tesoro,1293,4792,2004,5,286,55,Active,,,https://www.redfin.com/NV/North-Las-Vegas/2829-Xavier-Ridge-Ave-89086/home/28997553,GLVAR,2459126,N,Y,36.2781884,-115.1102834
MLS Listing,,Single Family Residential,318 W Van Buren Ave,Las Vegas,NV,89106,240000,3,1.0,Valley View Add,870,7405,1947,8,276,,Active,,,https://www.redfin.com/NV/Las-Vegas/318-W-Van-Buren-Ave-89106/home/29335848,GLVAR,2458863,N,Y,36.1872424,-115.1468112
MLS Listing,,Single Family Residential,1443 Briggs Ct,Las Vegas,NV,89110,438100,3,2.0,Monte Vista #22,1778,9148,1989,8,246,,Active,,,https://www.redfin.com/NV/Las-Vegas/1443-Briggs-Ct-89110/home/29376505,GLVAR,2458021,N,Y,36.1859465,-115.0360804
MLS Listing,,Single Family Residential,280 Goldstar St,Henderson,NV,89012,925000,4,4.0,Stephanie & Arroyo Grande,3403,7841,2011,11,272,118,Active,December-17-2022 11:00 AM,December-17-2022 02:00 PM,https://www.redfin.com/NV/Henderson/280-Goldstar-St-89012/home/40548919,GLVAR,2458141,N,Y,36.0165086,-115.0478502
MLS Listing,,Single Family Residential,7941 Quail Breast Ln,Las Vegas,NV,89131,475000,5,3.0,Quail Run At Elkhorn Spgs,2694,5663,2001,13,176,65,Active,December-17-2022 11:00 AM,December-17-2022 02:00 PM,https://www.redfin.com/NV/Las-Vegas/7941-Quail-Breast-Ln-89131/home/29856205,GLVAR,2457947,N,Y,36.3049091,-115.2727614
MLS Listing,,Single Family Residential,7477 Moonglade St,North Las Vegas,NV,89084,450000,3,2.5,Valley Vista Parcel 33,2218,2614,2020,15,203,108,Active,,,https://www.redfin.com/NV/North-Las-Vegas/7477-Moonglade-St-89084/home/167600269,GLVAR,2457232,N,Y,36.296403,-115.2016528
MLS Listing,,Single Family Residential,659 Arrayo Way,Boulder City,NV,89005,547000,4,3.5,Villa Del Prado Amd,2107,6970,1977,17,260,,Active,December-18-2022 11:00 AM,December-18-2022 02:00 PM,https://www.redfin.com/NV/Boulder-City/659-Arrayo-Way-89005/home/29736145,GLVAR,2456043,N,Y,35.9733902,-114.8224841
MLS Listing,,Single Family Residential,6575 Ellerhurst Dr,Las Vegas,NV,89103,465000,3,2.0,Laurelwood Spring Valley,1538,6534,1978,17,302,,Active,,,https://www.redfin.com/NV/Las-Vegas/6575-Ellerhurst-Dr-89103/home/29569230,GLVAR,2456894,N,Y,36.1136858,-115.2355536
MLS Listing,,Condo/Co-op,2854 Geary Pl #3814,Las Vegas,NV,89109,275000,2,2.0,Village Green Condo,1113,,1974,18,247,625,Active,,,https://www.redfin.com/NV/Las-Vegas/2854-Geary-Pl-89109/unit-3814/home/29063833,GLVAR,2456024,N,Y,36.1373335,-115.1477376
MLS Listing,,Condo/Co-op,350 S Durango Dr Dr #231,Las Vegas,NV,89145,248000,2,2.0,Angel Point Condo Ii Amd,1016,6359,1997,18,244,160,Active,,,https://www.redfin.com/NV/Las-Vegas/350-S-Durango-Dr-89145/unit-231/home/29216462,GLVAR,2456709,N,Y,36.168343,-115.277579
MLS Listing,,Single Family Residential,132 Denette Ln,North Las Vegas,NV,89031,399990,3,2.5,La Madre/Commerce,1635,4356,2020,19,245,50,Active,December-17-2022 10:30 AM,December-17-2022 01:30 PM,https://www.redfin.com/NV/North-Las-Vegas/132-Denette-Ln-89031/home/167613615,GLVAR,2455282,N,Y,36.2501279,-115.142341
MLS Listing,,Single Family Residential,664 Otter Brook St,Henderson,NV,89011,499999,2,2.5,Cadence Village Parcel E,2091,5227,2019,19,239,190,Active,,,https://www.redfin.com/NV/Henderson/664-Otter-Brook-St-89011/home/166565686,GLVAR,2455856,N,Y,36.0657,-114.9667633
MLS Listing,,Single Family Residential,10404 Prime View Ct,Las Vegas,NV,89144,465000,3,3.0,Sycamore Ridge,1522,4792,1996,24,306,57,Active,,,https://www.redfin.com/NV/Las-Vegas/10404-Prime-Vw-89144/home/29112727,GLVAR,2455872,N,Y,36.1822916,-115.324618
MLS Listing,,Single Family Residential,3844 Goldfield St,North Las Vegas,NV,89032,469900,4,2.5,Alexander & N Fifth,2706,6098,2006,27,174,28,Active,,,https://www.redfin.com/NV/North-Las-Vegas/3844-N-Goldfield-St-89032/home/29061872,GLVAR,2442875,N,Y,36.2303569,-115.1384729
MLS Listing,,Single Family Residential,2160 Dogwood Ranch Ave,Henderson,NV,89052,720000,4,2.0,Sunridge Summit Estate Amd,2159,8712,2004,29,333,76,Active,,,https://www.redfin.com/NV/Henderson/2160-Dogwood-Ranch-Ave-89052/home/29004466,GLVAR,2454200,N,Y,35.9885786,-115.0816745
MLS Listing,,Single Family Residential,8249 Lancia Ave,Las Vegas,NV,89117,414888,3,2.5,Monaco #3,1957,4356,2002,29,212,28,Active,,,https://www.redfin.com/NV/Las-Vegas/8249-Lancia-Ave-89117/home/29895774,GLVAR,2455024,N,Y,36.1297122,-115.2711176
MLS Listing,,Condo/Co-op,2725 S Nellis Blvd #1059,Las Vegas,NV,89121,209400,2,2.0,Echo Bay Condo,1029,1029,1994,29,203,155,Active,,,https://www.redfin.com/NV/Las-Vegas/2725-S-Nellis-Blvd-89121/unit-1059/home/29414961,GLVAR,2454423,N,Y,36.1010511,-115.047106
MLS Listing,,Single Family Residential,8545 Highland View Ave,Las Vegas,NV,89145,619999,4,2.5,Angel Park Ranch 2,3025,6534,1996,31,205,,Active,,,https://www.redfin.com/NV/Las-Vegas/8545-Highland-Vw-89145/home/29213750,GLVAR,2454132,N,Y,36.1672415,-115.2813044
MLS Listing,,Single Family Residential,7526 Splashing Rock Dr,Las Vegas,NV,89131,429990,3,2.0,Lynbrook,1674,5227,2002,33,257,90,Active,,,https://www.redfin.com/NV/Las-Vegas/7526-Splashing-Rock-Dr-89131/home/29923476,GLVAR,2451764,N,Y,36.2953745,-115.2123282
MLS Listing,,Single Family Residential,2278 Coral Ridge Ave,Henderson,NV,89052,1875000,6,5.0,Green Valley Ranch Parcel 42,5166,11761,2001,36,363,373,Active,,,https://www.redfin.com/NV/Henderson/2278-Coral-Ridge-Ave-89052/home/29682167,GLVAR,2452236,N,Y,36.0131171,-115.0885316
MLS Listing,,Single Family Residential,628 Ryan Peak Ln,Henderson,NV,89011,385000,4,2.5,Desert Canyon-Phase 2B,1825,3049,2011,36,211,72,Active,,,https://www.redfin.com/NV/Henderson/628-Ryan-Peak-Ln-89011/home/40202065,GLVAR,2452162,N,Y,36.0685345,-115.0184017
MLS Listing,,Condo/Co-op,6201 E Lake Mead Blvd #201,Las Vegas,NV,89156,205000,2,2.0,Tropical Villas East Amd,1216,5572,1995,36,169,172,Active,,,https://www.redfin.com/NV/Las-Vegas/6201-E-Lake-Mead-Blvd-89156/unit-201/home/29370986,GLVAR,2448482,N,Y,36.1957747,-115.0372771
MLS Listing,,Single Family Residential,624 Badlands Ave,Henderson,NV,89012,459900,3,2.5,Black Mountain Vistas Parcel A,2021,4792,2002,37,228,40,Active,,,https://www.redfin.com/NV/Henderson/624-Badlands-Ave-89012/home/29688630,GLVAR,2452189,N,Y,36.0256709,-115.0140456
MLS Listing,,Single Family Residential,5513 Deodar Dr,Las Vegas,NV,89108,375999,4,3.0,New West Sub #1,2100,6534,1980,37,179,,Active,,,https://www.redfin.com/NV/Las-Vegas/5513-Deodar-Dr-89108/home/29136187,GLVAR,2452014,N,Y,36.203796,-115.2169364
MLS Listing,,Single Family Residential,8600 Raindrop Canyon Ave,Las Vegas,NV,89129,575000,5,3.0,El Capitan Ranch,3007,5227,1999,38,191,18,Active,December-17-2022 10:00 AM,December-17-2022 01:00 PM,https://www.redfin.com/NV/Las-Vegas/8600-Raindrop-Canyon-Ave-89129/home/29125505,GLVAR,2452637,N,Y,36.2268117,-115.2812433
MLS Listing,,Condo/Co-op,6500 W Lake Mead Blvd #210,Las Vegas,NV,89108,230000,2,2.0,Lighthouse Cove Condo,1064,1064,1992,40,216,220,Active,,,https://www.redfin.com/NV/Las-Vegas/6500-W-Lake-Mead-Blvd-89108/unit-210/home/29448977,GLVAR,2452470,N,Y,36.1963261,-115.2367576
MLS Listing,,Townhouse,2564 Malabar Ave,Las Vegas,NV,89121,299000,3,2.0,Sunrise Villas #9B,1700,3049,1982,43,176,325,Active,,,https://www.redfin.com/NV/Las-Vegas/2564-E-Malabar-Ave-89121/home/29507690,GLVAR,2447622,N,Y,36.106149,-115.11526
MLS Listing,,Single Family Residential,5736 Brimstone Hill Ave,Las Vegas,NV,89141,579900,4,3.0,Highlands Ranch -Phase 2,2667,4356,2017,45,217,32,Active,,,https://www.redfin.com/NV/Las-Vegas/5736-W-Brimstone-Hill-Ave-89141/home/144626090,GLVAR,2449533,N,Y,36.0130285,-115.2207079
MLS Listing,,Single Family Residential,11208 Ferguson Springs St,Las Vegas,NV,89179,589000,4,2.0,Sutter Ranch Estate Phase 1,2166,5227,2013,46,272,31,Active,,,https://www.redfin.com/NV/Las-Vegas/11208-Ferguson-Springs-St-89179/home/44648448,GLVAR,2450733,N,Y,35.9857892,-115.2528035
MLS Listing,,Single Family Residential,12816 Alcores St,Las Vegas,NV,89141,730000,4,3.5,The Cove At Southern Highlands Phase 2,2837,4356,2019,52,257,145,Active,,,https://www.redfin.com/NV/Las-Vegas/12816-Alcores-St-89141/home/166568296,GLVAR,2449170,N,Y,35.9561777,-115.1837979
MLS Listing,,Condo/Co-op,5751 E Hacienda Ave #106,Las Vegas,NV,89122,173500,1,1.0,Infinity Palms,750,9162,1998,52,231,155,Active,,,https://www.redfin.com/NV/Las-Vegas/5751-E-Hacienda-Ave-89122/unit-106/home/29438275,GLVAR,2447989,N,Y,36.0927722,-115.0477402
MLS Listing,,Condo/Co-op,350 S Durango Dr #103,Las Vegas,NV,89145,224900,2,2.0,Angel Point Condo Ii Amd,1016,6360,1997,54,221,160,Active,,,https://www.redfin.com/NV/Las-Vegas/350-S-Durango-Dr-89145/unit-103/home/29216447,GLVAR,2447623,N,Y,36.168343,-115.277579
MLS Listing,,Townhouse,2343 Pickwick Dr,Henderson,NV,89014,310000,2,2.5,Village Green Amd,1524,1307,1987,57,203,310,Active,,,https://www.redfin.com/NV/Henderson/2343-Pickwick-Dr-89014/home/29652938,GLVAR,2446754,N,Y,36.064116,-115.083249
MLS Listing,,Single Family Residential,1250 October Oak Ave,Las Vegas,NV,89123,799900,5,4.0,Silverado Ranch Estate,4569,9583,2002,59,175,83,Active,,,https://www.redfin.com/NV/Las-Vegas/1250-October-Oak-Ave-89123/home/29633601,GLVAR,2447267,N,Y,36.0241203,-115.1353229
MLS Listing,,Single Family Residential,4224 Lancaster Falls Ave,North Las Vegas,NV,89085,599000,4,3.5,Nelson Ranch,2963,9583,2005,69,202,108,Active,,,https://www.redfin.com/NV/North-Las-Vegas/4224-Lancaster-Falls-Ave-89085/home/29046523,GLVAR,2444902,N,Y,36.3114982,-115.1976002
MLS Listing,,Single Family Residential,7069 Shadow Crest Dr,Las Vegas,NV,89119,405000,3,2.5,Meadow Valley #3 Lewis Homes,1685,5227,1988,71,240,,Active,,,https://www.redfin.com/NV/Las-Vegas/7069-Shadow-Crest-Dr-89119/home/29594137,GLVAR,2442211,N,Y,36.0609063,-115.1252934
MLS Listing,,Single Family Residential,3808 Taylor Rock Ct,North Las Vegas,NV,89031,529999,5,3.0,Highland Hills,2879,6970,2002,71,184,55,Active,,,https://www.redfin.com/NV/North-Las-Vegas/3808-Taylor-Rock-Ct-89031/home/29911711,GLVAR,2444342,N,Y,36.2703145,-115.1906528
MLS Listing,,Single Family Residential,1308 Groom Ave,North Las Vegas,NV,89081,375000,3,2.5,Lone Mountain & Bruce,1752,3485,2008,72,214,80,Active,,,https://www.redfin.com/NV/North-Las-Vegas/1308-Groom-Ave-89081/home/29758369,GLVAR,2444724,N,Y,36.2486675,-115.1254324
MLS Listing,,Single Family Residential,12815 Alcores St,Las Vegas,NV,89141,500000,3,2.5,The Cove At Southern Highlands Phase 2,1978,4356,2018,72,253,145,Active,,,https://www.redfin.com/NV/Las-Vegas/12815-Alcores-St-89141/home/147875260,GLVAR,2434777,N,Y,35.9562527,-115.1843537
MLS Listing,,Single Family Residential,2000 Trailside Village Ave,Henderson,NV,89012,775000,4,4.5,Green Valley Ranch-Phase 1 Parcel 27 & 28,3503,6970,1997,75,221,63,Active,December-17-2022 01:00 PM,December-17-2022 04:00 PM,https://www.redfin.com/NV/Henderson/2000-Trailside-Village-Ave-89012/home/29683219,GLVAR,2442554,N,Y,36.0194696,-115.0738674
MLS Listing,,Single Family Residential,10016 Willowbrook Pond Rd,Las Vegas,NV,89148,459500,3,2.0,Sedona 1 At Southwest Ranch Phase 1,1477,4356,2004,78,311,34,Active,,,https://www.redfin.com/NV/Las-Vegas/10016-Willowbrook-Pond-Rd-89148/home/28988742,GLVAR,2441408,N,Y,36.0745028,-115.3114232
MLS Listing,,Single Family Residential,6442 Glen River Cir,Las Vegas,NV,89131,850000,5,3.0,Lamplight Glen At Deersprings,4422,17860,2007,78,192,134,Active,,,https://www.redfin.com/NV/Las-Vegas/6442-Glen-River-Cir-89131/home/29595556,GLVAR,2442615,N,Y,36.2793416,-115.2355536
MLS Listing,,Single Family Residential,7501 Sea Spray Ave,Las Vegas,NV,89128,419000,4,2.5,Sorrento,1830,4792,1993,79,229,,Active,,,https://www.redfin.com/NV/Las-Vegas/7501-Sea-Spray-Ave-89128/home/29169080,GLVAR,2442173,N,Y,36.1913429,-115.2563692
MLS Listing,,Single Family Residential,6682 Stretch Dr,Las Vegas,NV,89156,345000,4,2.0,Hollywood Park,1876,6098,1995,84,184,,Active,,,https://www.redfin.com/NV/Las-Vegas/6682-Stretch-Dr-89156/home/29361616,GLVAR,2437946,N,Y,36.2040169,-115.0273454
MLS Listing,,Single Family Residential,909 Cobblestone Cove Rd,North Las Vegas,NV,89081,370000,3,2.0,Cobblestone Cove,1593,6534,2002,85,232,12,Active,,,https://www.redfin.com/NV/North-Las-Vegas/909-Cobblestone-Cove-Rd-89081/home/29916723,GLVAR,2440478,N,Y,36.2520543,-115.1296481
MLS Listing,,Condo/Co-op,29 Montelago Blvd #208,Henderson,NV,89011,269000,1,1.0,Luna Di Lusso Condo 2nd Amd,634,,2006,89,424,663,Active,,,https://www.redfin.com/NV/Henderson/29-Montelago-Blvd-89011/unit-208/home/29028608,GLVAR,2439535,N,Y,36.1113121,-114.9247993
MLS Listing,,Single Family Residential,9029 Tumblewood Ave,Las Vegas,NV,89143,438000,3,2.5,Spring Mountain Ranch,2091,4356,2000,92,209,60,Active,,,https://www.redfin.com/NV/Las-Vegas/9029-W-Tumblewood-Ave-89143/home/29087490,GLVAR,2437613,N,Y,36.3126244,-115.2920234
MLS Listing,,Single Family Residential,2788 Brands Hatch Ct,Henderson,NV,89052,669000,5,3.0,Granite Hills 2,2715,6970,2004,93,246,59,Active,,,https://www.redfin.com/NV/Henderson/2788-Brands-Hatch-Ct-89052/home/28993682,GLVAR,2436951,N,Y,35.9895172,-115.1095885
MLS Listing,,Vacant Land,635 N Orleans St,Henderson,NV,89015,205000,,,Henderson,,40511,,95,,,Active,,,https://www.redfin.com/NV/Henderson/635-N-Orleans-St-89015/home/33535905,GLVAR,2437076,N,Y,36.054193,-114.9426047
MLS Listing,,Single Family Residential,3917 Bayamon St,Las Vegas,NV,89129,380000,3,2.5,Lone Mountain Terraces Amd,1650,3485,2004,110,230,40,Active,,,https://www.redfin.com/NV/Las-Vegas/3917-Bayamon-St-89129/home/28976806,GLVAR,2433410,N,Y,36.2313023,-115.3247106
MLS Listing,,Condo/Co-op,2451 N Rainbow Blvd #1159,Las Vegas,NV,89108,215000,2,2.0,Mountain Creek,1128,11689,1988,120,191,241,Active,,,https://www.redfin.com/NV/Las-Vegas/2451-N-Rainbow-Blvd-89108/unit-1159/home/29062065,GLVAR,2429837,N,Y,36.2069505,-115.2428833
MLS Listing,,Single Family Residential,3133 Bounding Home Rd,North Las Vegas,NV,89086,595000,4,3.0,Palmer Ranch,2531,6534,2022,125,235,72,Active,,,https://www.redfin.com/NV/North-Las-Vegas/3133-Bounding-Home-Rd-89086/home/174789361,GLVAR,2427492,N,Y,36.2811585,-115.1041912
MLS Listing,,Single Family Residential,11144 Varedo Ct,Las Vegas,NV,89141,529000,4,2.5,Bella Terra At Southern Highlands,3057,4792,2002,130,173,62,Active,,,https://www.redfin.com/NV/Las-Vegas/11144-Varedo-Ct-89141/home/29903183,GLVAR,2405161,N,Y,35.9871367,-115.1864843
MLS Listing,,Vacant Land,Lot 2 Racetrack Rd,Henderson,NV,89015,175000,,,Henderson,,15246,,141,,,Active,,,https://www.redfin.com/NV/Henderson/2-S-Racetrack-Rd-89015/home/44644459,GLVAR,2422660,N,Y,36.0418665,-114.9497845
MLS Listing,,Single Family Residential,1114 Concertino Ave,Las Vegas,NV,89123,439999,3,2.0,Symphaseony Encore-Phase 3A,1864,6970,1992,142,236,,Active,,,https://www.redfin.com/NV/Las-Vegas/1114-Concertino-Ave-89123/home/29612999,GLVAR,2417310,N,Y,36.0462112,-115.1386814
MLS Listing,,Condo/Co-op,4575 Dean Martin Dr #1703,Las Vegas,NV,89103,2199000,3,2.5,Panorama Towers 2,3330,,2005,163,660,2342,Active,,,https://www.redfin.com/NV/Las-Vegas/4575-Dean-Martin-Dr-89103/unit-1703/home/29791275,GLVAR,2408809,N,Y,36.1066027,-115.1821536
MLS Listing,,Condo/Co-op,685 Bay View Dr #1225,Boulder City,NV,89005,310000,2,2.0,Bay View-Boulder City Sub #77 Amd,1348,6708,2007,171,230,385,Active,,,https://www.redfin.com/NV/Boulder-City/685-Bay-View-Dr-89005/unit-1225/home/180260011,GLVAR,2409907,N,Y,35.989316,-114.833066
MLS Listing,,Single Family Residential,564 Delta Rio St,Las Vegas,NV,89138,615000,4,2.5,Solano At The Vistas,2211,3920,2004,171,278,103,Active,,,https://www.redfin.com/NV/Las-Vegas/564-Delta-Rio-St-89138/home/28986136,GLVAR,2411674,N,Y,36.1688949,-115.3524873
MLS Listing,,Vacant Land,9363 N Branded Rd,Kingman,AZ,86401,14500,,,Valle Vista Unit 2,,12632,,1,,10,Active,,,https://www.redfin.com/AZ/Kingman/9363-Branded-Rd-86401/home/162151932,WARDEX,986008,N,Y,35.395675,-113.85548
MLS Listing,,Single Family Residential,16916 N Ladera Dr,Dolan Springs,AZ,86441,110000,1,1.0,Lake Mohave Ranchos,630,46609,2005,1,175,,Active,,,https://www.redfin.com/AZ/Dolan-Springs/16916-Ladera-Dr-86441/home/118728255,WARDEX,987191,N,Y,35.6170938,-114.2610374
MLS Listing,,Vacant Land,3940 N Austin Rd,Kingman,AZ,86401,20000,,,Cedar Hills Ranches,,435600,,1,,,Active,,,https://www.redfin.com/AZ/Kingman/3940-Austin-Rd-86401/home/161729759,WARDEX,988616,N,Y,35.2386708,-113.73153
MLS Listing,,Single Family Residential,1633 K St,Las Vegas,NV,89106,327900,4,2.0,Highland Square,1773,6534,1956,1,185,,Active,,,https://www.redfin.com/NV/Las-Vegas/1633-N-K-St-89106/home/29324277,GLVAR,2460714,N,Y,36.1897067,-115.1570252
MLS Listing,,Single Family Residential,5432 Peacock Lily St Lot 50,Las Vegas,NV,89113,545990,5,3.0,Amigo & Larson,2665,4237,2022,1,205,36,Active,,,https://www.redfin.com/NV/Las-Vegas/5432-Peacock-Lily-St-89113/unit-50/home/183390181,GLVAR,2460724,N,Y,36.089982,-115.254392
MLS Listing,,Single Family Residential,1601 Sabatini Dr,Henderson,NV,89052,639999,4,3.0,Seven Hills Parcel T2,2694,6098,2001,1,238,119,Active,,,https://www.redfin.com/NV/Henderson/1601-Sabatini-Dr-89052/home/29884966,GLVAR,2460712,N,Y,35.9712532,-115.1171399
MLS Listing,,Condo/Co-op,3111 Bel Air Dr Unit 8A,Las Vegas,NV,89109,589000,2,2.5,Regency Towers Amd,1856,1856,1974,1,317,1176,Active,,,https://www.redfin.com/NV/Las-Vegas/3111-Bel-Air-Dr-89109/unit-8A/home/29467268,GLVAR,2460546,N,Y,36.1332234,-115.1413913
MLS Listing,,Single Family Residential,944 W Foothill Dr,Apple Valley,UT,84737,675000,3,3.0,APPLE VALLEY RANCH G,2181,163785,1997,1,309,,Active,,,https://www.redfin.com/UT/Apple-Valley/944-Foothill-Dr-84737/home/135795535,WFRMLS,1855096,N,Y,37.1250052,-113.1280791
MLS Listing,,Townhouse,176 Greenbriar Townhouse Way,Las Vegas,NV,89121,199998,3,1.5,Greenbriar Twnhs,1232,1742,1969,1,162,155,Active,,,https://www.redfin.com/NV/Las-Vegas/176-Greenbriar-Townhouse-Way-89121/home/29413368,GLVAR,2459244,N,Y,36.1340724,-115.0917956
MLS Listing,,Condo/Co-op,3065 Casey Dr #204,Las Vegas,NV,89120,189900,2,2.0,Paradise Village 1013-Amd,1020,78,1995,1,186,241,Active,,,https://www.redfin.com/NV/Las-Vegas/3065-Casey-Dr-89120/unit-204/home/29511139,GLVAR,2460720,N,Y,36.0954227,-115.1077122
MLS Listing,,Single Family Residential,100 E Country Place Rd,Pahrump,NV,89060,325000,3,2.0,The Country Place Ii U1,1851,52272,2006,1,176,,Active,,,https://www.redfin.com/NV/Pahrump/100-E-Country-Place-Rd-89060/home/30606289,GLVAR,2459219,N,Y,36.3008186,-116.0124339
MLS Listing,,Single Family Residential,1699 W Morane Manor Dr,St. George,UT,84790,545000,3,2.0,SUN RIVER,1681,4356,2008,1,324,175,Active,,,https://www.redfin.com/UT/St-George/1699-Morane-Manor-Dr-84790/home/135590075,WFRMLS,1855092,N,Y,37.0230439,-113.6195112
MLS Listing,,Single Family Residential,6602 Melodic Ct,Las Vegas,NV,89139,370000,3,2.5,Sonata Within Pinnacle Peaks Phase 1,1565,3920,2005,1,236,15,Active,December-17-2022 09:00 AM,December-17-2022 01:00 PM,https://www.redfin.com/NV/Las-Vegas/6602-Melodic-Ct-89139/home/29036643,GLVAR,2460412,N,Y,36.0390993,-115.2370123
MLS Listing,,Single Family Residential,3664 N Willow Rd,Kingman,AZ,86409,214900,3,2.0,Kingman Airport Tract,1165,5000,1995,1,184,,Active,,,https://www.redfin.com/AZ/Kingman/3664-N-Willow-Rd-86409/home/119057490,WARDEX,998310,N,Y,35.2296928,-114.024712
MLS Listing,,Single Family Residential,4493 Los Reyes Ct,Las Vegas,NV,89121,325000,2,2.0,Mansions De Los Reyes,1632,6970,1984,1,199,,Active,,,https://www.redfin.com/NV/Las-Vegas/4493-Los-Reyes-Ct-89121/home/29507919,GLVAR,2460572,N,Y,36.1075322,-115.1177422
MLS Listing,,Single Family Residential,,North Las Vegas,NV,89081,465000,4,3.0,,2374,6970,2007,1,196,75,Active,,,https://www.redfin.com/NV/North-Las-Vegas/Undisclosed-address-89081/home/29312425,GLVAR,2460719,N,Y,36.2549328,-115.1201512
MLS Listing,,Single Family Residential,7900 Rockwind Ct,Las Vegas,NV,89117,1200000,4,4.5,Via Olivero Spgs,4015,20909,1997,1,299,50,Active,,,https://www.redfin.com/NV/Las-Vegas/7900-Rockwind-Ct-89117/home/29522303,GLVAR,2460713,N,Y,36.1464005,-115.2658388
MLS Listing,,Single Family Residential,5805 W Cheyenne Ave,Las Vegas,NV,89108,500000,3,2.0,,2172,20909,1976,1,230,,Active,,,https://www.redfin.com/NV/Las-Vegas/5805-W-Cheyenne-Ave-89108/home/29135049,GLVAR,2460560,N,Y,36.2165684,-115.2226791
MLS Listing,,Single Family Residential,2636 Blue Ave,North Las Vegas,NV,89081,469000,4,2.0,Shadow Creek Manor,2300,6534,2005,1,204,53,Active,,,https://www.redfin.com/NV/North-Las-Vegas/2636-Blue-Ave-89081/home/29018906,GLVAR,2460547,N,Y,36.2744462,-115.112901
MLS Listing,,Single Family Residential,3225 Crawford St,North Las Vegas,NV,89030,280000,3,2.0,Cheyenne Estate Amd,1374,6098,1964,1,204,,Active,,,https://www.redfin.com/NV/North-Las-Vegas/3225-N-Crawford-St-89030/home/29257170,GLVAR,2460715,N,Y,36.2190626,-115.1107004
MLS Listing,,Vacant Land,3430 S Mourning Dove Ct,Pahrump,NV,89061,46000,,,Cottonwoodshafen Rch Ph1,,22651,,1,,17,Active,,,https://www.redfin.com/NV/Pahrump/3430-Mourning-Dove-Ct-89061/home/33527213,GLVAR,2460700,N,Y,36.1253017,-115.9130269
MLS Listing,,Single Family Residential,5218 Baltimore Station St,North Las Vegas,NV,89031,465000,5,3.0,Madera,2635,6534,2004,1,176,21,Active,,,https://www.redfin.com/NV/North-Las-Vegas/5218-Baltimore-Station-St-89031/home/29926787,GLVAR,2459174,N,Y,36.2550774,-115.1553576
MLS Listing,,Single Family Residential,145 E Hawk Ave Lot 4006,Pahrump,NV,89060,341000,3,2.0,Riverstone,1611,10019,2023,1,212,41,Active,,,https://www.redfin.com/NV/Pahrump/145-Hawk-Ave-89060/unit-4006/home/183387728,GLVAR,2460638,N,Y,36.2439117,-116.0118475
MLS Listing,,Single Family Residential,6659 Pendle Priory Ave,Henderson,NV,89011,349900,3,2.5,Boulder Post,1415,2614,2005,1,247,40,Active,December-17-2022 10:00 AM,December-17-2022 12:00 PM,https://www.redfin.com/NV/Henderson/6659-Pendle-Priory-Ave-89011/home/29045966,GLVAR,2460686,N,Y,36.0746548,-115.027422
MLS Listing,,Single Family Residential,905 Turtleback Falls Ave Lot 3135,Indian Springs,NV,89018,317020,3,2.0,Solaris At Indian Springs,1536,5227,2022,1,206,57,Active,,,https://www.redfin.com/NV/Indian-Springs/905-Turtleback-Falls-Ave-89018/unit-3135/home/183387553,GLVAR,2460701,N,Y,36.5738039,-115.6645778
MLS Listing,,Single Family Residential,3420 Drover Ave,Las Vegas,NV,89101,275000,4,1.0,College Park #26,1031,6970,1973,1,267,,Active,,,https://www.redfin.com/NV/Las-Vegas/3420-Drover-Ave-89101/home/29333384,GLVAR,2460702,N,Y,36.1867529,-115.0991876
MLS Listing,,Condo/Co-op,205 E Harmon Ave #412,Las Vegas,NV,89169,350000,2,2.0,Marie Antoinette,1296,,1976,1,270,631,Active,,,https://www.redfin.com/NV/Las-Vegas/205-E-Harmon-Ave-89169/unit-412/home/29503609,GLVAR,2460693,N,Y,36.1076433,-115.1627459
MLS Listing,,Single Family Residential,2412 Twin Flower Cir,Las Vegas,NV,89134,539000,3,2.5,Panorama Pointe,1880,4792,1991,1,287,47,Active,,,https://www.redfin.com/NV/Las-Vegas/2412-Twin-Flower-Cir-89134/home/29148996,GLVAR,2460233,N,Y,36.2043367,-115.2969314
MLS Listing,,Single Family Residential,10637 Primrose Arbor Ave,Las Vegas,NV,89144,424999,3,2.0,Rosewood By Pardee-Phase 1,1301,4792,1998,1,327,50,Active,,,https://www.redfin.com/NV/Las-Vegas/10637-Primrose-Arbor-Ave-89144/home/29113606,GLVAR,2460695,N,Y,36.171705,-115.3284143
MLS Listing,,Condo/Co-op,8255 Las Vegas Blvd #705,Las Vegas,NV,89123,439000,2,2.0,One Las Vegas,1338,,2008,1,328,795,Active,,,https://www.redfin.com/NV/Las-Vegas/8255-Las-Vegas-Blvd-S-89123/unit-705/home/29800412,GLVAR,2460591,N,Y,36.039852,-115.176096
MLS Listing,,Single Family Residential,3034 Villanelle Ave,Henderson,NV,89044,775000,4,3.5,Inspirada Pod 3-2,3091,6098,2018,1,251,85,Active,,,https://www.redfin.com/NV/Henderson/3034-Villanelle-Ave-89044/home/161736592,GLVAR,2460393,N,Y,35.9404616,-115.1200822
MLS Listing,,Single Family Residential,991 Alverstone Ct,Henderson,NV,89002,698500,4,3.0,Mission / College - Phase 2,3304,6534,2019,1,211,45,Active,,,https://www.redfin.com/NV/Henderson/991-Alverstone-Ct-89002/home/166432399,GLVAR,2460692,N,Y,35.9988016,-114.9685349
MLS Listing,,Condo/Co-op,5201 S Torrey Pines Dr #1263,Las Vegas,NV,89118,299000,2,2.0,Spring Oaks Village & Amd,1153,,1995,1,259,240,Active,,,https://www.redfin.com/NV/Las-Vegas/5201-S-Torrey-Pines-Dr-89118/unit-1263/home/29579941,GLVAR,2460585,N,Y,36.0937282,-115.2352525
MLS Listing,,Single Family Residential,6345 Amelia Ridge Ave,Las Vegas,NV,89141,400000,3,2.5,Summer Hill 2,1474,3485,2016,1,271,50,Active,,,https://www.redfin.com/NV/Las-Vegas/6345-Amelia-Ridge-Ave-89141/home/143191974,GLVAR,2460662,N,Y,35.9970284,-115.2312698
MLS Listing,,Single Family Residential,9444 Doe Mountain Ct,Las Vegas,NV,89178,499000,3,2.5,Grand Canyon 15,1845,5663,2019,1,270,49,Active,,,https://www.redfin.com/NV/Las-Vegas/9444-Doe-Mountain-Ct-89141/home/167760928,GLVAR,2460630,N,Y,36.0164808,-115.3040616
MLS Listing,,Vacant Land,420 Santa Maria Ct #204,St. George,UT,84790,170000,,,BLOOMINGTON HILLS,,10890,,1,,,Active,,,https://www.redfin.com/UT/St-George/420-Santa-Maria-Ct-84790/unit-204/home/182576987,WFRMLS,1855078,N,Y,37.0714111,-113.5747947
MLS Listing,,Single Family Residential,1073 E 990 S Cir S,St. George,UT,84790,729900,4,2.5,CANTERBURY COURT,2588,10454,2011,1,282,,Active,,,https://www.redfin.com/UT/St-George/1073-E-990-S-84790/home/135796423,WFRMLS,1855075,N,Y,37.0909965,-113.560736
MLS Listing,,Single Family Residential,4018 Extenso Dr,North Las Vegas,NV,89032,425900,3,2.0,Las Brisas Norte-Phase 1A,1618,7405,1994,1,263,,Active,,,https://www.redfin.com/NV/North-Las-Vegas/4018-Extenso-Dr-89032/home/29243169,GLVAR,2458310,N,Y,36.236802,-115.1951687
MLS Listing,,Single Family Residential,4192 Skywalker Ave,Las Vegas,NV,89120,632000,3,2.5,Las Brisas Estate,2421,12197,1999,1,261,90,Active,,,https://www.redfin.com/NV/Las-Vegas/4192-Skywalker-Ave-89120/home/29444832,GLVAR,2460660,N,Y,36.08912,-115.0824158
MLS Listing,,Single Family Residential,163 E Hawk St Lot 4008,Pahrump,NV,89060,351000,4,2.0,Riverstone,1825,10000,2022,1,192,41,Active,,,https://www.redfin.com/NV/Pahrump/163-Hawk-Ave-89060/unit-4008/home/183385745,GLVAR,2460673,N,Y,36.243868,-116.012261
MLS Listing,,Vacant Land,840 N Twin Lakes Dr #228,St. George,UT,84770,85000,,,St. George,,1742,,1,,130,Active,,,https://www.redfin.com/UT/St-George/840-Twin-Lakes-Dr-84770/unit-228/home/136135948,WFRMLS,1855068,N,Y,37.1199841,-113.5490647
MLS Listing,,Single Family Residential,164 E Hawk Ave Lot 3010,Pahrump,NV,89060,341000,3,2.0,Riverstone,1611,10000,2022,1,212,41,Active,,,https://www.redfin.com/NV/Pahrump/164-Hawk-Ave-89060/unit-3010/home/183385562,GLVAR,2460669,N,Y,36.2443639,-116.011524
MLS Listing,,Condo/Co-op,1455 E Katie Ave Unit D23,Las Vegas,NV,89119,225000,2,2.0,Villas De Mission Condo Amd,1050,,1980,1,214,198,Active,,,https://www.redfin.com/NV/Las-Vegas/1455-E-Katie-Ave-89119/unit-D23/home/28969026,GLVAR,2460254,N,Y,36.1200548,-115.1335625
MLS Listing,,Single Family Residential,10211 Crepe Myrtle Ct,Las Vegas,NV,89183,425000,3,2.0,Amigo,1520,3920,2000,1,280,14,Active,,,https://www.redfin.com/NV/Las-Vegas/10211-Crepe-Myrtle-Ct-89183/home/29836449,GLVAR,2460657,N,Y,36.0045218,-115.1491505
MLS Listing,,Multi-Family (2-4 Unit),2166 W 380 S,Hurricane,UT,84737,1650000,9,9.0,Hurricane,6441,6534,2022,1,256,,Active,,,https://www.redfin.com/UT/Hurricane/2166-W-380-S-84737/home/183385513,WFRMLS,1855064,N,Y,37.1752607,-113.2899484
MLS Listing,,Multi-Family (2-4 Unit),4915 E Russell Rd,Las Vegas,NV,89120,1199999,10,,Mesa Ridge Village,5214,5227,2004,1,230,,Active,,,https://www.redfin.com/NV/Las-Vegas/4915-E-Russell-Rd-89120/home/166545400,GLVAR,2460671,N,Y,36.0871735,-115.0654827
MLS Listing,,Single Family Residential,7213 Utopia Way,Las Vegas,NV,89130,392000,3,2.0,Grand Entries Phase 3,1128,4792,1995,1,348,,Active,,,https://www.redfin.com/NV/Las-Vegas/7213-Utopia-Way-89130/home/29095448,GLVAR,2460576,N,Y,36.2648947,-115.2501177
MLS Listing,,Condo/Co-op,4470 Rich Dr Unit C,Las Vegas,NV,89102,160000,2,2.0,Savalli Estate,922,,1980,1,174,250,Active,,,https://www.redfin.com/NV/Las-Vegas/4470-Rich-Dr-89102/unit-C/home/29463379,GLVAR,2454249,N,Y,36.131116,-115.201097
MLS Listing,,Single Family Residential,182 E Hawk Ave Lot 3009,Pahrump,NV,89060,331000,3,2.0,Riverstone,1501,10000,2022,1,221,41,Active,,,https://www.redfin.com/NV/Pahrump/182-Hawk-Ave-89060/unit-3009/home/183385384,GLVAR,2460663,N,Y,36.2443893,-116.0111851
MLS Listing,,Single Family Residential,5077 Thunder River Cir,Las Vegas,NV,89148,637500,3,2.0,Grand Canyon Villas,3195,5227,2003,1,200,,Active,,,https://www.redfin.com/NV/Las-Vegas/5077-Thunder-River-Cir-89148/home/29923350,GLVAR,2460608,N,Y,36.0969171,-115.3060062
MLS Listing,,Townhouse,523 E Barrett St,Henderson,NV,89011,274900,3,1.5,Summerfield Amd,1147,3920,1981,1,240,,Active,,,https://www.redfin.com/NV/Henderson/523-E-Barrett-St-89011/home/29643173,GLVAR,2460556,N,Y,36.0619871,-114.9963889
MLS Listing,,Multi-Family (5+ Unit),272 S 1930 W,Hurricane,UT,84737,2400000,18,18.0,Hurricane,9822,7840,2022,1,244,,Active,,,https://www.redfin.com/UT/Hurricane/272-S-1930-W-84737/home/183385240,WFRMLS,1855058,N,Y,37.1732604,-113.3239611
MLS Listing,,Single Family Residential,1724 Florence Ave,Kingman,AZ,86401,179900,3,2.0,Golden Gate Addition,1052,7500,1991,1,171,,Active,,,https://www.redfin.com/AZ/Kingman/1724-Florence-Ave-86401/home/118568572,WARDEX,998305,N,Y,35.2044281,-114.0390678
MLS Listing,,Multi-Family (2-4 Unit),1109 Emerywood Ct,Las Vegas,NV,89117,999999,10,,Charleston Place,4309,8276,1997,1,232,,Active,,,https://www.redfin.com/NV/Las-Vegas/1109-Emerywood-Ct-89117/home/29521194,GLVAR,2457841,N,Y,36.1584591,-115.2771603
MLS Listing,,Single Family Residential,4343 Cobblehill Way,North Las Vegas,NV,89032,449900,4,2.0,Silver Mesa,1953,10890,1994,1,230,,Active,,,https://www.redfin.com/NV/North-Las-Vegas/4343-Cobblehill-Way-89032/home/29243906,GLVAR,2460641,N,Y,36.2306966,-115.2000781
MLS Listing,,Single Family Residential,298 E 350 N,Ivins,UT,84738,1399000,7,4.5,RED MOUNTAIN ESTATES,3992,11325,2017,1,350,50,Active,,,https://www.redfin.com/UT/Ivins/298-E-350-N-84738/home/135882697,WFRMLS,1855054,N,Y,37.1740917,-113.6727704
MLS Listing,,Single Family Residential,8770 Beverly Grove Ct,Las Vegas,NV,89113,528800,5,3.0,Sage Glen,2475,3485,2022,1,214,42,Active,,,https://www.redfin.com/NV/Las-Vegas/8770-Beverly-Grv-Ct-89113/home/175526511,GLVAR,2460610,N,Y,36.0292326,-115.2439124
MLS Listing,,Single Family Residential,1044 E Corral Way #108,Washington,UT,84780,939000,4,2.0,HEIGHTS AT WASHINGTO,2542,11761,2022,1,369,,Active,,,https://www.redfin.com/UT/Washington/1044-E-Corral-Way-84780/unit-108/home/183384872,WFRMLS,1855050,N,Y,37.1015923,-113.4921406
MLS Listing,,Single Family Residential,150 N 3050 E #45,St. George,UT,84770,180000,1,1.0,St. George,569,2178,1994,1,316,105,Active,,,https://www.redfin.com/UT/St-George/150-N-3050-E-84790/unit-45/home/136161017,WFRMLS,1855051,N,Y,37.1100553,-113.5211046
MLS Listing,,Single Family Residential,2874 E Skywalker Dr,St. George,UT,84790,850000,5,4.0,DESERT HORIZON,3645,12632,2022,1,233,,Active,,,https://www.redfin.com/UT/St-George/2874-E-Skywalker-DR-84790/home/183384804,WFRMLS,1855048,N,Y,37.0441957,-113.5490415
MLS Listing,,Single Family Residential,2309 Bowstring Dr,Las Vegas,NV,89142,349900,3,2.5,Stonebridge D1B,1215,4356,1993,1,288,,Active,,,https://www.redfin.com/NV/Las-Vegas/2309-Bowstring-Dr-89142/home/29406837,GLVAR,2460580,N,Y,36.1465141,-115.0503292
MLS Listing,,Single Family Residential,4827 Sacks Dr,Las Vegas,NV,89122,285000,3,2.0,Desert Hills,999,6098,1962,1,285,,Active,,,https://www.redfin.com/NV/Las-Vegas/4827-Sacks-Dr-89122/home/29431577,GLVAR,2460645,N,Y,36.1019007,-115.0589014
MLS Listing,,Townhouse,9428 Gold Mountain Dr,Las Vegas,NV,89134,374900,2,2.0,Sun City Summerlin- Amd,1196,2614,1992,1,313,322,Active,,,https://www.redfin.com/NV/Las-Vegas/9428-W-Gold-Mountain-Ave-89134/home/29153644,GLVAR,2460636,N,Y,36.2116588,-115.3009132
MLS Listing,,Single Family Residential,4261 El Campana Way,Las Vegas,NV,89121,465000,5,2.0,El Encanto,2108,7841,1975,1,221,,Active,,,https://www.redfin.com/NV/Las-Vegas/4261-El-Campana-Way-89121/home/29427220,GLVAR,2460559,N,Y,36.1089777,-115.0812807
MLS Listing,,Single Family Residential,12112 Vista Linda Ave,Las Vegas,NV,89138,950000,6,3.5,Los Lomas At Paseos Parcel F At Village 23A,3258,6970,2006,1,292,145,Active,,,https://www.redfin.com/NV/Las-Vegas/12112-Vista-Linda-Ave-89138/home/29025364,GLVAR,2459531,N,Y,36.1638427,-115.3598245
MLS Listing,,Single Family Residential,854 Tiger Lake Ave,Henderson,NV,89012,459000,2,2.0,DEL WEBB COMMUNITIES,1580,6098,1999,1,291,74,Active,,,https://www.redfin.com/NV/Henderson/854-Tiger-Lake-Ave-89012/home/29699060,GLVAR,2460604,N,Y,35.9964081,-115.0693267
MLS Listing,,Single Family Residential,118 Continental Ave,Henderson,NV,89015,310000,3,2.0,Henderson #3,1042,6098,1954,1,298,,Active,,,https://www.redfin.com/NV/Henderson/118-Continental-Ave-89015/home/29701097,GLVAR,2460436,N,Y,36.0466155,-114.9727989
MLS Listing,,Townhouse,2726 Atomic Tangerine Way #4,Las Vegas,NV,89183,339990,3,2.0,Las Vegas Blvd & St Rose Phase 3 2nd Amd,1273,4792,2022,1,267,285,Active,,,https://www.redfin.com/NV/Las-Vegas/2726-Atomic-Tangerine-Way-89183/unit-4/home/179109790,GLVAR,2460634,N,Y,35.9645436,-115.1776608
MLS Listing,,Single Family Residential,4443 Norma Jean Ln,North Las Vegas,NV,89031,369999,3,2.0,Casa Linda,1427,6534,1990,1,259,,Active,,,https://www.redfin.com/NV/North-Las-Vegas/4443-Norma-Jean-Ln-89031/home/29238785,GLVAR,2460495,N,Y,36.2410546,-115.1868317
MLS Listing,,Single Family Residential,303 W 500 N,St. George,UT,84770,399000,4,2.0,ST GEORGE CITY SURVE,1688,6098,1964,1,236,,Active,,,https://www.redfin.com/UT/St-George/303-W-500-N-84770/home/135316863,WFRMLS,1855037,N,Y,37.1164996,-113.5896132
MLS Listing,,Single Family Residential,5369 Sleeping Cat St,Las Vegas,NV,89122,330000,3,2.0,Fairfax Village,1166,3485,2006,1,283,39,Active,,,https://www.redfin.com/NV/Las-Vegas/5369-Sleeping-Cat-St-89122/home/29482335,GLVAR,2460563,N,Y,36.0917993,-115.0285966
MLS Listing,,Single Family Residential,5921 Royal Castle Ln,Las Vegas,NV,89130,415000,3,2.5,Grand Entries-Phase 7,2076,4356,1996,1,200,,Active,,,https://www.redfin.com/NV/Las-Vegas/5921-Royal-Castle-Ln-89130/home/29095481,GLVAR,2460278,N,Y,36.2687875,-115.2488674
MLS Listing,,Vacant Land,1851 W Ambler Way,Pahrump,NV,89060,35000,,,Crystalaire Estates,,108900,,1,,,Active,,,https://www.redfin.com/NV/Pahrump/1851-Ambler-Way-89060/home/143361822,GLVAR,2460622,N,Y,36.2833045,-116.0479788
MLS Listing,,Single Family Residential,1160 E Telegraph #229,Washington,UT,84780,189000,1,1.5,Washington,692,2178,1986,1,273,120,Active,,,https://www.redfin.com/UT/Washington/1160-E-Telegraph-St-84780/unit-229/home/136031823,WFRMLS,1855035,N,Y,37.1282455,-113.4892482
MLS Listing,,Single Family Residential,24 Staghorn St,Henderson,NV,89012,599999,4,2.5,Green Valley Ranch Parcel 15,2305,5227,1995,1,260,67,Active,,,https://www.redfin.com/NV/Henderson/24-Staghorn-St-89012/home/29684507,GLVAR,2460624,N,Y,36.0220474,-115.0728481
MLS Listing,,Condo/Co-op,2110 Los Feliz St #2016,Las Vegas,NV,89156,215000,2,2.0,Mountain Peak Condos,1146,2818,1997,1,188,140,Active,,,https://www.redfin.com/NV/Las-Vegas/2110-Los-Feliz-St-89156/unit-2016/home/29374106,GLVAR,2459073,N,Y,36.1994905,-115.0133435
MLS Listing,,Single Family Residential,2518 Furnace Creek Ave,Henderson,NV,89074,765000,5,3.0,American West Legacy,3225,6534,1994,1,237,10,Active,,,https://www.redfin.com/NV/Henderson/2518-Furnace-Creek-Ave-89074/home/29679444,GLVAR,2460602,N,Y,36.0295489,-115.0966858
MLS Listing,,Single Family Residential,1541 Odette Ln,Las Vegas,NV,89117,559990,3,3.0,Valley West 8,2172,7405,1985,1,258,,Active,,,https://www.redfin.com/NV/Las-Vegas/1541-Odette-Ln-89117/home/29523032,GLVAR,2460620,N,Y,36.1538345,-115.2890601
MLS Listing,,Vacant Land,39.94 White GO RD Way,Meadview,AZ,86444,24900,,,Dusty Boots,,13953575,,1,,,Active,,,https://www.redfin.com/AZ/Meadview/39-94-White-GO-RD-WAY-86444/home/183383507,WARDEX,998212,N,Y,35.857742,-114.110956
MLS Listing,,Single Family Residential,796 Keys View Ave,Las Vegas,NV,89138,727434,3,3.0,Summerlin Village 25 - Parcel F,2126,3711,2022,1,342,55,Active,,,https://www.redfin.com/NV/Las-Vegas/796-Kys-Vw-Ave-89138/home/179981845,GLVAR,2460567,N,Y,36.1901116,-115.3584126
MLS Listing,,Multi-Family (5+ Unit),2026 W 380 S,Hurricane,UT,84737,2500000,24,3.0,HURRICANE VIEWS,10038,7840,2022,1,249,,Active,,,https://www.redfin.com/UT/Hurricane/2026-W-380-S-84737/home/183383412,WFRMLS,1855029,N,Y,37.1752607,-113.2899484
MLS Listing,,Single Family Residential,9086 Lynwood Ridge Ct,Las Vegas,NV,89178,445000,3,2.5,Blue Diamond / Grand Canyon North,1912,4356,2019,1,233,47,Active,,,https://www.redfin.com/NV/Las-Vegas/9086-Lynwood-Ridge-Ct-89178/home/167760471,GLVAR,2460059,N,Y,36.0224479,-115.3083211
MLS Listing,,Vacant Land,TBD W Chino Rd,Golden Valley,AZ,86413,39999,,,Roadway Easement,,40511,,1,,,Active,,,https://www.redfin.com/AZ/Golden-Valley/TBD-Chino-Rd-86413/home/180809797,WARDEX,998293,N,Y,35.22902,-114.208643
MLS Listing,,Vacant Land,5223 W Chino Dr,Golden Valley,AZ,86413,55900,,,Roadway Easement,,44867,,1,,,Active,,,https://www.redfin.com/AZ/Golden-Valley/5223-Chino-Dr-86413/home/119146440,WARDEX,998290,N,Y,35.2292743,-114.209201
MLS Listing,,Mobile/Manufactured Home,1360 N Dixie Downs Rd #63,St. George,UT,84770,183000,3,2.0,PARADISE PALMS,960,,1996,1,191,320,Active,,,https://www.redfin.com/UT/St-George/1360-N-Dixie-Downs-Rd-84770/unit-63/home/181392724,WFRMLS,1855025,N,Y,37.1317101,-113.622859
MLS Listing,,Single Family Residential,8605 Lynhurst Dr,Las Vegas,NV,89134,369900,2,2.0,Sun City Summerlin,1172,10890,1989,1,316,138,Active,,,https://www.redfin.com/NV/Las-Vegas/8605-Lynhurst-Dr-89134/home/29148782,GLVAR,2460583,N,Y,36.2170965,-115.2818832
MLS Listing,,Vacant Land,39.92 Silver Torch Rd,Meadview,AZ,86444,24900,,,Dusty Boots,,13953575,,1,,,Active,,,https://www.redfin.com/AZ/Meadview/39-92-Silver-Torch-RD-86444/home/183382910,WARDEX,998211,N,Y,36.858009,-114.106221
MLS Listing,,Condo/Co-op,801 Dana Hills Ct #203,Las Vegas,NV,89134,375000,2,2.0,Terraces 2 In The Hills At Summerlin Amd,1427,,1999,1,263,375,Active,,,https://www.redfin.com/NV/Las-Vegas/801-Dana-Hills-Ct-89134/unit-203/home/29211768,GLVAR,2460409,N,Y,36.1813864,-115.2978805
MLS Listing,,Single Family Residential,2213 Isabelle Ave,Las Vegas,NV,89101,425000,4,4.0,Moss Tr #2 Parcel #2,2319,6970,1955,1,183,,Active,,,https://www.redfin.com/NV/Las-Vegas/2213-Isabelle-Ave-89101/home/29351085,GLVAR,2460486,N,Y,36.1633046,-115.1183676
MLS Listing,,Vacant Land,445 E WHITMORE Dr #204,Meadview,AZ,86444,8500,,,MEADVIEW VALLEY UNIT 1,,12002,,1,,,Active,,,https://www.redfin.com/AZ/Meadview/445-Whitmore-Dr-86444/unit-204/home/183382755,ARMLS,6499405,N,Y,36.0203815,-114.0629226
MLS Listing,,Single Family Residential,1235 Del Lilly Ln,Las Vegas,NV,89123,499900,3,2.0,Monterey Spgs,1862,8712,1991,1,268,,Active,,,https://www.redfin.com/NV/Las-Vegas/1235-Del-Lilly-Ln-89123/home/29612917,GLVAR,2460147,N,Y,36.0539892,-115.1353229
MLS Listing,,Single Family Residential,7081 W Camero Ave,Las Vegas,NV,89113,629900,5,3.5,Montessouri & Camero,3072,4792,2022,1,205,45,Active,,,https://www.redfin.com/NV/Las-Vegas/7081-W-Camero-Ave-89113/home/173633369,GLVAR,2459807,N,Y,36.035509,-115.2472
MLS Listing,,Vacant Land,39.95 ACRES W Acanthus Dr,Meadview,AZ,86444,24900,,,Dusty Boots,,13953575,,1,,,Active,,,https://www.redfin.com/AZ/Unknown/39-95-ACRES-Acanthus-Dr-86444/home/183381903,WARDEX,998209,N,Y,35.85193,-114.10577
MLS Listing,,Single Family Residential,323 Cadence Vista Dr,Henderson,NV,89015,479900,3,2.0,Cadence Village Parcel 3-J6,1662,4792,2020,1,289,50,Active,,,https://www.redfin.com/NV/Henderson/323-Cadence-Vista-Dr-89015/home/169241495,GLVAR,2459931,N,Y,36.0538033,-114.9803766
MLS Listing,,Condo/Co-op,2975 Bluegrass Ln #1521,Henderson,NV,89074,279900,2,2.0,Island Park Condo,1282,,1994,1,218,290,Active,,,https://www.redfin.com/NV/Henderson/2975-Bluegrass-Ln-89074/unit-1521/home/29615849,GLVAR,2460437,N,Y,36.045642,-115.116711
MLS Listing,,Vacant Land,9805 N Whipple Dr,Kingman,AZ,86401,13500,,,Valle Vista Unit 2,,8712,,1,,10,Active,,,https://www.redfin.com/AZ/Kingman/9805-N-Whipple-Dr-86401/home/161833214,WARDEX,998298,N,Y,35.408137,-113.869107
MLS Listing,,Vacant Land,39.98 ACRES W Acanthus Dr,Meadview,AZ,86444,24900,,,Dusty Boots,,13953575,,1,,,Active,,,https://www.redfin.com/AZ/Unknown/39-98-ACRES-Acanthus-Dr-86444/home/183381410,WARDEX,998206,N,Y,35.852469,-114.111607
MLS Listing,,Single Family Residential,2962 Maffie St,Henderson,NV,89052,399999,2,2.0,Sun City Anthem Phase 1,1508,8712,2002,1,265,110,Active,,,https://www.redfin.com/NV/Henderson/2962-Maffie-St-89052/home/29918649,GLVAR,2460566,N,Y,35.9451252,-115.1156806
MLS Listing,,Single Family Residential,3534 White Mountain St,Las Vegas,NV,89147,469000,4,3.0,Spring Mountain Fort Apache #1 Lewis Homes,1732,4792,1999,1,271,,Active,,,https://www.redfin.com/NV/Las-Vegas/3534-White-Mountain-St-89147/home/29556066,GLVAR,2452760,N,Y,36.1255208,-115.2983204
MLS Listing,,Single Family Residential,2050 W Canyon View Dr #203,St. George,UT,84770,336000,2,2.0,COTTAGES NORTH 2,1122,3049,1997,1,299,160,Active,,,https://www.redfin.com/UT/St-George/2050-W-Canyon-View-Dr-84770/unit-203/home/135337616,WFRMLS,1855002,N,Y,37.0941089,-113.6264392
MLS Listing,,Single Family Residential,6113 Granada Cir,Las Vegas,NV,89107,350000,3,2.0,Charleston Heights Tr #28A,1274,6098,1962,1,275,,Active,,,https://www.redfin.com/NV/Las-Vegas/6113-Granada-Cir-89107/home/29197115,GLVAR,2460468,N,Y,36.1784326,-115.2248789
MLS Listing,,Single Family Residential,,Las Vegas,NV,89123,425000,4,2.5,,2156,6970,1996,1,197,15,Active,,,https://www.redfin.com/NV/Las-Vegas/Undisclosed-address-89123/home/29634853,GLVAR,2460357,N,Y,36.0163498,-115.1239963
MLS Listing,,Single Family Residential,1550 E Howard Ln,St. George,UT,84790,1575000,4,4.5,SOUTH RIM AT FOREMAS,4336,15681,2022,1,363,,Active,December-17-2022 10:00 AM,December-17-2022 02:00 PM,https://www.redfin.com/UT/St-George/1550-E-Howard-Ln-84790/home/183380651,WFRMLS,1854995,N,Y,37.089741,-113.5502861
MLS Listing,,Vacant Land,267xx Granada Rd,Seligman,AZ,86337,25000,,,Bridge Canyon Country Estates Unit 2,,48351,,1,,,Active,,,https://www.redfin.com/AZ/Unknown/267xx-Granada-Rd-86337/home/183380650,PAARMLS,1053041,N,Y,35.323661,-112.950754
MLS Listing,,Single Family Residential,20 Chateau Whistler Ct,Las Vegas,NV,89148,699900,4,2.5,Rhodes Ranch-Phase 1 Amd,2332,6098,1998,1,300,155,Active,,,https://www.redfin.com/NV/Las-Vegas/20-Chateau-Whistler-Ct-89148/home/29590484,GLVAR,2460545,N,Y,36.0473027,-115.2839669
MLS Listing,,Vacant Land,28178 N Drifting Sands Dr,Meadview,AZ,86444,6900,,,Meadview Unit 09,,47916,,1,,3,Active,,,https://www.redfin.com/AZ/Meadview/28178-Drifting-Sands-Dr-86444/home/162101542,WARDEX,998294,N,Y,35.943214,-114.074484
MLS Listing,,Single Family Residential,10190 Meandering Dell Ave,Las Vegas,NV,89166,646995,3,2.5,Skye Canyon 207 & 232 - Phase 2,2172,5779,2023,1,298,149,Active,,,https://www.redfin.com/NV/Las-Vegas/10190-Meandering-Dell-St-89124/home/177117784,GLVAR,2459009,N,Y,36.318219,-115.318098
MLS Listing,,Single Family Residential,6706 Petrified Forest St,North Las Vegas,NV,89084,500000,4,2.5,Parks,2224,10454,2001,1,225,68,Active,,,https://www.redfin.com/NV/North-Las-Vegas/6706-Petrified-Forest-St-89084/home/29851489,GLVAR,2460536,N,Y,36.2820584,-115.1522541
MLS Listing,,Single Family Residential,620 Sylvan St Lot 18,Henderson,NV,89002,457153,3,2.0,Arden Heights,1791,5227,2023,1,255,90,Active,,,https://www.redfin.com/NV/Henderson/620-Sylvan-St-89002/unit-18/home/183380490,GLVAR,2460497,N,Y,36.003936,-114.939365
MLS Listing,,Single Family Residential,622 Sylvan St Lot 19,Henderson,NV,89002,471660,4,2.5,Arden Heights,2104,5227,2023,1,224,90,Active,,,https://www.redfin.com/NV/Henderson/622-Sylvan-St-89002/unit-19/home/183380489,GLVAR,2460493,N,Y,36.003832,-114.939252
MLS Listing,,Single Family Residential,4330 E Navajo Blvd,Pahrump,NV,89061,264990,4,3.0,Green Saddle Ranch,2090,47916,2000,1,127,,Active,,,https://www.redfin.com/NV/Pahrump/4330-Navajo-Blvd-89061/home/30639515,GLVAR,2460094,N,Y,36.115629,-115.9344886
MLS Listing,,Townhouse,345 N 2450 E #117,St. George,UT,84790,310000,2,2.0,COTTON MANOR 2 AMD,1219,1742,1987,1,254,253,Active,,,https://www.redfin.com/UT/St-George/345-N-2450-E-84790/unit-117/home/135860415,WFRMLS,1854984,N,Y,37.1142231,-113.5320252
MLS Listing,,Single Family Residential,3441 Winery Rd,Pahrump,NV,89048,470000,4,2.5,Calvada Valley U10,3152,20038,1995,1,149,,Active,,,https://www.redfin.com/NV/Pahrump/3441-Winery-Rd-89048/home/30632143,GLVAR,2460540,N,Y,36.1901509,-115.9516501
MLS Listing,,Condo/Co-op,8600 W Charleston Blvd #2020,Las Vegas,NV,89117,215000,2,2.0,Verano Condo,998,,1990,1,215,210,Active,,,https://www.redfin.com/NV/Las-Vegas/8600-W-Charleston-Blvd-89117/unit-2020/home/29279130,GLVAR,2460179,N,Y,36.1593303,-115.2836196
MLS Listing,,Townhouse,7981 Dorinda Ave,Las Vegas,NV,89147,285000,2,2.5,Oak Villas,1287,2178,1995,1,221,88,Active,,,https://www.redfin.com/NV/Las-Vegas/7981-Dorinda-Ave-89147/home/29562173,GLVAR,2460045,N,Y,36.11122,-115.265196
MLS Listing,,Single Family Residential,1328 W Van Buren Ave,Las Vegas,NV,89106,289900,3,1.0,Virginia Manor Tr #2,1256,6970,1957,1,231,,Active,,,https://www.redfin.com/NV/Las-Vegas/1328-W-Van-Buren-Ave-89106/home/29338110,GLVAR,2460325,N,Y,36.18689,-115.1596655
MLS Listing,,Single Family Residential,3050 Lake Barkley Rd,Henderson,NV,89052,515000,3,2.0,Sun City Anthem,1917,7841,2003,1,269,110,Active,December-18-2022 12:00 AM,December-18-2022 11:59 PM,https://www.redfin.com/NV/Henderson/3050-Lake-Barkley-Rd-89052/home/29947021,GLVAR,2459753,N,Y,35.9565052,-115.1207071
MLS Listing,,Single Family Residential,1127 Sierra Laurel Ct,Henderson,NV,89014,425000,4,2.0,Emerald Valley #12-By Lewis Homes,1920,6534,1998,1,221,40,Active,,,https://www.redfin.com/NV/Henderson/1127-Sierra-Laurel-Ct-89014/home/29668531,GLVAR,2459815,N,Y,36.0513476,-115.0317477
MLS Listing,,Single Family Residential,9808 Maidenfair Ct,Las Vegas,NV,89148,475000,5,3.0,Russell Fort Apache,2288,4792,2003,1,208,75,Active,,,https://www.redfin.com/NV/Las-Vegas/9808-Maidenfair-Ct-89148/home/28974864,GLVAR,2460449,N,Y,36.0823937,-115.3069322
MLS Listing,,Single Family Residential,9926 Ridge Hill Ave,Las Vegas,NV,89147,490000,4,3.0,Tompkins Grand Canyon,2454,5663,2000,1,200,89,Active,,,https://www.redfin.com/NV/Las-Vegas/9926-Ridge-Hill-Ave-89147/home/29829809,GLVAR,2459838,N,Y,36.1036578,-115.3091777
MLS Listing,,Condo/Co-op,5365 Shake Ct #103,Las Vegas,NV,89122,150000,1,1.0,Duck Creek Village Amd,724,,1988,1,207,194,Active,,,https://www.redfin.com/NV/Las-Vegas/5365-Shake-Ct-89122/unit-103/home/29435388,GLVAR,2459699,N,Y,36.091414,-115.0441201
MLS Listing,,Single Family Residential,2597 Fading Night Ct,Las Vegas,NV,89142,625000,4,3.0,Sunrise Highlands2,3357,6098,2008,1,186,45,Active,,,https://www.redfin.com/NV/Las-Vegas/2597-Fading-Night-Ct-89142/home/29796661,GLVAR,2456123,N,Y,36.1428295,-115.0279015
MLS Listing,,Single Family Residential,5945 N El Capitan Way,Las Vegas,NV,89149,998000,5,3.0,Custom,3104,43996,1983,1,322,,Active,,,https://www.redfin.com/NV/Las-Vegas/5945-N-El-Capitan-Way-89149/home/29096579,GLVAR,2460120,N,Y,36.2688842,-115.2887129
MLS Listing,,Single Family Residential,1484 Summer Glow Ave,Henderson,NV,89012,375000,3,3.0,Stephanie Carriage Homes Phase 2,1408,1742,2001,1,266,119,Active,,,https://www.redfin.com/NV/Henderson/1484-Summer-Glow-Ave-89012/home/29880812,GLVAR,2460503,N,Y,36.023814,-115.0509316
MLS Listing,,Single Family Residential,2704 Golfside Dr,Las Vegas,NV,89134,828900,3,2.0,Sun City Summerlin,2115,6970,1990,1,392,165,Active,December-17-2022 10:30 AM,December-17-2022 02:00 PM,https://www.redfin.com/NV/Las-Vegas/2704-Golfside-Dr-89134/home/29149594,GLVAR,2460531,N,Y,36.2100455,-115.2863051
MLS Listing,,Townhouse,6948 Royal Meadow Pl,Las Vegas,NV,89147,265000,2,1.0,Colony Homes,854,4356,1979,1,310,,Active,,,https://www.redfin.com/NV/Las-Vegas/6948-Royal-Meadow-Pl-89147/home/29568838,GLVAR,2460480,N,Y,36.1018519,-115.2439819
MLS Listing,,Single Family Residential,2440 Zephyr Ave,Pahrump,NV,89048,689000,3,4.0,Calvada Valley U5,2882,48787,2001,1,239,,Active,,,https://www.redfin.com/NV/Pahrump/2440-Zephyr-Ave-89048/home/30622532,GLVAR,2460321,N,Y,36.1835009,-116.0493775
MLS Listing,,Single Family Residential,7333 Camden Pine Ave,Las Vegas,NV,89129,344900,3,2.5,Mayfield,1480,2178,2005,1,233,85,Active,,,https://www.redfin.com/NV/Las-Vegas/7333-Camden-Pine-Ave-89129/home/29025864,GLVAR,2459335,N,Y,36.2392843,-115.2545632
MLS Listing,,Single Family Residential,3510 Leor Ct,Las Vegas,NV,89121,440000,4,3.0,Paradise Island-Amd,2022,5227,1989,1,218,,Active,,,https://www.redfin.com/NV/Las-Vegas/3510-Leor-Ct-89121/home/29473837,GLVAR,2459770,N,Y,36.1257734,-115.1133874
MLS Listing,,Single Family Residential,10536 Grand Wash Ct,Las Vegas,NV,89129,549900,4,2.5,Monument At Lone Mountain,2005,5663,2002,1,274,42,Active,,,https://www.redfin.com/NV/Las-Vegas/10536-Grand-Wash-Ct-89129/home/29893808,GLVAR,2458542,N,Y,36.2435525,-115.327581
MLS Listing,,Condo/Co-op,2747 Paradise Rd #301,Las Vegas,NV,89109,855000,3,3.0,Turnberry Place Phase 3 Amd,2805,,2003,1,305,1365,Active,,,https://www.redfin.com/NV/Las-Vegas/2747-Paradise-Rd-89109/unit-301/home/29923262,GLVAR,2459110,N,Y,36.1384588,-115.1563999
MLS Listing,,Single Family Residential,3580 W Ford Ave,Las Vegas,NV,89139,799000,3,4.0,,3289,18731,1992,1,243,,Active,December-17-2022 01:00 PM,December-17-2022 04:00 PM,https://www.redfin.com/NV/Las-Vegas/3580-W-Ford-Ave-89139/home/29626302,GLVAR,2455555,N,Y,36.0322988,-115.1874801
MLS Listing,,Single Family Residential,265 Via Malorca St,Henderson,NV,89074,590000,4,2.5,Millwood Village 1 Amd,2881,10890,1995,1,205,,Active,,,https://www.redfin.com/NV/Henderson/265-Via-Malorca-St-89074/home/29615035,GLVAR,2460509,N,Y,36.0476278,-115.1153795
MLS Listing,,Single Family Residential,181 Hickory Heights Ave,Las Vegas,NV,89148,415000,3,2.5,Iron Parcels 10 at Rhodes Ranch,1810,3920,2003,1,229,182,Active,,,https://www.redfin.com/NV/Las-Vegas/181-Hickory-Heights-Ave-89148/home/29938096,GLVAR,2459530,N,Y,36.0497844,-115.2934588
MLS Listing,,Single Family Residential,2541 Tumble Brook Dr,Las Vegas,NV,89134,374900,2,2.0,Sun City Las Vegas- Amd,1188,8276,1992,1,316,137,Active,December-17-2022 11:00 AM,December-17-2022 01:00 PM,https://www.redfin.com/NV/Las-Vegas/2541-Tumble-Brook-Dr-89134/home/28964528,GLVAR,2459718,N,Y,36.2068387,-115.3104972
MLS Listing,,Condo/Co-op,2050 W Warm Springs Rd #4211,Henderson,NV,89014,395000,3,2.0,Resort Villas,1356,,1997,1,291,347,Active,,,https://www.redfin.com/NV/Henderson/2050-W-Warm-Springs-Rd-89014/unit-4211/home/29648596,GLVAR,2458718,N,Y,36.0591601,-115.0742613
MLS Listing,,Single Family Residential,1856 Vida Pacifica St,Las Vegas,NV,89115,325000,3,2.5,Storybook Homes-La Paz Estate,1369,2178,2008,1,237,54,Active,,,https://www.redfin.com/NV/Las-Vegas/1856-Vida-Pacifica-St-89115/home/29314956,GLVAR,2456671,N,Y,36.1930658,-115.0927246
MLS Listing,,Townhouse,115 E Van Wagenen St,Henderson,NV,89015,174990,2,1.0,Tropicana Square,762,1307,1971,1,230,250,Active,,,https://www.redfin.com/NV/Henderson/115-E-Van-Wagenen-St-89015/home/29709714,GLVAR,2459710,N,Y,36.0279614,-114.9863086
MLS Listing,,Townhouse,5274 Sacha Way,Las Vegas,NV,89118,235000,2,2.5,Souvenir Homes,1265,1742,1995,1,186,115,Active,,,https://www.redfin.com/NV/Las-Vegas/5274-Sacha-Way-89118/home/29576672,GLVAR,2460174,N,Y,36.0935004,-115.2190633
MLS Listing,,Single Family Residential,8328 Brittany Harbor Dr,Las Vegas,NV,89128,395000,3,2.0,South Shore Estate Amd,1537,5227,1993,1,257,30,Active,,,https://www.redfin.com/NV/Las-Vegas/8328-Brittany-Harbor-Dr-89128/home/29162477,GLVAR,2458927,N,Y,36.1979233,-115.2765583
MLS Listing,,Single Family Residential,113 Hillsway Dr,Las Vegas,NV,89110,319990,3,1.0,Stewart Place,979,6534,1978,2,327,,Active,,,https://www.redfin.com/NV/Las-Vegas/113-Hillsway-Dr-89110/home/29390021,GLVAR,2460524,N,Y,36.1635806,-115.0724774
MLS Listing,,Single Family Residential,5533 Crinoline Ave,Las Vegas,NV,89122,249990,2,1.0,Monte Vista-Tract 44,889,5663,1997,2,281,,Active,,,https://www.redfin.com/NV/Las-Vegas/5533-Crinoline-Ave-89122/home/29431454,GLVAR,2460502,N,Y,36.1120139,-115.0522754
MLS Listing,,Condo/Co-op,2700 Las Vegas Blvd #1206,Las Vegas,NV,89109,324999,1,1.0,Sky Las Vegas,778,,2006,2,418,451,Active,,,https://www.redfin.com/NV/Las-Vegas/2700-Las-Vegas-Blvd-S-89109/unit-1206/home/29777588,GLVAR,2460511,N,Y,36.138948,-115.161641
MLS Listing,,Vacant Land,Moapa 071-11-801-019,Moapa,NV,89040,186480,,,Moapa,,217800,,2,,,Active,,,https://www.redfin.com/NV/MOAPA-VALLEY/Unknown-Unknown/home/166444439,GLVAR,2460016,N,Y,36.552435,-114.346618
MLS Listing,,Single Family Residential,9016 Hall Ave,Las Vegas,NV,89178,625000,4,3.0,Sage Canyon Aka El Capitan & Le Baron,2276,6534,2016,2,275,72,Active,,,https://www.redfin.com/NV/Las-Vegas/9016-Hall-Ave-89178/home/113140895,GLVAR,2460440,N,Y,36.0103846,-115.2895694
MLS Listing,,Vacant Land,Moapa 040-13-801-029,Moapa,NV,89021,40320,,,Moapa,,54450,,2,,,Active,,,https://www.redfin.com/NV/MOAPA-VALLEY/Unknown-Unknown/home/165727128,GLVAR,2460455,N,Y,36.625765,-114.336886
MLS Listing,,Single Family Residential,3367 Ceremony Dr,Las Vegas,NV,89117,435000,4,2.5,Topaz-Phase 2,2230,4356,1995,2,195,,Active,,,https://www.redfin.com/NV/Las-Vegas/3367-Ceremony-Dr-89117/home/29548336,GLVAR,2460500,N,Y,36.1279204,-115.2630836
MLS Listing,,Townhouse,111 E Oak Ave #11,Flagstaff,AZ,86001,449500,3,2.0,NoHo,1409,915,1989,2,319,196,Active,,,https://www.redfin.com/AZ/Flagstaff/111-E-Oak-Ave-86001/unit-11/home/116405683,NAZMLS,192036,N,Y,35.2117443,-111.6405705
MLS Listing,,Condo/Co-op,1004 Duckhorn Ct #104,Las Vegas,NV,89144,250000,2,2.0,North Half Parcel H-Village 3,1168,1168,2001,2,214,388,Active,,,https://www.redfin.com/NV/Las-Vegas/1004-Duckhorn-Ct-89144/unit-104/home/29209616,GLVAR,2459977,N,Y,36.1827371,-115.3070479
MLS Listing,,Single Family Residential,2235 E Fieldstone Dr,St. George,UT,84790,2249000,5,4.0,FIELDSTONE PH 5,3727,15681,2019,2,603,,Active,,,https://www.redfin.com/UT/St-George/2235-E-Fieldstone-Dr-84790/home/172539533,WFRMLS,1854950,N,Y,37.047075,-113.538414
MLS Listing,,Single Family Residential,928 N Laguna,Washington,UT,84780,545000,3,2.5,Washington,2322,6969,1999,2,235,270,Active,,,https://www.redfin.com/UT/Washington/928-Laguna-Ln-84780/home/135730858,WFRMLS,1854948,N,Y,37.1440272,-113.5241623
MLS Listing,,Single Family Residential,8905 Barium Rock Ave,Las Vegas,NV,89143,975000,5,5.0,Iron Mountain Estate,4964,9148,2000,2,196,108,Active,December-18-2022 02:00 PM,December-18-2022 05:00 PM,https://www.redfin.com/NV/Las-Vegas/8905-Barium-Rock-Ave-89143/home/29843620,GLVAR,2460489,N,Y,36.3216051,-115.2899167
MLS Listing,,Single Family Residential,4590 E Boston Ave,Las Vegas,NV,89104,520000,3,2.5,Vegas Manor Tr 2,2390,10454,1985,2,218,,Active,,,https://www.redfin.com/NV/Las-Vegas/4590-E-Boston-Ave-89104/home/29408172,GLVAR,2460488,N,Y,36.1486611,-115.0745393
MLS Listing,,Single Family Residential,4328 Hanford Ave,Las Vegas,NV,89107,350000,4,3.0,Charleston Estate #6A,1606,6970,1965,2,218,,Active,,,https://www.redfin.com/NV/Las-Vegas/4328-Hanford-Ave-89107/home/29341856,GLVAR,2460434,N,Y,36.1768054,-115.1993602
MLS Listing,,Vacant Land,000 E Jackalope Way,Kingman,AZ,86401,132500,,,Willow Creek Ranch Unit 6,,1572516,,2,,,Active,,,https://www.redfin.com/AZ/Kingman/E-Jackalope-WAY-Unknown/home/183372067,WARDEX,998115,N,Y,35.25255,-113.442617
MLS Listing,,Condo/Co-op,2470 Old Forge Ln #61,Las Vegas,NV,89121,219000,2,2.5,Tarry Towne,1020,1000,1984,2,215,188,Active,,,https://www.redfin.com/NV/Las-Vegas/2470-Old-Forge-Ln-89121/unit-61/home/29469868,GLVAR,2460234,N,Y,36.142061,-115.116756
MLS Listing,,Vacant Land,6372 Eldora Ave,Las Vegas,NV,89146,1200000,,,Las Vegas,,69006,,2,,,Active,,,https://www.redfin.com/NV/Las-Vegas/6372-Eldora-Ave-89146/home/29538531,GLVAR,2460463,N,Y,36.1412063,-115.2313625
MLS Listing,,Condo/Co-op,2080 Karen Ave #77,Las Vegas,NV,89169,209500,2,2.0,Valley Del Paradiso,1188,8818,1984,2,176,215,Active,,,https://www.redfin.com/NV/Las-Vegas/2080-Karen-Ave-89169/unit-77/home/29469770,GLVAR,2460441,N,Y,36.1409604,-115.1237647
MLS Listing,,Townhouse,11298 Cactus Tower Ave #101,Las Vegas,NV,89135,639999,4,3.0,Charleston & 215 Aka Affinity Amd,2091,4792,2020,2,306,312,Active,,,https://www.redfin.com/NV/Las-Vegas/11298-Cactus-Tower-Ave-89135/unit-101/home/173454083,GLVAR,2460415,N,Y,36.1562524,-115.3406593
MLS Listing,,Single Family Residential,511 S 600 W,Hurricane,UT,84737,400000,3,2.0,OLD FARM,1410,13503,1969,2,284,,Active,,,https://www.redfin.com/UT/Hurricane/511-S-600-W-84737/home/136120819,WFRMLS,1854935,N,Y,37.1691041,-113.298692
MLS Listing,,Townhouse,5048 N Escapes Dr,St. George,UT,84770,825000,4,4.5,ESCAPES AT THE LEDGE,2724,3049,2018,2,303,195,Active,,,https://www.redfin.com/UT/St-George/5048-Escapes-Dr-84770/home/147218728,WFRMLS,1854922,N,Y,37.1970603,-113.6225821
MLS Listing,,Single Family Residential,3370 Heavenly View Ct,Las Vegas,NV,89117,950000,5,3.5,Desert Inn Town,3598,12197,1987,2,264,,Active,,,https://www.redfin.com/NV/Las-Vegas/3370-Heavenly-View-Ct-89117/home/29547283,GLVAR,2460248,N,Y,36.1281956,-115.2460194
MLS Listing,,Single Family Residential,3604 N Pearl St,Kingman,AZ,86409,229900,3,2.0,Banks Airport Addition,1252,6250,1985,2,184,,Active,,,https://www.redfin.com/AZ/Kingman/3604-N-Pearl-St-86409/home/118715407,WARDEX,998215,N,Y,35.2279136,-114.0188348
MLS Listing,,Vacant Land,7744 E Old Msn,Kingman,AZ,86401,37000,,,Valle Vista Unit 2,,9075,,2,,,Active,,,https://www.redfin.com/AZ/Kingman/7744-Old-Mission-Dr-86401/home/161832432,WARDEX,998278,N,Y,35.403115,-113.860079
MLS Listing,,Single Family Residential,6227 Badgerglen Pl,North Las Vegas,NV,89031,409999,3,2.0,Eldorado #6-R1-60 #4,1826,6534,1997,2,225,11,Active,December-17-2022 12:00 AM,December-17-2022 11:59 PM,https://www.redfin.com/NV/North-Las-Vegas/6227-Badgerglen-Pl-89031/home/29079041,GLVAR,2460460,N,Y,36.2735672,-115.1609162
MLS Listing,,Single Family Residential,701 Mary Redbud St,Henderson,NV,89011,489900,3,2.0,Cadence Village Parcel 2-D3,1662,5227,2021,2,295,190,Active,,,https://www.redfin.com/NV/Henderson/701-Mary-Redbud-St-89015/home/172604652,GLVAR,2458373,N,Y,36.067063,-114.9750884
MLS Listing,,Multi-Family (2-4 Unit),528 S 650 W,Hurricane,UT,84737,600000,6,4.0,HURRICANE FIELD SUR,3290,10454,1996,2,182,,Active,,,https://www.redfin.com/UT/Hurricane/528-S-650-W-84737/home/180757994,WFRMLS,1854916,N,Y,37.168846,-113.300072
MLS Listing,,Single Family Residential,3708 La Pasada Ave,Las Vegas,NV,89102,329998,3,2.0,Las Verdes Heights,1352,7405,1962,2,244,,Active,,,https://www.redfin.com/NV/Las-Vegas/3708-La-Pasada-Ave-89102/home/29461989,GLVAR,2459769,N,Y,36.1481796,-115.1915792
MLS Listing,,Single Family Residential,5925 Waveland Dr,Las Vegas,NV,89130,404900,2,2.0,Country Lane Estate,1250,7405,1992,2,324,,Active,,,https://www.redfin.com/NV/Las-Vegas/5925-Waveland-Dr-89130/home/29101959,GLVAR,2460442,N,Y,36.259129,-115.2251799
MLS Listing,,Townhouse,2699 Chance Canyon St,Henderson,NV,89044,454609,2,2.5,Inspirada Pod 5-4,1640,3500,2022,2,277,127,Active,,,https://www.redfin.com/NV/HENDERSON/2699-CHANCE-CANYON-ST-89044/home/179110155,GLVAR,2460208,N,Y,35.932455,-115.130374
MLS Listing,,Single Family Residential,8211 Horseshoe Bend Ln,Las Vegas,NV,89113,949000,3,2.5,Patios At Spanish Trail #1,2505,7405,1990,2,379,611,Active,,,https://www.redfin.com/NV/Las-Vegas/8211-Horseshoe-Bend-Ln-89113/home/29583084,GLVAR,2460445,N,Y,36.0978748,-115.2706314
MLS Listing,,Single Family Residential,1825 W Mathis Park Pl #27,St. George,UT,84770,449000,3,2.0,St. George,1527,3049,1998,2,294,220,Active,,,https://www.redfin.com/UT/St-George/1825-W-Mathis-Park-Pl-84770/unit-27/home/135823279,WFRMLS,1854913,N,Y,37.10348,-113.622274
MLS Listing,,Condo/Co-op,2200 S Fort Apache Rd #2098,Las Vegas,NV,89117,259000,2,2.0,Canyon Lake,1053,19469,1991,2,246,285,Active,,,https://www.redfin.com/NV/Las-Vegas/2200-S-Fort-Apache-Rd-89117/unit-2098/home/29486840,GLVAR,2460264,N,Y,36.147328,-115.2966754
MLS Listing,,Single Family Residential,6726 Sumatra St,Las Vegas,NV,89166,439000,3,3.0,Monticello At Cliffs Edge,2006,2614,2015,2,219,95,Active,,,https://www.redfin.com/NV/Las-Vegas/6726-Sumatra-St-89166/home/109621147,GLVAR,2460348,N,Y,36.2831767,-115.3292013
MLS Listing,,Single Family Residential,1468 Homestead Ct,Henderson,NV,89014,457000,4,2.5,Whitney Ranch East,2042,6970,1991,2,224,19,Active,,,https://www.redfin.com/NV/Henderson/1468-Homestead-Ct-89014/home/29446402,GLVAR,2460421,N,Y,36.0767007,-115.0519047
MLS Listing,,Single Family Residential,10401 Beautiful Fruit St,Las Vegas,NV,89183,320000,2,2.5,Cactus Bermuda-Amd,1188,1742,2003,2,269,76,Active,,,https://www.redfin.com/NV/Las-Vegas/10401-Beautiful-Fruit-St-89183/home/29940549,GLVAR,2460411,N,Y,36.0010234,-115.1509455
MLS Listing,,Condo/Co-op,135 E Harmon Ave #3418,Las Vegas,NV,89109,314900,0,1.0,TURNBERRY M G M GRAND TOWERS L,520,,2006,2,606,656,Active,,,https://www.redfin.com/NV/Las-Vegas/135-E-Harmon-Ave-89109/unit-3418/home/29285495,GLVAR,2460425,N,Y,36.1067937,-115.1665441
MLS Listing,,Mobile/Manufactured Home,2131 Mcmurray Dr,Pahrump,NV,89060,165000,2,2.0,Valley View Acres,1325,50486,1966,2,125,,Active,,,https://www.redfin.com/NV/Pahrump/2131-McMurray-Dr-89060/home/30644924,GLVAR,2460010,N,Y,36.273315,-116.0532422
MLS Listing,,Mobile/Manufactured Home,761 S Happy Ln,Pahrump,NV,89048,200000,2,2.0,,1056,48352,1997,2,189,,Active,,,https://www.redfin.com/NV/Pahrump/761-Happy-Ln-89048/home/30660202,GLVAR,2459881,N,Y,36.2082484,-116.0541797
MLS Listing,,Single Family Residential,110 Rancho Maderas Way,Henderson,NV,89002,480000,4,3.0,Palm Canyon,2018,6098,1993,2,238,17,Active,,,https://www.redfin.com/NV/Henderson/110-Rancho-Maderas-Way-89002/home/29722534,GLVAR,2460085,N,Y,36.0051978,-114.9885335
MLS Listing,,Single Family Residential,6309 Palmona St,North Las Vegas,NV,89031,620000,4,3.0,Centennial Clayton By Pardee,2959,9148,2006,2,210,35,Active,,,https://www.redfin.com/NV/North-Las-Vegas/6309-Palmona-St-89031/home/29059792,GLVAR,2460225,N,Y,36.2751461,-115.1719404
MLS Listing,,Single Family Residential,9032 Golden Crow Ave,Las Vegas,NV,89148,580000,3,2.0,Edgeview Aka Blm 175/Seeliger,1785,4792,2020,2,325,85,Active,,,https://www.redfin.com/NV/Las-Vegas/9032-Golden-Crow-Ave-89148/home/167760051,GLVAR,2460401,N,Y,36.0334073,-115.2887823
MLS Listing,,Single Family Residential,19 Sanctuary Peak Ct,Henderson,NV,89012,8575000,4,5.5,ASCAYA,8723,58370,2017,2,983,688,Active,,,https://www.redfin.com/NV/Henderson/19-Sanctuary-Peak-Ct-89012/home/146416426,GLVAR,2460315,N,Y,35.9928348,-115.0639751
MLS Listing,,Condo/Co-op,38 W 250 N,St. George,UT,84770,495000,3,2.5,QUITOBAQUITO CONDO,1490,435,1979,2,332,150,Active,,,https://www.redfin.com/UT/St-George/38-W-250-N-84770/home/135427923,WFRMLS,1854895,N,Y,37.113058,-113.584185
MLS Listing,,Vacant Land,1160 E Telegraph St #115,Washington,UT,84780,99000,,,WORLDWIDE SUN RESORT,,2613,,2,,120,Active,,,https://www.redfin.com/UT/Washington/1160-E-Telegraph-St-84780/unit-115/home/135960439,WFRMLS,1854893,N,Y,37.1282455,-113.4892482
MLS Listing,,Single Family Residential,2237 Island Green Dr,Las Vegas,NV,89134,485000,4,2.5,Cypress In The Hills At Summerlin By Lewis Homes,1967,4356,1993,2,247,57,Active,,,https://www.redfin.com/NV/Las-Vegas/2237-Island-Green-Dr-89134/home/29157093,GLVAR,2460373,N,Y,36.2021453,-115.304895
MLS Listing,,Single Family Residential,1050 W Red Pkwy #78,Washington,UT,84780,320000,2,2.0,CANYON COVE LEISURE,1056,1742,1998,2,303,105,Active,,,https://www.redfin.com/UT/Washington/1050-West-84780/unit-78/home/183369594,WFRMLS,1854890,N,Y,37.129129,-113.5274703
MLS Listing,,Townhouse,1581 Ward Frontier Ln,Henderson,NV,89002,275000,2,2.0,Old Vegas Ranch High Noon,1189,1307,2004,2,231,167,Active,,,https://www.redfin.com/NV/Henderson/1581-Ward-Frontier-Ln-89002/home/28994765,GLVAR,2460372,N,Y,35.9936999,-114.926773
MLS Listing,,Townhouse,2833 Sungold Dr,Las Vegas,NV,89134,485000,2,2.0,Sun City Summerlin,1749,3049,1989,2,277,485,Active,,,https://www.redfin.com/NV/Las-Vegas/2833-Sungold-Dr-89134/home/29149544,GLVAR,2460396,N,Y,36.2132895,-115.2832723
MLS Listing,,Single Family Residential,1622 Dire Wolf Ave,North Las Vegas,NV,89084,499000,3,3.0,Villages At Tule Spgs Village 3 - Parcel 304,2187,5663,2019,2,228,64,Active,,,https://www.redfin.com/NV/North-Las-Vegas/1622-Dire-Wolf-Ave-89084/home/166446032,GLVAR,2460385,N,Y,36.2910242,-115.1648984
MLS Listing,,Townhouse,2355 N Park Dr,Washington,UT,84780,799999,4,4.5,TOWN CENTER AT CORAL,2096,1306,2018,2,382,200,Active,,,https://www.redfin.com/UT/Washington/2355-N-Park-Grove-Dr-84780/home/183369292,WFRMLS,1854887,N,Y,37.1584236,-113.5292135
MLS Listing,,Single Family Residential,208 Tighe Way,Las Vegas,NV,89145,330000,3,2.0,Charleston Rainbow,1358,6970,1979,2,243,,Active,,,https://www.redfin.com/NV/Las-Vegas/208-Tighe-Way-89145/home/29218502,GLVAR,2460256,N,Y,36.1712307,-115.2659546
MLS Listing,,Single Family Residential,212 Steeler Dr,Las Vegas,NV,89145,340000,3,2.0,Charleston Rainbow,1620,7405,1980,2,210,,Active,,,https://www.redfin.com/NV/Las-Vegas/212-Steeler-Dr-89145/home/29215636,GLVAR,2460355,N,Y,36.1716694,-115.2700989
MLS Listing,,Mobile/Manufactured Home,3660 N Barney St,Pahrump,NV,89060,240000,3,2.0,Bell Vista U5,1311,109336,1980,2,183,,Active,,,https://www.redfin.com/NV/Pahrump/3660-N-Barney-St-89060/home/30641567,GLVAR,2460187,N,Y,36.273838,-116.069743
MLS Listing,,Single Family Residential,5903 Woodfield Dr,Las Vegas,NV,89142,355000,4,2.5,Stonebridge D2B,1636,3920,1995,2,217,,Active,,,https://www.redfin.com/NV/Las-Vegas/5903-Woodfield-Dr-89142/home/29401757,GLVAR,2460377,N,Y,36.1456724,-115.0448151
MLS Listing,,Single Family Residential,3625 King Charles St,North Las Vegas,NV,89030,279900,2,2.0,Wishing Well Meadows,864,6534,1970,2,324,,Active,,,https://www.redfin.com/NV/North-Las-Vegas/3625-King-Charles-St-89030/home/29256677,GLVAR,2460371,N,Y,36.2264139,-115.1096348
MLS Listing,,Single Family Residential,2575 Deora Way,Henderson,NV,89052,615000,2,2.0,Sun City Anthem,2012,7405,2005,2,306,138,Active,,,https://www.redfin.com/NV/Henderson/2575-Deora-Way-89052/home/29057996,GLVAR,2460286,N,Y,35.9460448,-115.0987475
MLS Listing,,Single Family Residential,4682 Livermore Ave,Las Vegas,NV,89120,295000,4,2.0,Terra Linda,1350,6098,1970,2,219,,Active,,,https://www.redfin.com/NV/Las-Vegas/4682-Livermore-Ave-89120/home/29440690,GLVAR,2460370,N,Y,36.0959246,-115.0721531
MLS Listing,,Vacant Land,Parcel #E-1229-0003-0862-25,Beryl,UT,84714,9000,0,,Utah Area,,21344,,2,,,Active,,,https://www.redfin.com/UT/Beryl/Parcel-E-1229-0003-0862-25-84714/home/183367857,PCMLS,12204703,N,Y,37.887443,-113.671573
MLS Listing,,Single Family Residential,390 E Kimberly Dr,Henderson,NV,89015,699995,4,2.5,WARM SPRINGS RANCH EST #05,3043,16117,2019,2,230,,Active,,,https://www.redfin.com/NV/Henderson/390-E-Kimberly-Dr-89015/home/147405337,GLVAR,2460093,N,Y,36.017389,-114.9769701
MLS Listing,,Single Family Residential,2543 Simms Ave,Kingman,AZ,86401,230000,3,2.0,Golden Gate Addition,1066,5000,2005,2,216,,Active,,,https://www.redfin.com/AZ/Kingman/2543-Simms-Ave-86401/home/118812928,WARDEX,998265,N,Y,35.2002425,-114.018347
MLS Listing,,Single Family Residential,8706 Evan Lilas St,Las Vegas,NV,89148,399000,4,2.5,Park View Estate,2206,5663,2006,2,181,38,Active,,,https://www.redfin.com/NV/Las-Vegas/8706-S-Evan-Lilas-St-89148/home/29182902,GLVAR,2460367,N,Y,36.0296885,-115.2824852
MLS Listing,,Single Family Residential,7925 Rachelis St,North Las Vegas,NV,89084,445000,4,2.5,Nova Pointe,1897,3920,2021,2,235,87,Active,,,https://www.redfin.com/NV/North-Las-Vegas/7925-Rachelis-St-89084/home/174788438,GLVAR,2460112,N,Y,36.3045372,-115.1925518
MLS Listing,,Single Family Residential,7000 Copperleaf Dr,Las Vegas,NV,89128,310000,3,2.0,Rainbow Park #7 Lewis Homes,1152,4356,1983,2,269,,Active,,,https://www.redfin.com/NV/Las-Vegas/7000-Copperleaf-Dr-89128/home/29200845,GLVAR,2460260,N,Y,36.1859182,-115.2469224
MLS Listing,,Condo/Co-op,1401 Red Crest Ln #201,Las Vegas,NV,89144,295000,2,2.0,Red Bluffs At The Crossing,838,4324,1998,2,352,252,Active,,,https://www.redfin.com/NV/Las-Vegas/1401-Red-Crest-Ln-89144/unit-201/home/29209734,GLVAR,2460123,N,Y,36.186854,-115.3155669
MLS Listing,,Single Family Residential,4117 Carol Bailey Ave,North Las Vegas,NV,89081,365000,3,2.5,Runvee Hobart East Parcel 3A-1,2232,4356,2017,2,164,52,Active,,,https://www.redfin.com/NV/North-Las-Vegas/4117-Carol-Bailey-Ave-89081/home/143185721,GLVAR,2460347,N,Y,36.2686104,-115.0842933
MLS Listing,,Townhouse,7640 Connemara Ave,Las Vegas,NV,89128,380000,3,2.5,Buena Vista,1541,2178,1995,2,247,154,Active,,,https://www.redfin.com/NV/Las-Vegas/7640-Connemara-Ave-89128/home/29166639,GLVAR,2458697,N,Y,36.1936037,-115.2619491
MLS Listing,,Townhouse,458 Rumford Pl,Henderson,NV,89074,385000,3,2.5,Cheyenne At Southfork,1774,2614,1998,2,217,102,Active,,,https://www.redfin.com/NV/Henderson/458-Rumford-Pl-89074/home/29635797,GLVAR,2460363,N,Y,36.00905,-115.1132
MLS Listing,,Single Family Residential,12049 La Palmera Ave,Las Vegas,NV,89138,949900,4,3.5,Barcelona At The Paseos,3387,6970,2006,2,280,95,Active,,,https://www.redfin.com/NV/Las-Vegas/12049-La-Palmera-Ave-89138/home/29025555,GLVAR,2460252,N,Y,36.1681089,-115.3596625
MLS Listing,,Vacant Land,"#14",Beryl,UT,84714,9000,,,BERYL TOWN,,21344,,2,,,Active,,,https://www.redfin.com/UT/Beryl/Unknown-84714/unit-14/home/183367268,WFRMLS,1854870,N,Y,37.8958016,-113.6613561
MLS Listing,,Single Family Residential,1631 Ottawa Dr,Las Vegas,NV,89169,439000,3,2.0,Paradise Palms,2170,12197,1964,2,202,,Active,,,https://www.redfin.com/NV/Las-Vegas/1631-Ottawa-Dr-89169/home/29478254,GLVAR,2460245,N,Y,36.1227859,-115.1305977
MLS Listing,,Mobile/Manufactured Home,4410 W Basin Ave,Pahrump,NV,89060,349900,4,3.0,Golden Spring Ranch U8,2318,45738,2006,2,151,,Active,,,https://www.redfin.com/NV/Pahrump/4410-W-Basin-Ave-89060/home/30629768,GLVAR,2460331,N,Y,36.2194672,-116.0928408
MLS Listing,,Single Family Residential,754 Cactus Crossing St,Henderson,NV,89011,439900,2,2.0,Cadence Village Parcel 2-D1,1425,3485,2020,2,309,210,Active,,,https://www.redfin.com/NV/Henderson/754-Cactus-Crossing-St-89011/home/167786463,GLVAR,2460000,N,Y,36.0692428,-114.9716897
MLS Listing,,Townhouse,8537 Millsboro Dr,Las Vegas,NV,89134,309999,2,1.0,Sun City Summerlin,1046,2614,1989,2,296,425,Active,,,https://www.redfin.com/NV/Las-Vegas/8537-Millsboro-Dr-89134/home/29149522,GLVAR,2460124,N,Y,36.2113409,-115.281698
MLS Listing,,Mobile/Manufactured Home,3131 E Mcvicar Ave,Kingman,AZ,86409,99980,2,2.0,New Kgmn Add Unit 9 TR,924,15514,1976,2,108,,Active,,,https://www.redfin.com/AZ/Kingman/3131-E-McVicar-Ave-86401/home/119265252,WARDEX,998120,N,Y,35.2670919,-114.0076145
MLS Listing,,Single Family Residential,8632 Copper Falls Ave,Las Vegas,NV,89129,475000,4,2.5,El Capitan Ranch,2155,5227,1998,2,220,18,Active,,,https://www.redfin.com/NV/Las-Vegas/8632-Copper-Falls-Ave-89129/home/29125466,GLVAR,2459953,N,Y,36.2274593,-115.282763
MLS Listing,,Single Family Residential,1551 Cordero Bay Ave,Las Vegas,NV,89123,699900,4,3.0,Enclave,3153,15682,1999,2,222,70,Active,,,https://www.redfin.com/NV/Las-Vegas/1551-Cordero-Bay-Ave-89123/home/29633297,GLVAR,2460008,N,Y,36.0180398,-115.1311536
MLS Listing,,Single Family Residential,385 N 200 W,Ivins,UT,84738,599900,4,3.0,MUNSON MANOR,3592,37026,1993,2,167,,Active,,,https://www.redfin.com/UT/Ivins/385-N-200-W-84738/home/135781900,WFRMLS,1854853,N,Y,37.1749836,-113.684556
MLS Listing,,Single Family Residential,3586 N Pearl St,Kingman,AZ,86409,215000,3,2.0,Banks Airport Addition,1017,5000,1985,2,211,,Active,,,https://www.redfin.com/AZ/Kingman/3586-N-Pearl-St-86409/home/119850080,WARDEX,998277,N,Y,35.2274435,-114.018858
MLS Listing,,Single Family Residential,7583 Chambery Cove Ct,Las Vegas,NV,89123,550000,3,2.0,Sur Este Residential,1924,6970,2006,2,286,33,Active,,,https://www.redfin.com/NV/Las-Vegas/7583-S-Chambery-Cove-Ct-89123/home/29038807,GLVAR,2460241,N,Y,36.0523613,-115.134767
MLS Listing,,Single Family Residential,2809 Proust Ct,Henderson,NV,89044,974999,3,3.0,Provence Cntry Club Parcel 1,2587,10890,2008,2,377,273,Active,,,https://www.redfin.com/NV/Henderson/2809-Proust-Ct-89044/home/29302770,GLVAR,2460314,N,Y,35.9243751,-115.0874197
MLS Listing,,Single Family Residential,3901 Bayamon,Las Vegas,NV,89129,485000,4,2.5,Lone Mountain Terraces Amd,1937,3049,2004,2,250,38,Active,,,https://www.redfin.com/NV/Las-Vegas/3901-Bayamon-St-89129/home/28979941,GLVAR,2459293,N,Y,36.2309451,-115.3247106
MLS Listing,,Single Family Residential,1625 E Saint Louis Ave,Las Vegas,NV,89104,499999,4,3.0,Morning View Heights Tr 2,2528,7841,1973,2,198,,Active,,,https://www.redfin.com/NV/Las-Vegas/1625-E-St-Louis-Ave-89104/home/29452589,GLVAR,2460319,N,Y,36.1482979,-115.1295554
MLS Listing,,Single Family Residential,2755 Birdie Cir,Williams,AZ,86046,449500,2,3.0,Williams City,1303,4500,2022,2,345,21,Active,,,https://www.redfin.com/AZ/Williams/2755-Birdie-CIR-86046/home/183364997,NAZMLS,192030,N,Y,35.248771,-112.226481
MLS Listing,,Vacant Land,515 N Wyandotte Rd,Williams,AZ,86046,32000,,,,,439956,,2,,,Active,,,https://www.redfin.com/AZ/Williams/515-N-Wyandotte-Rd-86046/home/116564277,PAARMLS,1053021,N,Y,35.6651115,-112.0646972
MLS Listing,,Mobile/Manufactured Home,131 Steptoe St,Pahrump,NV,89048,167500,2,2.0,Calvada Valley U8A,972,3920,1996,2,172,28,Active,,,https://www.redfin.com/NV/Pahrump/131-Steptoe-St-89048/home/30654541,GLVAR,2460190,N,Y,36.2005691,-116.0167519
MLS Listing,,Condo/Co-op,5160 W Villas Rd N Unit 6-310,Hurricane,UT,84737,449900,2,2.0,VILLAS AT SAND HOLLO,1602,,2018,2,281,355,Active,,,https://www.redfin.com/UT/Hurricane/5160-W-Villas-N-Dr-84737/unit-6310/home/172539616,WFRMLS,1854849,N,Y,37.115228,-113.40527
MLS Listing,,Single Family Residential,8388 Creek Canyon Ave,Las Vegas,NV,89113,379999,3,2.5,Trail Ridge,1413,2178,2010,2,269,120,Active,,,https://www.redfin.com/NV/Las-Vegas/8388-Creek-Canyon-Ave-89113/home/39657030,GLVAR,2460102,N,Y,36.0234967,-115.275366
MLS Listing,,Single Family Residential,1586 Angel Falls St,Las Vegas,NV,89142,285000,3,2.0,Sunrise Valley Garden Homes #8 Lewis Homes,1203,4356,1988,2,237,,Active,,,https://www.redfin.com/NV/Las-Vegas/1586-Angel-Falls-St-89142/home/29399500,GLVAR,2459006,N,Y,36.1542079,-115.0434713
MLS Listing,,Townhouse,11085 Sospel Pl,Las Vegas,NV,89141,365000,2,2.0,Montagne Marron At Southern Highlands-Phase 3B,1273,4356,2002,2,287,224,Active,,,https://www.redfin.com/NV/Las-Vegas/11085-Sospel-Pl-89141/home/29873687,GLVAR,2459572,N,Y,35.988192,-115.217289
MLS Listing,,Vacant Land,52624 N Calle Ciervo,Seligman,AZ,86337,9000,,,Bridge Canyon Country Estates Unit 9,,72745,,2,,,Active,,,https://www.redfin.com/AZ/Seligman/52624-Cll-Ciervo-86337/home/123160490,PAARMLS,1053020,N,Y,35.307895,-113.062966
MLS Listing,,Single Family Residential,561 Comodo St,Henderson,NV,89011,519990,3,3.5,Cadence Village Parcel 5-R1-4,2048,5663,2022,2,254,40,Active,,,https://www.redfin.com/NV/Henderson/561-Comodo-St-89015/home/175528133,GLVAR,2460289,N,Y,36.06279,-114.977133
MLS Listing,,Single Family Residential,35 Desert Ivy Ln,Henderson,NV,89011,635000,2,2.0,Rainbow Canyon Parcel C-4 Phase 2,1725,5227,2022,2,368,323,Active,,,https://www.redfin.com/NV/Henderson/35-Desert-Ivy-Ln-89011/home/171301819,GLVAR,2460140,N,Y,36.12637,-114.930782
MLS Listing,,Single Family Residential,2450 Antler Point Dr,Henderson,NV,89074,546888,3,2.0,Green Valley Pkwy West,2190,6098,1996,2,250,10,Active,,,https://www.redfin.com/NV/Henderson/2450-Antler-Point-Dr-89074/home/29678324,GLVAR,2459567,N,Y,36.0351226,-115.0926782
MLS Listing,,Single Family Residential,4362 Prada Place Pl,Las Vegas,NV,89141,659900,4,2.5,Siena Ancora At Southern Highlands,2506,5663,2002,2,263,65,Active,December-17-2022 11:00 AM,December-17-2022 02:00 PM,https://www.redfin.com/NV/Las-Vegas/4362-Prada-Pl-89141/home/29941741,GLVAR,2460275,N,Y,35.9878607,-115.1983876
MLS Listing,,Single Family Residential,22 Olympia Outlook Dr,Las Vegas,NV,89141,3950000,6,5.5,Olympia Ridge Phase 2,6250,27443,2018,2,632,382,Active,,,https://www.redfin.com/NV/Las-Vegas/22-Olympia-Outlook-Dr-89141/home/146417966,GLVAR,2460288,N,Y,35.9665899,-115.1948908
MLS Listing,,Single Family Residential,7705 Wishbone Falls St,North Las Vegas,NV,89084,475000,5,3.0,Valley Vista Parcel 14,2787,4356,2020,2,170,87,Active,,,https://www.redfin.com/NV/North-Las-Vegas/7705-Wishbone-Falls-St-89084/home/167599713,GLVAR,2459717,N,Y,36.3001685,-115.2015834
MLS Listing,,Mobile/Manufactured Home,3411 Ewa Beach Dr,Las Vegas,NV,89122,220000,3,2.0,Desert Inn Mobile Estate 2,1440,6970,1982,2,153,72,Active,,,https://www.redfin.com/NV/Las-Vegas/3411-Ewa-Beach-Dr-89122/home/29418438,GLVAR,2460129,N,Y,36.1271511,-115.0620522
MLS Listing,,Single Family Residential,1050 E Canyon Dr,Big Water,UT,84741,427500,4,3.0,CANYON'S EDGE,1916,24393,2020,2,223,,Active,,,https://www.redfin.com/UT/KANAB/1050-E-CANYON-DR-84741/home/135183035,WFRMLS,1854841,N,Y,37.062183,-111.641795
MLS Listing,,Single Family Residential,5343 Reardon Ct,North Las Vegas,NV,89031,375000,3,2.0,Arbor Gate,1753,3485,2001,2,214,60,Active,,,https://www.redfin.com/NV/North-Las-Vegas/5343-Reardon-Ct-89031/home/29853286,GLVAR,2460279,N,Y,36.257472,-115.2063074
MLS Listing,,Mobile/Manufactured Home,6171 Katie Ln,Pahrump,NV,89061,303000,3,2.0,,1525,49223,1998,2,199,,Active,,,https://www.redfin.com/NV/Pahrump/6171-Katie-Ln-89061/home/30646732,GLVAR,2460003,N,Y,36.12831,-115.902332
MLS Listing,,Condo/Co-op,8600 W Charleston Blvd #1201,Las Vegas,NV,89117,225000,2,2.0,Verano Condo,998,,1990,2,225,210,Active,,,https://www.redfin.com/NV/Las-Vegas/8600-W-Charleston-Blvd-89117/unit-1201/home/29279286,GLVAR,2460128,N,Y,36.1593303,-115.2836196
MLS Listing,,Single Family Residential,6114 Saddle Horse Ave,Las Vegas,NV,89122,330000,2,2.0,Stallion Mountain Estate 2 7,1157,4356,2006,2,285,100,Active,,,https://www.redfin.com/NV/Las-Vegas/6114-Saddle-Horse-Ave-89122/home/29281623,GLVAR,2460273,N,Y,36.1200004,-115.039996
MLS Listing,,Condo/Co-op,231 W Horizon Ridge Pkwy #622,Henderson,NV,89012,210000,1,1.0,Big Horn At Black Mountain Condo,701,10495,1998,2,300,250,Active,,,https://www.redfin.com/NV/Henderson/231-W-Horizon-Ridge-Pkwy-89012/unit-622/home/29772193,GLVAR,2460151,N,Y,36.0156183,-114.9961108
MLS Listing,,Single Family Residential,10804 Clear Meadows Dr,Las Vegas,NV,89134,535000,2,2.0,Sun City Las Vegas,1689,8276,1995,2,317,165,Active,,,https://www.redfin.com/NV/Las-Vegas/10804-Clear-Meadows-Dr-89134/home/29105812,GLVAR,2457771,N,Y,36.2053815,-115.3335068
MLS Listing,,Single Family Residential,3720 N Verdugo Rd,Kingman,AZ,86409,235000,3,2.0,Kingman Airport Tract,1399,5000,1997,2,168,,Active,,,https://www.redfin.com/AZ/Kingman/3720-N-Verdugo-Rd-86409/home/118573298,WARDEX,998169,N,Y,35.2312032,-114.0238757
MLS Listing,,Single Family Residential,10367 Andele Ave,Las Vegas,NV,89166,458950,3,2.5,Skye Canyon 210 - Phase 2A,1943,3823,2022,2,236,133,Active,,,https://www.redfin.com/NV/LAS-VEGAS/10367-ANDELE-AVE-89124/home/179980909,GLVAR,2460271,N,Y,36.316143,-115.321767
MLS Listing,,Single Family Residential,2807 Cherrydale Falls Dr,Henderson,NV,89052,664888,3,3.0,Sun City Anthem,2179,7841,2002,2,305,110,Active,,,https://www.redfin.com/NV/Henderson/2807-Cherrydale-Falls-Dr-89052/home/29906419,GLVAR,2458016,N,Y,35.953461,-115.1094959
MLS Listing,,Single Family Residential,4310 Rubious Ave,North Las Vegas,NV,89084,698000,4,3.0,Valley Vista Parcel 12 Phase 1,2759,8712,2020,2,253,146,Active,,,https://www.redfin.com/NV/North-Las-Vegas/4310-Rubious-Ave-89084/home/170579129,GLVAR,2460272,N,Y,36.3039653,-115.1994297
MLS Listing,,Single Family Residential,4980 Mountain Creek Dr,Las Vegas,NV,89148,2699000,6,5.5,Spanish Hills Estate,5497,14375,2002,2,491,449,Active,,,https://www.redfin.com/NV/Las-Vegas/4980-Mountain-Creek-Dr-89148/home/29584326,GLVAR,2460033,N,Y,36.0984117,-115.2819527
MLS Listing,,Vacant Land,0000 Muriel Dr,Ash Fork,AZ,86320,65000,,,Ashfork,,1742400,,2,,,Active,,,https://www.redfin.com/AZ/Unknown/Muriel-Dr-86320/home/183361156,NAZMLS,192026,N,Y,35.266622,-112.562833
MLS Listing,,Vacant Land,12663 Mesa View Rd,Williams,AZ,86046,37000,,,Williams Rural North,,521544,,2,,17,Active,,,https://www.redfin.com/AZ/Williams/12663-Mesa-View-Rd-86046/home/116061685,NAZMLS,192025,N,Y,35.4755844,-112.1530939
MLS Listing,,Single Family Residential,10329 Adrianna Ave,Las Vegas,NV,89129,384900,3,2.5,Lone Mountain Terraces 2,1398,2614,2005,2,275,40,Active,,,https://www.redfin.com/NV/Las-Vegas/10329-Adrianna-Ave-89129/home/29006278,GLVAR,2460270,N,Y,36.2311957,-115.3209605
MLS Listing,,Single Family Residential,,Las Vegas,NV,89178,769999,5,3.5,,4211,9583,2013,2,183,139,Active,,,https://www.redfin.com/NV/Las-Vegas/Undisclosed-address-89178/home/52629318,GLVAR,2457744,N,Y,36.0106996,-115.2614861
MLS Listing,,Condo/Co-op,4471 Dean Martin Dr #1002,Las Vegas,NV,89103,510000,2,2.0,Panorama Tower Phase Iii,1111,,2007,2,459,782,Active,,,https://www.redfin.com/NV/Las-Vegas/4471-Dean-Martin-Dr-89103/unit-1002/home/29813997,GLVAR,2459163,N,Y,36.108436,-115.1817831
MLS Listing,,Townhouse,7056 Caribou Ridge St #103,Las Vegas,NV,89149,350000,3,2.5,High Noon At Elkhorn Ranch,1613,1742,2006,2,217,105,Active,,,https://www.redfin.com/NV/Las-Vegas/7056-N-Caribou-Ridge-St-89149/unit-103/home/29023768,GLVAR,2460062,N,Y,36.2894058,-115.2948247
MLS Listing,,Condo/Co-op,2725 S Nellis Blvd #2048,Las Vegas,NV,89121,215000,2,2.0,Echo Bay Condo,1029,,1994,2,209,140,Active,,,https://www.redfin.com/NV/Las-Vegas/2725-S-Nellis-Blvd-89121/unit-2048/home/29414780,GLVAR,2454688,N,Y,36.1400557,-115.0664274
MLS Listing,,Mobile/Manufactured Home,243 Mojave Ln,Henderson,NV,89015,335000,4,2.0,Sunrise Sub #6 Trlr Estate,1710,6098,2022,2,196,,Active,,,https://www.redfin.com/NV/Henderson/243-Mojave-Ln-89015/home/29702083,GLVAR,2456022,N,Y,36.0553328,-114.9607947
MLS Listing,,Single Family Residential,1504 Metropolitan St,Las Vegas,NV,89102,389000,3,2.0,Parade Of Homes Sub Tr #2,1594,8712,1964,2,244,,Active,,,https://www.redfin.com/NV/Las-Vegas/1504-Metropolitan-St-89102/home/29460361,GLVAR,2459751,N,Y,36.1544258,-115.2036212
MLS Listing,,Single Family Residential,4630 Laguna Vista St,Las Vegas,NV,89147,1200000,5,4.5,Tiburon-Phase 1,4396,7841,1996,2,273,177,Active,December-22-2022 01:30 PM,December-22-2022 04:30 PM,https://www.redfin.com/NV/Las-Vegas/4630-Laguna-Vista-St-89147/home/29559501,GLVAR,2459621,N,Y,36.104923,-115.2843836
MLS Listing,,Single Family Residential,361 Ravensmere Ave,Las Vegas,NV,89123,479000,3,2.0,Crystal Spgs R-2 60 #1,1988,6098,2001,2,241,17,Active,,,https://www.redfin.com/NV/Las-Vegas/361-Ravensmere-Ave-89123/home/29875222,GLVAR,2459934,N,Y,36.0245373,-115.1570021
MLS Listing,,Townhouse,10007 Sable Point St,Las Vegas,NV,89178,440000,3,2.5,Beacon Hill At Mountains Edge,2063,2178,2018,2,213,183,Active,,,https://www.redfin.com/NV/Las-Vegas/10007-Sable-Point-St-89178/home/144350764,GLVAR,2458613,N,Y,36.006856,-115.262832
MLS Listing,,Condo/Co-op,1600 N Torrey Pines Dr #101,Las Vegas,NV,89108,234900,2,2.0,Chateau Bordeaux,1030,1120,1992,2,228,248,Active,,,https://www.redfin.com/NV/Las-Vegas/1600-N-Torrey-Pines-Dr-89108/unit-101/home/29174180,GLVAR,2460269,N,Y,36.1888516,-115.2328465
MLS Listing,,Single Family Residential,9914 N Mano Dr,Kingman,AZ,86401,284900,3,2.0,Valle Vista Unit 2,1414,9600,1993,2,201,30,Active,,,https://www.redfin.com/AZ/Kingman/9914-Mano-Dr-86401/home/118715125,WARDEX,998271,N,Y,35.4112812,-113.8528734
MLS Listing,,Condo/Co-op,2725 S Nellis Blvd #1179,Las Vegas,NV,89121,208900,2,2.0,Echo Bay Condo,1029,,1994,2,203,155,Active,,,https://www.redfin.com/NV/Las-Vegas/2725-S-Nellis-Blvd-89121/unit-1179/home/29414641,GLVAR,2460268,N,Y,36.1010511,-115.047106
MLS Listing,,Single Family Residential,7906 Red Rock Ridge Ave,Las Vegas,NV,89179,478000,3,2.5,Buffalo Starr,2022,4356,2010,2,236,85,Active,,,https://www.redfin.com/NV/Las-Vegas/7906-Red-Rock-Ridge-Ave-89141/home/33501082,GLVAR,2459709,N,Y,35.9848684,-115.2640097
MLS Listing,,Single Family Residential,3409 Bedfordshire Pl,Las Vegas,NV,89129,579000,4,3.0,Northshores-Phase 2,2639,4792,1996,3,219,73,Active,,,https://www.redfin.com/NV/Las-Vegas/3409-Bedfordshire-Pl-89129/home/29127874,GLVAR,2458605,N,Y,36.2218959,-115.2730855
MLS Listing,,Vacant Land,641 NE Verde Rd,Golden Valley,AZ,86413,49900,,,Rancho Verde Estates,,43560,,3,,,Active,,,https://www.redfin.com/AZ/Golden-Valley/641-S-Verde-Rd-86413/home/161816283,WARDEX,998207,N,Y,35.209668,-114.219069
MLS Listing,,Single Family Residential,7083 Arabian Ridge St,Las Vegas,NV,89131,990000,4,4.0,Elkhorn 40 Phase 1,3897,14375,2020,3,254,108,Active,December-17-2022 12:00 PM,December-17-2022 03:00 PM,https://www.redfin.com/NV/Las-Vegas/7083-Arabian-Ridge-St-89131/home/166085856,GLVAR,2460263,N,Y,36.2891576,-115.2508355
MLS Listing,,Vacant Land,709 S Horse Mesa Rd,Golden Valley,AZ,86413,74900,,,Golden Sage Ranchos,,50965,,3,,,Active,,,https://www.redfin.com/AZ/Golden-Valley/709-Horse-Mesa-Rd-86413/home/119477846,WARDEX,998208,N,Y,35.208233,-114.256526
MLS Listing,,Condo/Co-op,2305 W Horizon Ridge Pkwy #3023,Henderson,NV,89052,294500,2,2.0,Mission Ridge 2,1054,,2004,3,279,176,Active,,,https://www.redfin.com/NV/Henderson/2305-W-Horizon-Ridge-Pkwy-89052/unit-3023/home/28998662,GLVAR,2460259,N,Y,36.0037114,-115.0892393
MLS Listing,,Single Family Residential,531 W Foxtail Dr #6,Ivins,UT,84738,999900,4,3.0,Ivins,2813,11325,2022,3,355,25,Active,,,https://www.redfin.com/UT/Ivins/531-Fox-Trail-Way-84738/unit-6/home/183357374,WFRMLS,1854831,N,Y,37.155344,-113.6933925
MLS Listing,,Single Family Residential,4224 Kay Pl,Las Vegas,NV,89107,409999,4,4.0,Hyde Park Sub #2,1680,8276,1953,3,244,,Active,,,https://www.redfin.com/NV/Las-Vegas/4224-Kay-Pl-89107/home/29343615,GLVAR,2460255,N,Y,36.1655179,-115.198295
MLS Listing,,Single Family Residential,9913 Camino Loma Verde Ave,Las Vegas,NV,89117,380000,3,2.5,Peccole Village By Signature Homes,1551,2614,1997,3,245,221,Active,,,https://www.redfin.com/NV/Las-Vegas/9913-Camino-Loma-Verde-Ave-89117/home/29525137,GLVAR,2460135,N,Y,36.1534427,-115.3137381
MLS Listing,,Other,4580,Escalante,UT,84726,800000,2,1.5,Escalante,900,4179582,1993,3,889,,Active,,,https://www.redfin.com/UT/Escalante/4580-84726/home/183357332,WFRMLS,1854830,N,Y,37.7702663,-111.602119
MLS Listing,,Single Family Residential,4964 Stacey Ave,Las Vegas,NV,89108,509995,4,2.0,Curtis Park Manor,2214,20038,1961,3,230,,Active,,,https://www.redfin.com/NV/Las-Vegas/4964-Stacey-Ave-89108/home/29177305,GLVAR,2460257,N,Y,36.1982852,-115.208299
MLS Listing,,Single Family Residential,4425 Socrates St,North Las Vegas,NV,89031,335000,3,2.0,Classic Homes Phase 4,1527,6098,1998,3,219,,Active,,,https://www.redfin.com/NV/North-Las-Vegas/4425-Socrates-St-89031/home/29238555,GLVAR,2460205,N,Y,36.2403067,-115.1841453
MLS Listing,,Vacant Land,H St,Las Vegas,NV,89106,700000,,,Berkeley Square,,34412,,3,,,Active,,,https://www.redfin.com/NV/Las-Vegas/H-St-89106/home/33538789,GLVAR,2460215,N,Y,36.190574,-115.151576
MLS Listing,,Single Family Residential,475 Greenway Dr,Kingman,AZ,86401,450000,3,2.0,Kingman Golf Course Estates,1589,10237,2018,3,283,,Active,,,https://www.redfin.com/AZ/Kingman/475-Greenway-Dr-86401/home/119416012,WARDEX,998219,N,Y,35.21006,-114.0469192
MLS Listing,,Single Family Residential,7360 Yancey Ln,Flagstaff,AZ,86004,699999,3,1.75,Doney Park East,1953,158122,1980,3,358,,Active,,,https://www.redfin.com/AZ/Flagstaff/7360-Yancey-Ln-86004/home/116739098,NAZMLS,192023,N,Y,35.2617686,-111.5180157
MLS Listing,,Single Family Residential,2101 Kapok Tree Ln,Las Vegas,NV,89142,390000,3,2.0,ORCHARDS - LEWIS HOMES,1632,5663,1995,3,239,,Active,,,https://www.redfin.com/NV/Las-Vegas/2101-Kapok-Tree-Ln-89142/home/29400888,GLVAR,2460244,N,Y,36.1488419,-115.0389765
MLS Listing,,Single Family Residential,1137 Gainesborough Ct,Henderson,NV,89015,455000,4,2.5,Wellington Manor,2221,8712,1996,3,205,,Active,,,https://www.redfin.com/NV/Henderson/1137-Gainesborough-Ct-89015/home/29715629,GLVAR,2460188,N,Y,36.0149121,-114.9413275
MLS Listing,,Vacant Land,1640 Bridle Dr,Henderson,NV,89002,180000,,,Henderson,,16117,,3,,,Active,,,https://www.redfin.com/NV/Henderson/1640-Bridle-Dr-89002/home/166431427,GLVAR,2460226,N,Y,36.010321,-114.925596
MLS Listing,,Single Family Residential,2555 Spruce Creek Dr,Las Vegas,NV,89135,450000,3,2.0,Woodridge At Summerlin,1492,4356,1998,3,302,55,Active,,,https://www.redfin.com/NV/Las-Vegas/2555-Spruce-Creek-Dr-89135/home/29587770,GLVAR,2460229,N,Y,36.1434526,-115.3208679
MLS Listing,,Single Family Residential,3597 Applewood Ave,Las Vegas,NV,89121,359000,4,2.0,Greenbriar,1613,8712,1963,3,223,,Active,,,https://www.redfin.com/NV/Las-Vegas/3597-Applewood-Ave-89121/home/29413059,GLVAR,2460228,N,Y,36.1300032,-115.09657
MLS Listing,,Vacant Land,6367 N Juliano Rd,Las Vegas,NV,89149,265000,,,Las Vegas,,20909,,3,,,Active,,,https://www.redfin.com/NV/Las-Vegas/6367-N-Juliano-Rd-89149/home/183356217,GLVAR,2459811,N,Y,36.2767517,-115.2856181
