SALE TYPE,SOLD DATE,PROPERTY TYPE,ADDRESS,CITY,STATE OR PROVINCE,ZIP OR POSTAL CODE,PRICE,BEDS,BATHS,LOCATION,SQUARE FEET,LOT SIZE,YEAR BUILT,DAYS ON MARKET,$/SQUARE FEET,HOA/MONTH,STATUS,NEXT OPEN HOUSE START TIME,NEXT OPEN HOUSE END TIME,URL (SEE https://www.redfin.com/buy-a-home/comparative-market-analysis FOR INFO ON PRICING),SOURCE,MLS#,FAVORITE,INTERESTED,LATITUDE,LONGITUDE
MLS Listing,,Single Family Residential,4211 N Park Dr,Tucker,GA,30084,585000,4,3.0,,2508,17424,2006,1,233,,Active,,,https://www.redfin.com/GA/Tucker/4211-N-Park-Dr-30084/home/23868283,FMLS,7154248,N,Y,33.8635762,-84.2165581
MLS Listing,,Condo/Co-op,2700 Pine Tree Rd NE #1107,Atlanta,GA,30324,218000,1,1.0,Carrington Park,784,784,2000,1,278,240,Active,,,https://www.redfin.com/GA/Atlanta/2700-Pine-Tree-Rd-NE-30324/unit-1107/home/24738141,FMLS,7154252,N,Y,33.828146,-84.3583353
MLS Listing,,Single Family Residential,87 Mayson Ave NE,Atlanta,GA,30307,850000,4,3.5,N/A,4356,4356,2018,4,195,,Active,,,https://www.redfin.com/GA/Atlanta/87-Mayson-Ave-NE-30307/home/23888514,FMLS,7152984,N,Y,33.7559801,-84.3384495
MLS Listing,,Condo/Co-op,2774 Farmstead Rd SE,Smyrna,GA,30080,290000,3,2.5,Farmstead at Vinings,1364,3393,1974,5,213,246,Active,December-17-2022 12:00 PM,December-17-2022 02:00 PM,https://www.redfin.com/GA/SMYRNA/2774-FARMSTEAD-RD-SE-30080/home/25353907,FMLS,7152180,N,Y,33.885247,-84.485521
MLS Listing,,Single Family Residential,50 Allie Dr,Mcdonough,GA,30252,345000,3,2.5,Lake Dow Estates,2716,4791,1980,5,127,,Active,,,https://www.redfin.com/GA/McDonough/50-Allie-Dr-30252/home/24101629,FMLS,7152969,N,Y,33.4472002,-84.0852575
MLS Listing,,Single Family Residential,655 S Grand Ave NW,Atlanta,GA,30318,305000,3,2.0,,1163,7501,1920,8,262,,Active,December-17-2022 01:00 PM,December-17-2022 03:00 PM,https://www.redfin.com/GA/Atlanta/655-S-Grand-Ave-NW-30318/home/24556358,FMLS,7151912,N,Y,33.7727852,-84.4625706
MLS Listing,,Single Family Residential,3125 Juhan Rd,Stone Mountain,GA,30087,3500000,8,8.0,N/A,15906,95396,2009,8,220,,Active,,,https://www.redfin.com/GA/Stone-Mountain/3125-Juhan-Rd-SW-30087/home/24951787,FMLS,7151901,N,Y,33.8007812,-84.0783042
MLS Listing,,Townhouse,4063 Townsend Ln,Dunwoody,GA,30346,620000,4,3.5,Townsend At Perimeter,2407,1742,2019,8,258,175,Active,,,https://www.redfin.com/GA/DUNWOODY/4063-TOWNSEND-LN-30346/home/160963720,FMLS,7151859,N,Y,33.923823,-84.329233
MLS Listing,,Multi-Family (2-4 Unit),1216 E Ashley Ave,Folly Beach,SC,29439,1050000,4,2.0,Folly Beach,,10454,1964,9,,,Active,,,https://www.redfin.com/SC/Folly-Beach/1216-E-Ashley-Ave-29439/home/68568835,Charleston Trident MLS,22030272,N,Y,32.6666004,-79.9149631
MLS Listing,,Single Family Residential,168 Dahlia Ave NW,Atlanta,GA,30314,185000,2,1.0,Dixie Hills,879,5662,1940,9,210,,Active,,,https://www.redfin.com/GA/Atlanta/168-Dahlia-Ave-NW-30314/home/24832828,FMLS,7151435,N,Y,33.7588223,-84.4624376
MLS Listing,,Single Family Residential,4836 Autumn Cir,Stone Mountain,GA,30088,297000,3,3.0,Hairston Hill,1844,8712,1988,12,161,,Active,,,https://www.redfin.com/GA/Stone-Mountain/4836-Autumn-Cir-30088/home/23734673,FMLS,7150367,N,Y,33.771542,-84.1919521
MLS Listing,,Condo/Co-op,6407 Deerings Ln,Peachtree Corners,GA,30092,345000,3,2.5,The Deerings,2150,435,1980,15,160,375,Active,,,https://www.redfin.com/GA/Norcross/6407-Deerings-Ln-30092/home/24895089,FMLS,7149215,N,Y,33.9646779,-84.2562666
MLS Listing,,Single Family Residential,100 Yarbrough Landing Rd,Bloomingdale,GA,31302,349900,2,2.0,Bloomingdale,1790,11461,2001,15,195,,Active,,,https://www.redfin.com/GA/BLOOMINGDALE/100-YARBROUGH-LANDING-RD-31302/home/130012000,SMLC,280823,N,Y,32.191337,-81.414982
MLS Listing,,Single Family Residential,1835 Newberry Ct,Riverdale,GA,30296,280000,3,3.5,,1890,11273,1969,15,148,,Active,,,https://www.redfin.com/GA/Riverdale/1835-Newberry-Ct-30296/home/25200781,FMLS,7149227,N,Y,33.5862058,-84.4496538
MLS Listing,,Townhouse,1097 New Haven Dr SW,Marietta,GA,30064,235000,3,2.5,Whitlock West,1642,548,1973,16,143,280,Active,,,https://www.redfin.com/GA/Marietta/1097-New-Haven-Dr-SW-30064/home/25447967,FMLS,7148618,N,Y,33.9525708,-84.5839643
MLS Listing,,Single Family Residential,3008 Evening Tide Dr,Hanahan,SC,29410,749900,3,2.5,Bowen,2203,5227,2020,16,340,73,Active,,,https://www.redfin.com/SC/Hanahan/3008-Evening-Tide-Dr-29410/home/169218418,Charleston Trident MLS,22029768,N,Y,32.9289244,-80.0045593
MLS Listing,,Single Family Residential,5140 Tilly Mill Rd,Dunwoody,GA,30338,360000,3,2.0,N/A,,21780,1956,17,,,Active,,,https://www.redfin.com/GA/Dunwoody/5140-Tilly-Mill-Rd-30338/home/23784792,FMLS,7148530,N,Y,33.9414174,-84.2992379
MLS Listing,,Single Family Residential,2436 Scarlet Ln SE,Conyers,GA,30013,355000,4,2.0,Stoney Brook,2293,18295,1993,24,155,33,Active,,,https://www.redfin.com/GA/Conyers/2436-Scarlet-Ln-SE-30013/home/25244625,FMLS,7147173,N,Y,33.5915562,-84.0069304
MLS Listing,,Single Family Residential,4418 Ventura Dr,North Charleston,SC,29405,349000,3,2.0,Wando Woods,1148,9583,1964,24,304,,Active,,,https://www.redfin.com/SC/North-Charleston/4418-Ventura-Dr-29405/home/87083784,Charleston Trident MLS,22029412,N,Y,32.8463738,-80.0287127
MLS Listing,,Single Family Residential,5292 Copley Cir,Summerville,SC,29485,299000,3,2.0,Wescott Plantation,1136,8276,2004,24,263,20,Active,December-17-2022 10:00 AM,December-17-2022 01:00 PM,https://www.redfin.com/SC/Summerville/5292-Copley-Cir-29485/home/68729922,Charleston Trident MLS,22029407,N,Y,32.9516329,-80.1525617
MLS Listing,,Single Family Residential,56 Holly Rd NW,Atlanta,GA,30314,330000,4,2.0,West Lake,2010,5000,2006,25,164,,Active,,,https://www.redfin.com/GA/Atlanta/56-Holly-Rd-NW-30314/home/24857831,FMLS,7146235,N,Y,33.756535,-84.4381388
MLS Listing,,Single Family Residential,2089 Claude St NW,Atlanta,GA,30318,460000,3,2.0,Riverside,1482,10136,1960,26,310,,Active,,,https://www.redfin.com/GA/Atlanta/2089-Claude-St-NW-30318/home/24562174,FMLS,7144624,N,Y,33.8125632,-84.4658533
MLS Listing,,Single Family Residential,3542 Denby Dr,Snellville,GA,30039,272000,3,2.0,Centerville North,1744,30491,1979,29,156,,Active,,,https://www.redfin.com/GA/Snellville/3542-Denby-Dr-SW-30039/home/24982487,FMLS,7145463,N,Y,33.8129925,-84.0326239
MLS Listing,,Single Family Residential,6845 Fielder Ct,Rex,GA,30273,255000,3,2.0,N/A,1561,11491,1986,29,163,,Active,,,https://www.redfin.com/GA/Rex/6845-Fielder-Ct-30273/home/25178542,FMLS,7111134,N,Y,33.5677534,-84.2938515
MLS Listing,,Single Family Residential,3355 Sir Lancelot Pl SW,Marietta,GA,30008,312500,3,2.5,N/A,1920,8899,1980,30,163,,Active,,,https://www.redfin.com/GA/Marietta/3355-Sir-Lancelot-Pl-SW-30008/home/25324840,FMLS,7144570,N,Y,33.8705784,-84.6009116
MLS Listing,,Single Family Residential,2600 Northside Dr NW,Atlanta,GA,30305,1175000,5,3.5,N/A,4117,35152,1983,31,285,,Active,,,https://www.redfin.com/GA/Atlanta/2600-Northside-Dr-NW-30305/home/24686454,FMLS,7143594,N,Y,33.8263208,-84.4079512
MLS Listing,,Single Family Residential,4469 S Springwood Dr SW,Smyrna,GA,30082,352400,3,2.0,N/A,1954,16740,1985,32,180,,Active,,,https://www.redfin.com/GA/Smyrna/4469-S-Springwood-Dr-SW-30082/home/25338682,FMLS,7143473,N,Y,33.8480934,-84.5739082
MLS Listing,,Single Family Residential,1745 Harts Run,Atlanta,GA,30341,708000,4,3.5,Harts Place,2950,8712,1990,38,240,25,Active,,,https://www.redfin.com/GA/Chamblee/1745-Harts-Run-30341/home/23697237,FMLS,7138897,N,Y,33.9013118,-84.3166685
MLS Listing,,Single Family Residential,9832 Hurston Way,Jonesboro,GA,30238,433000,5,3.0,The Lake at Mundy's Mill,3117,7056,2013,42,139,27,Active,,,https://www.redfin.com/GA/Jonesboro/9832-Hurston-Way-30238/home/25173723,FMLS,7124367,N,Y,33.487626,-84.3560534
MLS Listing,,Single Family Residential,1796 Briarlake Cir,Decatur,GA,30033,415000,3,2.5,Briarlake,1866,13068,1953,43,222,,Active,,,https://www.redfin.com/GA/Decatur/1796-Briarlake-Cir-30033/home/23780316,FMLS,7139644,N,Y,33.835799,-84.2662538
MLS Listing,,Townhouse,102 Riversgate Dr,Atlanta,GA,30339,625000,3,3.5,One River Place,2828,1415,2008,43,221,51,Active,,,https://www.redfin.com/GA/Atlanta/102-Riversgate-Dr-30339/home/180163905,FMLS,7139061,N,Y,33.9024051,-84.4383204
MLS Listing,,Single Family Residential,764 Alberta Dr,Mcdonough,GA,30252,730000,5,3.5,Stanley Park,4129,747925,2006,44,177,,Active,,,https://www.redfin.com/GA/McDonough/764-Alberta-Dr-30252/home/24111396,FMLS,7139714,N,Y,33.543512,-84.06584
MLS Listing,,Single Family Residential,9412 Harroway Rd,Summerville,SC,29485,425000,4,2.5,Wescott Plantation,2620,10890,2004,44,162,33,Active,,,https://www.redfin.com/SC/Summerville/9412-Harroway-Rd-29485/home/68666172,Charleston Trident MLS,22027423,N,Y,32.9422689,-80.1273411
MLS Listing,,Single Family Residential,509 Roy St SW,Atlanta,GA,30310,305000,3,2.0,Pittsburg,1107,3998,1920,47,276,,Active,,,https://www.redfin.com/GA/Atlanta/509-Roy-St-SW-30310/home/24846527,FMLS,7126687,N,Y,33.7243541,-84.4041753
MLS Listing,,Single Family Residential,2390 Haliard Way,Lithonia,GA,30058,410000,4,4.0,Mason's Mill Estates,2836,2657,2021,50,145,50,Active,,,https://www.redfin.com/GA/Lithonia/2390-Haliard-Way-30058/home/173843625,FMLS,7137223,N,Y,33.7186119,-84.0685436
MLS Listing,,Single Family Residential,1066 Lear Dr,Locust Grove,GA,30248,333000,4,2.5,Elmstone Commons,2011,5545,2018,50,166,31,Active,,,https://www.redfin.com/GA/Locust-Grove/1066-Lear-Dr-30248/home/24146662,FMLS,7136643,N,Y,33.3308434,-84.0936746
MLS Listing,,Single Family Residential,134 Ridgeland Way NE,Atlanta,GA,30305,640000,3,2.0,Peachtree Terrace,1447,8698,1978,57,442,,Active,,,https://www.redfin.com/GA/Atlanta/134-Ridgeland-Way-NE-30305/home/24852614,FMLS,7133345,N,Y,33.8206941,-84.3840814
MLS Listing,,Single Family Residential,2442 Springdale Rd SW,Atlanta,GA,30315,305000,3,1.0,,1026,11438,1955,57,297,,Active,,,https://www.redfin.com/GA/Atlanta/2442-Springdale-Rd-SW-30315/home/24716516,FMLS,7133148,N,Y,33.6880841,-84.4141684
MLS Listing,,Townhouse,4012 Labrador Way,Lilburn,GA,30047,320000,3,2.5,Avery Park,1968,7840,2006,57,163,160,Active,,,https://www.redfin.com/GA/Lilburn/4012-Labrador-Way-30047/home/24969373,FMLS,7132941,N,Y,33.9161191,-84.1165681
MLS Listing,,Single Family Residential,7429 Waters Edge Dr,Stone Mountain,GA,30087,339000,4,3.5,Waters Edge,3374,13068,1989,58,100,179,Active,,,https://www.redfin.com/GA/Stone-Mountain/7429-Waters-Edge-Dr-30087/home/23863173,FMLS,7124072,N,Y,33.7887827,-84.0887648
MLS Listing,,Single Family Residential,524 Aerial Ave,Stockbridge,GA,30281,550000,5,3.5,Bellah Landing,4679,17998,2013,58,118,29,Active,,,https://www.redfin.com/GA/Stockbridge/524-Aerial-Ave-30281/home/49801278,FMLS,7131395,N,Y,33.5520898,-84.1731459
MLS Listing,,Single Family Residential,285 Cascade Rise Ct SW,Atlanta,GA,30331,405000,4,2.5,Cascade Hills,3113,21814,1997,58,130,13,Active,,,https://www.redfin.com/GA/Atlanta/285-Cascade-Rise-Ct-SW-30331/home/24556473,FMLS,7132095,N,Y,33.7288948,-84.5650679
MLS Listing,,Single Family Residential,427 Morgan Pl SE,Atlanta,GA,30317,515000,3,2.0,,1083,8712,1948,59,476,,Active,,,https://www.redfin.com/GA/Atlanta/427-Morgan-Pl-SE-30317/home/23834230,FMLS,7131955,N,Y,33.7407268,-84.2905512
MLS Listing,,Single Family Residential,3092 Tucker Mill Rd SW,Conyers,GA,30094,650000,5,4.0,N/A,3178,118483,1988,64,205,,Active,,,https://www.redfin.com/GA/Conyers/3092-Tucker-Mill-Rd-SW-30094/home/25249240,FMLS,7129813,N,Y,33.603096,-84.0888679
MLS Listing,,Single Family Residential,1116 Merrill Ave SW,Atlanta,GA,30310,399000,4,3.0,,1682,9539,1940,68,237,,Active,,,https://www.redfin.com/GA/Atlanta/1116-Merrill-Ave-SW-30310/home/24801901,FMLS,7127888,N,Y,33.7283164,-84.424447
MLS Listing,,Single Family Residential,1963 Don Juan Ln,Decatur,GA,30032,390000,3,3.0,J W Toney & B J Martin Prop,1956,13068,1949,71,199,,Active,,,https://www.redfin.com/GA/Decatur/1963-Don-Juan-Ln-30032/home/23833332,FMLS,7126796,N,Y,33.7335045,-84.2793345
MLS Listing,,Condo/Co-op,3292 Clairmont North NE,Brookhaven,GA,30329,349500,3,2.5,Clairmont North,2157,78,1974,71,162,360,Active,,,https://www.redfin.com/GA/Atlanta/3292-N-Clairmont-NE-30329/home/23780670,FMLS,7126463,N,Y,33.8528719,-84.3139967
MLS Listing,,Single Family Residential,1273 Briarcliff Rd NE,Atlanta,GA,30306,650000,3,2.0,Druid Hills,3120,8712,1952,72,208,,Active,,,https://www.redfin.com/GA/Atlanta/1273-Briarcliff-Rd-NE-30306/home/23747283,FMLS,7124586,N,Y,33.7891425,-84.3387782
MLS Listing,,Single Family Residential,110 Yarbrough Landing Rd,Bloomingdale,GA,31302,299900,3,3.0,Ogeechee Park Estates,1730,17860,1970,82,173,,Active,,,https://www.redfin.com/GA/Bloomingdale/110-Yarbrough-Landing-Rd-31302/home/130005930,SMLC,273357,N,Y,32.191111,-81.415414
MLS Listing,,Single Family Residential,130 Youngs Cir,Fayetteville,GA,30215,544999,5,3.5,Rebecca Lakes,3677,43560,1992,85,148,46,Active,,,https://www.redfin.com/GA/Fayetteville/130-Youngs-Cir-30215/home/23659599,FMLS,7118371,N,Y,33.3920795,-84.4744602
MLS Listing,,Single Family Residential,400 Lakeridge Ct,Covington,GA,30016,343000,4,2.5,The Enclave at Gross Lake,2834,2178,2008,86,121,29,Active,,,https://www.redfin.com/GA/Covington/400-Lakeridge-Ct-30016/home/24201285,FMLS,7118040,N,Y,33.6004235,-83.9643594
MLS Listing,,Condo/Co-op,400 W Peachtree St NW #913,Atlanta,GA,30308,397000,2,2.0,The Twelve Centennial Park,1127,1128,2007,92,352,474,Active,,,https://www.redfin.com/GA/Atlanta/400-W-Peachtree-St-NW-30308/unit-913/home/24615176,FMLS,7114624,N,Y,33.7652712,-84.3877898
MLS Listing,,Single Family Residential,2834 Baker Ridge Dr NW,Atlanta,GA,30318,366000,4,3.0,Collier Heights,1470,11125,1961,101,249,,Active,,,https://www.redfin.com/GA/Atlanta/2834-Baker-Ridge-Dr-NW-30318/home/24574010,FMLS,7110105,N,Y,33.7672711,-84.480363
MLS Listing,,Single Family Residential,772 Maynard Ter SE,Atlanta,GA,30316,425000,6,4.0,Brae Burn Heights,2504,8712,1950,128,170,,Active,,,https://www.redfin.com/GA/Atlanta/772-Maynard-Ter-SE-30316/home/23898540,FMLS,7098049,N,Y,33.7330587,-84.3353472
MLS Listing,,Single Family Residential,294 Smyrna Powder Springs Rd SW,Marietta,GA,30060,1350000,6,4.0,,3002,409464,1963,151,450,,Active,,,https://www.redfin.com/GA/Marietta/294-Smyrna-Powder-Springs-Rd-SW-30060/home/25286702,FMLS,7085050,N,Y,33.8811886,-84.5624074
MLS Listing,,Single Family Residential,116 E 66th St,Savannah,GA,31405,449900,3,3.0,Poplar Heights,1450,9148,1954,162,310,,Active,,,https://www.redfin.com/GA/Savannah/116-E-66th-St-31405/home/122403268,SMLC,272798,N,Y,32.032248,-81.1050185
MLS Listing,,Single Family Residential,3057 Ratel Cir,Beaufort,SC,29902,395500,4,3.0,MINK POINT S/D,1779,24393,1986,1,222,,Active,,,https://www.redfin.com/SC/Beaufort/3057-Ratel-Cir-29902/home/117454444,RSMLS,430160,N,Y,32.4105746,-80.7263574
MLS Listing,,Single Family Residential,5 Princeton Cir,Hilton Head Island,SC,29928,2299900,5,5.5,SEABREEZE,3452,6856,2022,1,666,153,Active,,,https://www.redfin.com/SC/Hilton-Head-Island/5-Princeton-Cir-29928/home/116847676,RSMLS,430574,N,Y,32.224727,-80.673113
MLS Listing,,Condo/Co-op,59 Carnoustie Rd #298,Hilton Head Island,SC,29928,750000,2,2.0,TURNBERRY VILLAGE VILLAS,1351,,1981,1,555,681,Active,,,https://www.redfin.com/SC/Hilton-Head-Island/59-Carnoustie-Rd-29928/unit-298/home/117986773,RSMLS,427764,N,Y,32.1686249,-80.7277624
MLS Listing,,Vacant Land,509 Davies Rd,Bluffton,SC,29910,645000,,,PALMETTO BLUFF,,12497,,1,,784,Active,,,https://www.redfin.com/SC/Bluffton/509-Davies-Rd-29910/home/175204410,RSMLS,427404,N,Y,32.172235,-80.9007
MLS Listing,,Single Family Residential,30 Faculty Dr,Beaufort,SC,29907,605077,3,2.5,ACADEMY ESTATES,2027,11282,2022,1,299,,Active,,,https://www.redfin.com/SC/Beaufort/30-Faculty-Dr-29907/home/171237104,RSMLS,430234,N,Y,32.435317,-80.6370085
MLS Listing,,Townhouse,7 Genoa Ct,Hilton Head Island,SC,29928,2250000,6,6.5,HT TOWNHOUSE,2974,,1983,1,757,96,Active,,,https://www.redfin.com/SC/Hilton-Head-Island/7-Genoa-Ct-29928/home/117296930,RSMLS,424117,N,Y,32.1346851,-80.8127225
MLS Listing,,Vacant Land,7 Beauregard Blvd,Daufuskie Island,SC,29915,495000,,,OAK RIDGE,,46173,,1,,67,Active,,,https://www.redfin.com/SC/Daufuskie-Island/7-Beauregard-Blvd-29915/home/117042597,RSMLS,413648,N,Y,32.100452,-80.85899
MLS Listing,,Single Family Residential,52 Full Sweep,Hilton Head Island,SC,29928,1499000,4,4.5,TB/P4,3015,15006,2016,1,497,150,Active,,,https://www.redfin.com/SC/Hilton-Head-Island/52-Full-Sweep-29928/home/116730338,RSMLS,429442,N,Y,32.1888484,-80.7107648
MLS Listing,,Single Family Residential,221 Flatwater Dr,Bluffton,SC,29910,1171000,4,3.5,HAMPTON LAKE,3019,13895,2020,1,388,320,Active,,,https://www.redfin.com/SC/Bluffton/221-Flatwater-Dr-29910/home/171238956,RSMLS,430165,N,Y,32.2610596,-80.9495856
MLS Listing,,Single Family Residential,8 Isle Of Palms E,Bluffton,SC,29910,355000,3,2.0,PALMETTO POINTE,1341,4791,2007,1,265,70,Active,,,https://www.redfin.com/SC/Bluffton/8-Isle-of-Palms-E-29910/home/116989399,RSMLS,430117,N,Y,32.2506576,-80.969644
MLS Listing,,Condo/Co-op,380 Marshland Rd Unit D15,Hilton Head Island,SC,29926,309500,2,2.0,SUMMER HOUSE,1060,,2001,1,292,416,Active,,,https://www.redfin.com/SC/Hilton-Head-Island/380-Marshland-Rd-29926/unit-D15/home/116594185,RSMLS,429180,N,Y,32.1885295,-80.7630641
MLS Listing,,Single Family Residential,318 Great Harvest Rd,Bluffton,SC,29909,464999,4,2.0,MILL CREEK AT CYPRESS RIDGE,1861,7840,2019,1,250,273,Active,,,https://www.redfin.com/SC/Bluffton/318-Great-Harvest-Rd-29909/home/145056172,RSMLS,430063,N,Y,32.2569688,-80.9828984
MLS Listing,,Vacant Land,3 Wilers Creek Way,Hilton Head Island,SC,29926,279000,,,BROAD POINTE,,16988,,1,,264,Active,,,https://www.redfin.com/SC/Hilton-Head-Island/3-Wilers-Creek-Way-29926/home/117973527,RSMLS,429630,N,Y,32.194054,-80.742892
MLS Listing,,Single Family Residential,38 Falmouth Way,Bluffton,SC,29909,589000,2,2.0,HAMPTON VILLAGE,2150,8860,2000,1,274,196,Active,,,https://www.redfin.com/SC/Bluffton/38-Falmouth-Way-29909/home/117801985,RSMLS,430898,N,Y,32.2856245,-80.9713711
MLS Listing,,Vacant Land,23 Amaranth Rd,Bluffton,SC,29910,775000,,,PALMETTO BLUFF,,19166,,1,,784,Active,,,https://www.redfin.com/SC/Bluffton/23-Amaranth-Rd-29910/home/179907898,RSMLS,420686,N,Y,32.179843,-80.900539
MLS Listing,,Single Family Residential,2 Marsh Dr,Hilton Head Island,SC,29928,4500000,6,6.5,BAYNARD OAKS,6100,32892,2022,1,738,96,Active,,,https://www.redfin.com/SC/Hilton-Head-Island/2-Marsh-Dr-29928/home/117464456,RSMLS,428810,N,Y,32.130588,-80.813702
MLS Listing,,Vacant Land,42 Bluffton Rd,Bluffton,SC,29910,750000,,,TOWN OF BLUFFTON,,75794,,1,,,Active,,,https://www.redfin.com/SC/Bluffton/42-Bluffton-Rd-29910/home/116950192,RSMLS,411169,N,Y,32.2557957,-80.8556279
MLS Listing,,Condo/Co-op,2 Shelter Cove Ln #227,Hilton Head Island,SC,29928,875000,2,2.0,CAPTAINS QUARTERS VILLAS,1310,,1985,1,668,102,Active,,,https://www.redfin.com/SC/Hilton-Head-Island/2-Shelter-Cove-Ln-29928/unit-227/home/116876662,RSMLS,430350,N,Y,32.1814537,-80.7335035
MLS Listing,,Condo/Co-op,40 Folly Field Rd #233,Hilton Head Island,SC,29928,479000,2,2.0,HHBT/ADMIRALS ROW,996,,1980,1,481,694,Active,,,https://www.redfin.com/SC/Hilton-Head-Island/40-Folly-Field-Rd-29928/unit-233/home/117645165,RSMLS,429758,N,Y,32.2010472,-80.691768
MLS Listing,,Single Family Residential,5 Saint Johns Pl,Hilton Head Island,SC,29928,945000,3,2.5,ST JOHNS PLACE,2626,25700,1984,1,360,86,Active,,,https://www.redfin.com/SC/Hilton-Head-Island/5-Saint-Johns-Pl-29928/home/117214017,RSMLS,430107,N,Y,32.1592116,-80.7421506
MLS Listing,,Condo/Co-op,663 William Hilton Pkwy #4431,Hilton Head Island,SC,29928,290000,2,2.0,HH RESORT/FOUR SEASONS,831,,1982,1,349,480,Active,,,https://www.redfin.com/SC/Hilton-Head-Island/663-William-Hilton-Pkwy-29928/unit-4431/home/118095747,RSMLS,431090,N,Y,32.191201,-80.707908
MLS Listing,,Single Family Residential,65 Spring Beauty Dr,Bluffton,SC,29909,519000,2,2.0,BULL HILL PLANTATION,2137,10890,2008,1,243,196,Active,,,https://www.redfin.com/SC/Bluffton/65-Spring-Beauty-Dr-29909/home/117698168,RSMLS,429985,N,Y,32.2759499,-80.9550271
MLS Listing,,Vacant Land,8 Bent Tree Ln,Okatie,SC,29909,125000,,,CALLAWASSIE ISLAND,,33698,,1,,84,Active,,,https://www.redfin.com/SC/Okatie/8-Bent-Tree-Ln-29909/home/117755886,RSMLS,430646,N,Y,32.320274,-80.858215
MLS Listing,,Single Family Residential,215 Mulberry Grove Ln,Bluffton,SC,29910,588000,4,2.5,SHELL HALL,2768,7840,2017,1,212,133,Active,,,https://www.redfin.com/SC/Bluffton/215-Mulberry-Grove-Ln-29910/home/144361544,RSMLS,430197,N,Y,32.2651559,-80.8982397
MLS Listing,,Single Family Residential,26 Columbus Cir,Bluffton,SC,29909,509000,3,2.5,MURRAY HILL,2414,12196,2005,1,211,196,Active,,,https://www.redfin.com/SC/Bluffton/26-Columbus-Cir-29909/home/117689440,RSMLS,430048,N,Y,32.2682544,-80.9763578
MLS Listing,,Single Family Residential,64 Jack Hare Rd,Bluffton,SC,29910,2495000,3,3.5,PALMETTO BLUFF,2559,16988,2015,1,975,784,Active,,,https://www.redfin.com/SC/Bluffton/64-Jack-Hare-Rd-29910/home/117836778,RSMLS,430606,N,Y,32.1888015,-80.8915465
MLS Listing,,Single Family Residential,22 Wendover Ct,Bluffton,SC,29909,549000,2,2.0,WINDSOR WALK,2094,8276,2005,1,262,264,Active,,,https://www.redfin.com/SC/Bluffton/22-Wendover-Ct-29909/home/117450239,RSMLS,430560,N,Y,32.2712,-80.9852727
MLS Listing,,Single Family Residential,1940 Dreamscape Dr,Bluffton,SC,29909,599990,2,2.0,SUN CITY,1858,5227,2022,1,323,264,Active,,,https://www.redfin.com/SC/Bluffton/1940-Dreamscape-Dr-29909/home/182545941,RSMLS,430263,N,Y,32.301281,-80.955763
MLS Listing,,Single Family Residential,19 Harrier St,Bluffton,SC,29910,3450000,6,4.5,PALMETTO BLUFF,4455,19209,2022,1,774,784,Active,,,https://www.redfin.com/SC/Bluffton/19-Harrier-St-29910/home/175204287,RSMLS,424975,N,Y,32.184492,-80.901402
MLS Listing,,Single Family Residential,46 Gallavant Rd,Bluffton,SC,29910,1695000,2,1.5,PALMETTO BLUFF,2112,25700,2017,1,803,784,Active,,,https://www.redfin.com/SC/Bluffton/46-Gallavant-Rd-29910/home/117819383,RSMLS,430844,N,Y,32.2040442,-80.8942204
MLS Listing,,Townhouse,58 Purry Cir,Bluffton,SC,29909,300000,2,2.0,DUKE OF BFT VILLAGE/PLAT IV,1053,2613,1998,1,285,3485196,Active,,,https://www.redfin.com/SC/Bluffton/58-Purry-Cir-29909/home/117223812,RSMLS,430831,N,Y,32.299041,-80.953354
MLS Listing,,Vacant Land,371 Waterfowl Rd,Bluffton,SC,29910,1395000,,,PALMETTO BLUFF,,19906,,1,,784,Active,,,https://www.redfin.com/SC/Bluffton/371-Waterfowl-Rd-29910/home/167906055,RSMLS,428613,N,Y,32.1867027,-80.9000912
MLS Listing,,Condo/Co-op,663 William Hilton Pkwy #2119,Hilton Head Island,SC,29928,295500,2,2.0,HH RESORT/FOUR SEASONS,843,,1982,1,351,480,Active,,,https://www.redfin.com/SC/Hilton-Head-Island/663-William-Hilton-Pkwy-29928/unit-2119/home/116874752,RSMLS,430532,N,Y,32.191201,-80.707908
MLS Listing,,Single Family Residential,66 Winding Oak Dr,Okatie,SC,29909,1149900,3,3.0,CALLAWASSIE ISLAND,2600,23112,1995,1,442,190,Active,,,https://www.redfin.com/SC/Okatie/66-Winding-Oak-Dr-29909/home/117191373,RSMLS,429726,N,Y,32.3264329,-80.8650427
MLS Listing,,Single Family Residential,95 Bainbridge Way,Bluffton,SC,29910,649900,3,2.5,BAYNARD PARK,2765,12632,2014,1,235,148,Active,,,https://www.redfin.com/SC/Bluffton/95-Bainbridge-Way-29910/home/117056794,RSMLS,427676,N,Y,32.2765963,-80.9350082
MLS Listing,,Single Family Residential,28 Damascus Rd,Bluffton,SC,29910,2175000,5,5.5,PALMETTO BLUFF,2980,8232,2022,1,730,784,Active,,,https://www.redfin.com/SC/Bluffton/28-Damascus-Rd-29910/home/171239341,RSMLS,430286,N,Y,32.186123,-80.896389
MLS Listing,,Single Family Residential,354 Destiny Dr,Bluffton,SC,29909,605000,2,2.0,BOTANY BAY,1700,6534,2022,1,356,264,Active,,,https://www.redfin.com/SC/BLUFFTON/354-DESTINY-DR-29909/home/178288045,RSMLS,430377,N,Y,32.320738,-80.950823
MLS Listing,,Condo/Co-op,63 Shipyard Dr #202,Hilton Head Island,SC,29928,575000,2,2.5,SHIPMASTER VILLAS,1730,,1971,1,332,505,Active,December-17-2022 12:00 PM,December-17-2022 02:00 PM,https://www.redfin.com/SC/Hilton-Head-Island/63-Shipyard-Dr-29928/unit-202/home/117313289,RSMLS,430935,N,Y,32.1556826,-80.7415285
MLS Listing,,Single Family Residential,32 Spring Island Dr,Okatie,SC,29909,999000,4,4.5,CALLAWASSIE ISLAND,4632,56009,2004,1,216,190,Active,,,https://www.redfin.com/SC/Okatie/32-Spring-Island-Dr-29909/home/117297762,RSMLS,430588,N,Y,32.334279,-80.848587
MLS Listing,,Condo/Co-op,40 Folly Field Rd Unit C350,Hilton Head Island,SC,29928,359000,1,1.0,HHBT OCEAN VILLAS,540,,1980,1,665,495,Active,,,https://www.redfin.com/SC/Hilton-Head-Island/40-Folly-Field-Rd-29928/unit-C350/home/117585723,RSMLS,430210,N,Y,32.2010472,-80.691768
MLS Listing,,Condo/Co-op,77 Ocean Ln #117,Hilton Head Island,SC,29928,629900,1,1.5,BARRINGTON COURT VILLAS,862,,1986,1,731,724,Active,,,https://www.redfin.com/SC/Hilton-Head-Island/77-Ocean-Ln-29928/unit-117/home/117854382,RSMLS,429739,N,Y,32.1577687,-80.7294439
MLS Listing,,Townhouse,6 Water Tupelo Ln,Bluffton,SC,29910,357000,3,2.5,BLUFFTON PARK,1438,2178,2006,1,248,113,Active,,,https://www.redfin.com/SC/Bluffton/6-Water-Tupelo-Ln-29910/home/117121750,RSMLS,429848,N,Y,32.2437744,-80.8670639
MLS Listing,,Vacant Land,7 Manchester Ct,Bluffton,SC,29910,99000,,,BELFAIR,,13068,,1,,1598,Active,,,https://www.redfin.com/SC/Bluffton/7-Manchester-Ct-29910/home/117218955,RSMLS,425754,N,Y,32.2757162,-80.866945
MLS Listing,,Vacant Land,34 Verbena St,Bluffton,SC,29910,525000,,,PALMETTO BLUFF,,13068,,1,,784,Active,,,https://www.redfin.com/SC/Bluffton/34-Verbena-St-29910/home/180085851,RSMLS,420748,N,Y,32.180649,-80.902987
MLS Listing,,Single Family Residential,3 Retreat Dr,Bluffton,SC,29910,2149000,4,3.5,COLLETON,4480,32020,2022,1,480,1964,Active,,,https://www.redfin.com/SC/Bluffton/3-Retreat-Dr-29910/home/117989476,RSMLS,429571,N,Y,32.277172,-80.804597
MLS Listing,,Single Family Residential,706 Turnberry Woods Dr,Bluffton,SC,29909,599000,2,2.0,SUN CITY,1969,8712,2021,1,304,264,Active,,,https://www.redfin.com/SC/Bluffton/706-Turnberry-Woods-Dr-29909/home/173976273,RSMLS,429600,N,Y,32.3156721,-80.9554451
MLS Listing,,Condo/Co-op,20 Queens Folly Rd #1959,Hilton Head Island,SC,29928,549000,2,2.0,ST ANDREWS COMMON VILLAS,1177,,1981,1,466,679,Active,,,https://www.redfin.com/SC/Hilton-Head-Island/20-Queens-Folly-Rd-29928/unit-1959/home/117076357,RSMLS,431246,N,Y,32.1749264,-80.7252314
MLS Listing,,Single Family Residential,1948 Freshwater Ln,Okatie,SC,29909,750000,4,3.0,HERONS POINTE,3371,7840,2017,1,222,264,Active,,,https://www.redfin.com/SC/Bluffton/1948-Freshwater-Ln-29909/home/144462448,RSMLS,428918,N,Y,32.3092266,-80.9645273
MLS Listing,,Single Family Residential,1845 Dreamscape Dr,Bluffton,SC,29909,658265,4,2.0,SUN CITY,1809,6534,2022,1,364,264,Active,,,https://www.redfin.com/SC/Bluffton/1845-Dreamscape-Dr-29909/home/183380705,RSMLS,431159,N,Y,32.3187563,-80.9486891
MLS Listing,,Vacant Land,184 Cutter Cir,Bluffton,SC,29909,120000,,,RIVERBEND,,11761,,1,,196,Active,,,https://www.redfin.com/SC/Bluffton/184-Cutter-Cir-29909/home/117386518,RSMLS,421586,N,Y,32.313065,-80.93115
MLS Listing,,Condo/Co-op,45 Folly Field Rd Unit 14L,Hilton Head Island,SC,29928,379900,2,2.0,FIDDLERS COVE VILLAS,757,,1980,1,502,450,Active,,,https://www.redfin.com/SC/Hilton-Head-Island/45-Folly-Field-Rd-29928/unit-14L/home/117586144,RSMLS,428625,N,Y,32.2042646,-80.6904659
MLS Listing,,Vacant Land,25 Bass Creek Ln,Bluffton,SC,29910,129900,,,SOUTH POINTE,,8712,,1,,83,Active,,,https://www.redfin.com/SC/Bluffton/25-Bass-Creek-Ln-29910/home/117764901,RSMLS,411347,N,Y,32.231373,-80.810714
MLS Listing,,Condo/Co-op,137 Cordillo Pkwy #5202,Hilton Head Island,SC,29928,439900,1,1.0,TREETOPS VILLAS,893,,1973,1,493,,Active,,,https://www.redfin.com/SC/Hilton-Head-Island/137-Cordillo-Pkwy-29928/unit-5202/home/116557967,RSMLS,429218,N,Y,32.1416634,-80.7642135
MLS Listing,,Condo/Co-op,40 Folly Field Rd Unit C137,Hilton Head Island,SC,29928,365000,1,1.0,HHBT OCEAN VILLAS,540,,1980,1,676,495,Active,,,https://www.redfin.com/SC/Hilton-Head-Island/40-Folly-Field-Rd-29928/unit-C137/home/116582566,RSMLS,431167,N,Y,32.2010472,-80.691768
MLS Listing,,Condo/Co-op,380 Marshland Rd Unit H27,Hilton Head Island,SC,29926,320000,2,2.0,SUMMER HOUSE,1072,,2001,1,299,420,Active,,,https://www.redfin.com/SC/Hilton-Head-Island/380-Marshland-Rd-29926/unit-H27/home/118160606,RSMLS,429391,N,Y,32.1885295,-80.7630641
MLS Listing,,Vacant Land,12 Sea Front Ln,Hilton Head Island,SC,29928,1695000,,,BURKES/SEASIDE,,7505,,1,,42,Active,,,https://www.redfin.com/SC/Hilton-Head-Island/12-Sea-Front-Ln-29928/home/117435565,RSMLS,431019,N,Y,32.195087,-80.69678
MLS Listing,,Townhouse,1107 Bay St,Beaufort,SC,29902,1850000,3,3.0,CITY OF BEAUFORT,2640,1742,2022,1,701,,Active,,,https://www.redfin.com/SC/Beaufort/1107-Bay-St-29902/home/179908707,RSMLS,421698,N,Y,32.4324434,-80.6746967
MLS Listing,,Single Family Residential,50 Graham Hall S,Ridgeland,SC,29936,350000,5,3.0,GRAHAM HALL,2581,24393,2007,1,136,29,Active,,,https://www.redfin.com/SC/Ridgeland/50-Graham-Hall-S-29936/home/85824847,RSMLS,429701,N,Y,32.4566784,-80.9699028
MLS Listing,,Vacant Land,24 Bass Creek Ln,Bluffton,SC,29910,89500,,,SOUTH POINTE,,6969,,1,,79,Active,,,https://www.redfin.com/SC/Bluffton/24-Bass-Creek-Ln-29910/home/118086397,RSMLS,424586,N,Y,32.231313,-80.811145
MLS Listing,,Vacant Land,28 Sweet Olive Dr,Beaufort,SC,29907,119000,,,CELADON,,7405,,1,,208,Active,,,https://www.redfin.com/SC/Beaufort/28-Sweet-Olive-Dr-29907/home/120694754,RSMLS,421888,N,Y,32.4277576,-80.63812
MLS Listing,,Condo/Co-op,42 S Forest Beach Dr #3229,Hilton Head Island,SC,29928,317900,1,1.0,SEASCAPE VILLAS,700,,1972,1,454,472,Active,,,https://www.redfin.com/SC/Hilton-Head-Island/42-S-Forest-Beach-Dr-29928/unit-3229/home/117861688,RSMLS,431330,N,Y,32.1391735,-80.7626802
MLS Listing,,Single Family Residential,131 Teal Bluff Blvd,Seabrook,SC,29940,364580,3,2.5,SEABROOK OUTSIDE STUART POINT,1830,19079,2022,1,199,,Active,,,https://www.redfin.com/SC/Seabrook/131-Teal-Bluff-Blvd-29940/home/180086280,RSMLS,428937,N,Y,32.530602,-80.743852
MLS Listing,,Vacant Land,133 Arrow Rd #372,Hilton Head Island,SC,29928,269000,,,OUTDOOR RESORT,,,,1,,267,Active,,,https://www.redfin.com/SC/Hilton-Head-Island/133-Arrow-Rd-29928/home/116587825,RSMLS,431305,N,Y,32.1615676,-80.7598606
MLS Listing,,Vacant Land,59 Inverness Dr,Bluffton,SC,29910,299000,,,COLLETON,,27007,,1,,1964,Active,,,https://www.redfin.com/SC/Bluffton/59-Inverness-Dr-29910/home/116651573,RSMLS,429283,N,Y,32.305869,-80.789376
MLS Listing,,Vacant Land,42 Elizabeth Rd,Hilton Head Island,SC,29926,500000,,,JONESVILLE ROAD,,18730,,1,,,Active,,,https://www.redfin.com/SC/Hilton-Head-Island/42-Elizabeth-Rd-29926/home/117210700,RSMLS,431319,N,Y,32.207978,-80.755792
MLS Listing,,Single Family Residential,1959 Dreamscape Dr,Bluffton,SC,29909,686640,3,2.0,SUN CITY,1969,6534,2022,1,349,264,Active,,,https://www.redfin.com/SC/Bluffton/1959-Dreamscape-Dr-29909/home/183142203,RSMLS,431097,N,Y,32.3193148,-80.9478552
MLS Listing,,Single Family Residential,38 Governors Ln,Hilton Head Island,SC,29928,1550000,4,3.5,PLANTATION LANE,3185,16291,2015,1,487,96,Active,,,https://www.redfin.com/SC/Hilton-Head-Island/38-Governors-Ln-29928/home/116656924,RSMLS,428747,N,Y,32.1495106,-80.7790903
MLS Listing,,Vacant Land,38 Normandy Ave,Bluffton,SC,29910,139000,,,HAMPTON HALL,,13068,,1,,393,Active,,,https://www.redfin.com/SC/Bluffton/38-Normandy-Ave-29910/home/116655593,RSMLS,431250,N,Y,32.248299,-80.91882
MLS Listing,,Vacant Land,703 May River Rd,Bluffton,SC,29910,475000,,,MAY RIVER RD,,210830,,1,,,Active,,,https://www.redfin.com/SC/Bluffton/703-May-River-Rd-29910/home/179901613,RSMLS,410970,N,Y,32.2320009,-80.918106
MLS Listing,,Vacant Land,27 Bartons Run Dr,Bluffton,SC,29910,315000,,,BARTONS RUN,,66646,,1,,133,Active,,,https://www.redfin.com/SC/Bluffton/27-Bartons-Run-Dr-29910/home/117823533,RSMLS,429484,N,Y,32.235937,-80.910756
MLS Listing,,Vacant Land,25 Lupine Rd,Bluffton,SC,29910,649500,,,PALMETTO BLUFF,,25264,,1,,784,Active,,,https://www.redfin.com/SC/Bluffton/25-Lupine-Rd-29910/home/179908761,RSMLS,423470,N,Y,32.175016,-80.904827
MLS Listing,,Condo/Co-op,21 Ocean Ln #484,Hilton Head Island,SC,29928,1225000,2,2.0,CAPTAINS WALK VILLAS,1367,,1980,1,896,150,Active,,,https://www.redfin.com/SC/Hilton-Head-Island/21-Ocean-Ln-29928/unit-484/home/117903392,RSMLS,429961,N,Y,32.1638177,-80.719598
MLS Listing,,Single Family Residential,12 Cedar View Cir,Bluffton,SC,29909,495000,5,3.5,MILL CREEK AT CYPRESS RIDGE,2721,9016,2021,1,182,113,Active,December-17-2022 11:00 AM,December-17-2022 02:00 PM,https://www.redfin.com/SC/Bluffton/12-Cedar-View-Cir-29909/home/175203707,RSMLS,430910,N,Y,32.263946,-80.985286
MLS Listing,,Vacant Land,2 Dr Mellincamp Dr,Bluffton,SC,29910,499000,,,MAY RIVER RD,,5662,,1,,65,Active,,,https://www.redfin.com/SC/Bluffton/2-Doctor-Mellichamp-Dr-29910/home/179900144,RSMLS,427775,N,Y,32.2397869,-80.8627622
MLS Listing,,Single Family Residential,11 Lynnfield Pl,Bluffton,SC,29910,879000,4,3.5,HAMPTON HALL,3424,13503,2006,1,257,393,Active,,,https://www.redfin.com/SC/Bluffton/11-Lynnfield-Pl-29910/home/117876912,RSMLS,428836,N,Y,32.2414414,-80.9258068
MLS Listing,,Single Family Residential,27 Goose Pond Cir,Okatie,SC,29909,3000000,5,5.0,SPRING ISLAND,4831,126759,2000,1,621,1560,Active,,,https://www.redfin.com/SC/Okatie/27-Goose-Pond-Cir-29909/home/117763253,RSMLS,425573,N,Y,32.2991835,-80.8245869
MLS Listing,,Vacant Land,24 Driftwood Ct W,Bluffton,SC,29910,265000,,,HAMPTON LAKE,,13503,,1,,320,Active,,,https://www.redfin.com/SC/Bluffton/24-Driftwood-Ct-W-29910/home/117496643,RSMLS,430358,N,Y,32.245819,-80.947908
MLS Listing,,Single Family Residential,2178 Sanctum St,Ridgeland,SC,29936,308490,3,2.0,ARGENT,1183,7840,2022,1,261,109,Active,,,https://www.redfin.com/SC/Ridgeland/2178-Sanctum-ST-29936/home/183043505,RSMLS,430867,N,Y,32.354765,-80.944368
MLS Listing,,Townhouse,144 Starshine Cir,Bluffton,SC,29910,299000,3,2.5,PALMETTO POINTE TOWNES,1636,1742,2008,1,183,70,Active,,,https://www.redfin.com/SC/Bluffton/144-Starshine-Cir-29910/home/117820164,RSMLS,429182,N,Y,32.2430005,-80.9759684
MLS Listing,,Single Family Residential,461 Rye Creek Cir,Bluffton,SC,29909,489000,3,2.0,MILL CREEK AT CYPRESS RIDGE,1914,7753,2020,1,255,273,Active,,,https://www.redfin.com/SC/Bluffton/461-Rye-Creek-Cir-29909/home/171238859,RSMLS,431233,N,Y,32.258709,-80.986723
MLS Listing,,Single Family Residential,368 Old Palmetto Bluff Rd,Bluffton,SC,29910,4750000,5,6.0,PALMETTO BLUFF,5356,303177,2022,1,887,784,Active,,,https://www.redfin.com/SC/Bluffton/368-Old-Palmetto-Bluff-Rd-29910/home/143051997,RSMLS,425272,N,Y,32.2079434,-80.9180737
MLS Listing,,Single Family Residential,10 Camp Eight Rd,Bluffton,SC,29910,3750000,3,3.5,PALMETTO BLUFF,2549,667774,2016,1,1471,784,Active,,,https://www.redfin.com/SC/Bluffton/10-Camp-Eight-Rd-29910/home/116996749,RSMLS,425575,N,Y,32.2074614,-80.9098625
MLS Listing,,Single Family Residential,86 Cypress Run,Bluffton,SC,29909,427500,3,2.0,ARGENT III,1500,5227,2003,1,285,196,Active,,,https://www.redfin.com/SC/Bluffton/86-Cypress-Run-29909/home/117491822,RSMLS,429925,N,Y,32.281661,-80.9871721
MLS Listing,,Vacant Land,427 Old Landing Rd,Bluffton,SC,29910,1375000,,,PALMETTO BLUFF,,21780,,1,,784,Active,,,https://www.redfin.com/SC/Bluffton/427-Old-Landing-Rd-29910/home/118704939,RSMLS,429610,N,Y,32.178862,-80.892562
MLS Listing,,Single Family Residential,2 John Kirk Rd,Bluffton,SC,29909,489000,2,2.0,DUKE OF BFT VILLAGE/PLAT VIII,2079,9147,1999,1,235,196,Active,,,https://www.redfin.com/SC/Bluffton/2-John-Kirk-Rd-29909/home/116915075,RSMLS,431177,N,Y,32.2978797,-80.96891
MLS Listing,,Single Family Residential,31 Sea Island Dr,Bluffton,SC,29910,499900,3,2.0,ISLAND WEST,1896,16988,2001,1,264,126,Active,,,https://www.redfin.com/SC/Bluffton/31-Sea-Island-Dr-29910/home/117775896,RSMLS,431095,N,Y,32.2835157,-80.9158267
MLS Listing,,Vacant Land,50 Flicker St,Bluffton,SC,29910,1181945,,,PALMETTO BLUFF,,24088,,1,,784,Active,,,https://www.redfin.com/SC/Bluffton/50-Flicker-St-29910/home/175204297,RSMLS,428140,N,Y,32.184096,-80.899297
MLS Listing,,Vacant Land,20 Hampton Hall Blvd,Bluffton,SC,29910,99000,,,HAMPTON HALL,,34756,,1,,393,Active,,,https://www.redfin.com/SC/Bluffton/20-Hampton-Hall-Blvd-29910/home/116957655,RSMLS,430620,N,Y,32.25621,-80.90527
MLS Listing,,Single Family Residential,127 Teal Bluff Blvd,Seabrook,SC,29940,388006,3,2.5,SEABROOK OUTSIDE STUART POINT,2103,19079,2022,1,185,,Active,,,https://www.redfin.com/SC/Seabrook/127-Teal-Bluff-Blvd-29940/home/180086282,RSMLS,429006,N,Y,32.530625,-80.744321
MLS Listing,,Single Family Residential,176 Vinson Rd,Bluffton,SC,29910,3500000,5,4.5,PALMETTO BLUFF,4724,21209,2022,1,741,784,Active,,,https://www.redfin.com/SC/Bluffton/176-Vinson-Rd-29910/home/175204355,RSMLS,425297,N,Y,32.1733,-80.90019
MLS Listing,,Single Family Residential,8 Duxbury Ln,Bluffton,SC,29909,389900,2,2.0,HAMPTON VILLAGE,1566,8276,2000,1,249,196,Active,,,https://www.redfin.com/SC/Bluffton/8-Duxbury-Ln-29909/home/117351781,RSMLS,431080,N,Y,32.2844887,-80.9677874
MLS Listing,,Single Family Residential,213 Waterstone Way,Bluffton,SC,29910,379000,4,2.0,HERITAGE AT NEW RIVERSIDE,1755,8276,2017,1,216,85,Active,,,https://www.redfin.com/SC/Bluffton/213-Waterstone-Way-29910/home/120691791,RSMLS,430182,N,Y,32.2427245,-80.9957189
MLS Listing,,Vacant Land,37 Firethorn Ln,Hardeeville,SC,29927,170000,,,HAMPTON POINTE,,20908,,1,,89,Active,,,https://www.redfin.com/SC/Hardeeville/37-Firethorn-Ln-29927/home/85830555,RSMLS,428197,N,Y,32.322444,-80.97646
MLS Listing,,Vacant Land,Lot 7 Whitehall Pt,Beaufort,SC,29907,200000,,,LADY S ISLAND,,4356,,1,,,Active,,,https://www.redfin.com/SC/Beaufort/Lot-7-Whitehall-PT-29907/home/180588844,RSMLS,417867,N,Y,32.419725,-80.664246
MLS Listing,,Condo/Co-op,9 Shelter Cove Ln #302,Hilton Head Island,SC,29928,1549000,3,3.0,MAIN SAIL VILLAS,2023,,2003,1,766,757,Active,,,https://www.redfin.com/SC/Hilton-Head-Island/9-Shelter-Cove-Ln-29928/unit-302/home/117790488,RSMLS,426131,N,Y,32.1796644,-80.7317354
MLS Listing,,Single Family Residential,6 Hidden Lakes Dr,Bluffton,SC,29910,440000,4,2.5,HIDDEN LAKES,2000,10018,2005,1,220,69,Active,,,https://www.redfin.com/SC/Bluffton/6-Hidden-Lakes-Dr-29910/home/116984093,RSMLS,430282,N,Y,32.2591493,-80.8717394
MLS Listing,,Condo/Co-op,40 Folly Field Rd Unit A230,Hilton Head Island,SC,29928,349000,1,1.0,HHBT OCEAN VILLAS,540,,1980,1,646,495,Active,,,https://www.redfin.com/SC/Hilton-Head-Island/40-Folly-Field-Rd-29928/unit-A230/home/117025109,RSMLS,430880,N,Y,32.2010472,-80.691768
MLS Listing,,Condo/Co-op,25 Mooring Buoy #823,Hilton Head Island,SC,29928,795000,2,2.0,OCEAN COVE VILLAS,1335,,1975,1,596,150,Active,,,https://www.redfin.com/SC/Hilton-Head-Island/25-Mooring-Buoy-29928/unit-823/home/117162773,RSMLS,428506,N,Y,32.1683946,-80.7192655
MLS Listing,,Single Family Residential,10 Buoy Dr,Bluffton,SC,29910,625000,4,3.0,THE LANDINGS AT NEW RIVERSIDE,2586,9975,2020,1,242,,Active,,,https://www.redfin.com/SC/Bluffton/10-Buoy-Dr-29910/home/171238579,RSMLS,429424,N,Y,32.237059,-80.9841071
MLS Listing,,Single Family Residential,5747 Guilford Pl,Bluffton,SC,29910,769000,3,2.5,STOCK FARM DEV S/D,1838,4791,2017,1,418,53,Active,,,https://www.redfin.com/SC/Bluffton/5747-Guilford-Pl-29910/home/117828262,RSMLS,425274,N,Y,32.2364822,-80.8705765
MLS Listing,,Vacant Land,30 Indigo Plantation Rd,Okatie,SC,29909,175000,,,OLDFIELD,,22651,,1,,798,Active,,,https://www.redfin.com/SC/Okatie/30-Indigo-Plantation-Rd-29909/home/118075710,RSMLS,425022,N,Y,32.338615,-80.91935
MLS Listing,,Condo/Co-op,65 Ocean Ln #111,Hilton Head Island,SC,29928,799000,1,2.0,WINDSOR PLACE I VILLAS,1019,,1993,1,784,661,Active,,,https://www.redfin.com/SC/Hilton-Head-Island/65-Ocean-Ln-29928/unit-111/home/117734734,RSMLS,430493,N,Y,32.1576403,-80.7262128
MLS Listing,,Vacant Land,16 Osprey Cir,Okatie,SC,29909,49900,,,CALLAWASSIE ISLAND,,24393,,1,,190,Active,,,https://www.redfin.com/SC/Okatie/16-Osprey-Cir-29909/home/118143145,RSMLS,429162,N,Y,32.328734,-80.861133
MLS Listing,,Condo/Co-op,15 Courtyard Cmns #15,Hilton Head Island,SC,29926,790000,3,3.5,COURTYARD AT SKULL CREEK,2806,,2007,1,282,544,Active,,,https://www.redfin.com/SC/Hilton-Head-Island/15-Courtyard-CMNS-29926/unit-15/home/183188493,RSMLS,431117,N,Y,32.2306364,-80.7325287
MLS Listing,,Single Family Residential,13 Full Sweep,Hilton Head Island,SC,29928,3600000,6,6.5,TB/P4,4003,18630,2022,1,899,150,Active,,,https://www.redfin.com/SC/Hilton-Head-Island/13-Full-Sweep-29928/home/117162337,RSMLS,429069,N,Y,32.18711,-80.709083
MLS Listing,,Single Family Residential,1 Elliot Pl,Hilton Head Island,SC,29928,3000000,5,6.0,SEC 10E,5951,22498,1970,1,504,153,Active,,,https://www.redfin.com/SC/Hilton-Head-Island/1-Elliot-Pl-29928/home/117399773,RSMLS,425880,N,Y,32.2266379,-80.6733302
MLS Listing,,Single Family Residential,4 Wiregrass Way,Bluffton,SC,29910,399000,3,2.5,PINE RIDGE,1552,6534,2005,1,257,45,Active,,,https://www.redfin.com/SC/Bluffton/4-Wiregrass-Way-29910/home/117309559,RSMLS,430942,N,Y,32.2373127,-80.9020858
MLS Listing,,Single Family Residential,9 Millbrook Cir,Okatie,SC,29909,1498000,3,2.5,BERKELEY HALL I & II,3150,22651,2022,1,476,1885,Active,,,https://www.redfin.com/SC/Okatie/9-Millbrook-Cir-29909/home/117920095,RSMLS,430378,N,Y,32.314076,-80.900054
MLS Listing,,Single Family Residential,5 Masters Ct,Hilton Head Island,SC,29928,1449000,4,3.5,LEAMINGTON,2940,13969,1998,1,493,269,Active,,,https://www.redfin.com/SC/Hilton-Head-Island/5-Masters-Ct-29928/home/117295903,RSMLS,430781,N,Y,32.1717591,-80.7332649
MLS Listing,,Condo/Co-op,40 Folly Field Rd Unit A309,Hilton Head Island,SC,29928,364000,1,1.0,HHBT OCEAN VILLAS,540,,1980,1,674,495,Active,,,https://www.redfin.com/SC/Hilton-Head-Island/40-Folly-Field-Rd-29928/unit-A309/home/117544031,RSMLS,430217,N,Y,32.2010472,-80.691768
MLS Listing,,Vacant Land,138 Middle Rd,Beaufort,SC,29907,38000,,,LADY S ISLAND,,,,1,,,Active,,,https://www.redfin.com/SC/Beaufort/138-Middle-Rd-29907/home/116703029,RSMLS,415027,N,Y,32.458109,-80.644183
MLS Listing,,Vacant Land,32 Osprey Cir,Okatie,SC,29909,49900,,,CALLAWASSIE ISLAND,,23086,,1,,84,Active,,,https://www.redfin.com/SC/Okatie/32-Osprey-Cir-29909/home/117933204,RSMLS,428855,N,Y,32.32848,-80.863805
MLS Listing,,Vacant Land,,Okatie,SC,29909,49000,,,,,28915,,1,,190,Active,,,https://www.redfin.com/SC/Okatie/Undisclosed-address-29909/home/117917273,RSMLS,367359,N,Y,32.320992,-80.859911
MLS Listing,,Vacant Land,6 Maypop Ct,Bluffton,SC,29910,159900,,,GRANDE OAKS,,30600,,1,,42,Active,,,https://www.redfin.com/SC/Bluffton/6-Maypop-Ct-29910/home/117770248,RSMLS,428030,N,Y,32.2591449,-80.9215509
MLS Listing,,Single Family Residential,49 Planters Row,Hilton Head Island,SC,29928,2995000,4,4.5,PR BEACH LAGOON,4500,16369,2006,1,666,153,Active,,,https://www.redfin.com/SC/Hilton-Head-Island/49-Planters-Row-29928/home/116731802,RSMLS,430900,N,Y,32.2169065,-80.67125
MLS Listing,,Condo/Co-op,112 Union Cemetery Rd #414,Hilton Head Island,SC,29926,259900,2,2.0,THE LEGENDS ON THE GREEN,999,,2005,1,260,,Active,,,https://www.redfin.com/SC/Hilton-Head-Island/112-Union-Cemetery-Rd-29926/unit-414/home/117813465,RSMLS,430035,N,Y,32.2215438,-80.6924722
MLS Listing,,Vacant Land,28 Beauregard Blvd,Daufuskie Island,SC,29915,99000,,,OAK RIDGE,,39639,,1,,67,Active,,,https://www.redfin.com/SC/Daufuskie-Island/28-Beauregard-Blvd-29915/home/117103000,RSMLS,424448,N,Y,32.0987409,-80.862731
MLS Listing,,Condo/Co-op,112 Union Cemetery Rd #213,Hilton Head Island,SC,29926,339900,2,2.0,THE LEGENDS ON THE GREEN,951,,2005,1,357,,Active,,,https://www.redfin.com/SC/Hilton-Head-Island/112-Union-Cemetery-Rd-29926/unit-213/home/117816786,RSMLS,427636,N,Y,32.2215438,-80.6924722
MLS Listing,,Condo/Co-op,63 Shipyard Dr #1703,Hilton Head Island,SC,29928,559900,2,2.5,SHIPMASTER VILLAS,1530,,1971,1,366,453,Active,,,https://www.redfin.com/SC/Hilton-Head-Island/63-Shipyard-Dr-29928/unit-1703/home/117682424,RSMLS,430173,N,Y,32.1556826,-80.7415285
MLS Listing,,Single Family Residential,120 Shell Midden Ln,Hilton Head Island,SC,29928,2389439,8,7.5,PALM FOREST,4483,9147,2022,1,533,,Active,,,https://www.redfin.com/SC/Hilton-Head-Island/120-Shell-Midden-LN-29928/home/179894307,RSMLS,426081,N,Y,32.135922,-80.771667
MLS Listing,,Condo/Co-op,104 Cordillo Pkwy Unit B5,Hilton Head Island,SC,29928,224000,2,1.5,THE HEDGES/SEA CABIN RAQ,864,,1979,1,259,395,Active,,,https://www.redfin.com/SC/Hilton-Head-Island/104-Cordillo-Pkwy-29928/unit-B5/home/117994828,RSMLS,430215,N,Y,32.1474194,-80.7607373
MLS Listing,,Condo/Co-op,10 S Forest Beach Dr #108,Hilton Head Island,SC,29928,425000,1,1.0,FOREST BEACH VILLAS,903,,1980,1,471,,Active,,,https://www.redfin.com/SC/Hilton-Head-Island/10-S-Forest-Beach-Dr-29928/unit-108/home/118105908,RSMLS,427539,N,Y,32.1415202,-80.7541918
MLS Listing,,Condo/Co-op,42 S Forest Beach Dr #3036,Hilton Head Island,SC,29928,499999,2,2.0,SEASCAPE VILLAS,1100,,1972,1,455,635,Active,,,https://www.redfin.com/SC/Hilton-Head-Island/42-S-Forest-Beach-Dr-29928/unit-3036/home/117216200,RSMLS,431341,N,Y,32.1391735,-80.7626802
MLS Listing,,Vacant Land,12 Waybridge Cir,Bluffton,SC,29910,199999,,,HAMPTON HALL,,13695,,1,,393,Active,,,https://www.redfin.com/SC/Bluffton/12-Waybridge-Cir-29910/home/117250280,RSMLS,429526,N,Y,32.260086,-80.908423
MLS Listing,,Condo/Co-op,897 Fording Island Rd #906,Bluffton,SC,29910,249900,2,2.0,PLANTATION POINT,1001,,1997,1,250,230,Active,,,https://www.redfin.com/SC/Bluffton/897-Fording-Island-Rd-29910/unit-906/home/116667215,RSMLS,430540,N,Y,32.2699593,-80.85483
MLS Listing,,Single Family Residential,,Hardeeville,SC,29927,369790,2,2.0,,1862,6185,2022,1,199,300,Active,,,https://www.redfin.com/SC/Hardeeville/Undisclosed-address-29927/home/167878694,RSMLS,422029,N,Y,32.3032824,-81.0189157
MLS Listing,,Single Family Residential,19 Grande Oaks Dr,Bluffton,SC,29910,599000,4,3.0,GRANDE OAKS,2391,40746,1996,1,251,,Active,December-18-2022 11:00 AM,December-18-2022 02:00 PM,https://www.redfin.com/SC/Bluffton/19-Grande-Oaks-Dr-29910/home/117338658,RSMLS,430562,N,Y,32.2571658,-80.9269301
MLS Listing,,Single Family Residential,262 Alder Ln,Hardeeville,SC,29927,699900,3,2.5,HAMPTON POINTE,2726,12196,2022,1,257,890150,Active,,,https://www.redfin.com/SC/Hardeeville/262-Alder-Ln-29927/home/85830642,RSMLS,427549,N,Y,32.3197762,-80.9719405
MLS Listing,,Single Family Residential,33 Palmetto Cove Ct,Bluffton,SC,29910,1250000,5,4.0,HAMPTON LAKE,3881,20473,2022,1,322,320,Active,,,https://www.redfin.com/SC/Bluffton/33-Palmetto-Cove-Ct-29910/home/116987025,RSMLS,423495,N,Y,32.2499282,-80.9368656
MLS Listing,,Single Family Residential,15 Blue Dasher Ln,Bluffton,SC,29909,862880,4,3.5,OLDFIELD,2892,8712,2022,1,298,798,Active,,,https://www.redfin.com/SC/Bluffton/15-Blue-Dasher-Ln-29909/home/117121212,RSMLS,429405,N,Y,32.350716,-80.912394
MLS Listing,,Condo/Co-op,50 Pebble Beach Cv Unit E115,Bluffton,SC,29910,265000,2,2.0,THE RESERVE AT WOODBRIDGE,989,,2001,1,268,318,Active,,,https://www.redfin.com/SC/Bluffton/50-Pebble-Beach-Cv-29910/unit-E115/home/117772102,RSMLS,430955,N,Y,32.280363,-80.9056293
MLS Listing,,Single Family Residential,168 Stratford Village Way,Bluffton,SC,29909,663000,2,2.5,STRATFORD VILLAGE,2816,13939,2003,1,235,196,Active,,,https://www.redfin.com/SC/Bluffton/168-Stratford-Village-Way-29909/home/118141603,RSMLS,429986,N,Y,32.2941815,-80.981042
MLS Listing,,Single Family Residential,18 Anchor Cove Ct,Bluffton,SC,29910,1099990,3,2.5,HAMPTON LAKE,3013,13939,2014,1,365,320,Active,,,https://www.redfin.com/SC/Bluffton/18-Anchor-Cove-Ct-29910/home/118162497,RSMLS,428997,N,Y,32.2541155,-80.9315524
MLS Listing,,Vacant Land,5 Alumni Rd,Beaufort,SC,29907,120000,,,ACADEMY ESTATES,,12196,,1,,,Active,,,https://www.redfin.com/SC/Beaufort/5-Alumni-Rd-29907/home/171237112,RSMLS,428068,N,Y,32.433155,-80.635786
MLS Listing,,Single Family Residential,1505 Lafayette St,Beaufort,SC,29902,395000,3,2.0,VON HARTEN S/D,2100,10615,1968,1,188,,Active,,,https://www.redfin.com/SC/Beaufort/1505-Lafayette-St-29902/home/117018813,RSMLS,430549,N,Y,32.4461247,-80.6794405
MLS Listing,,Single Family Residential,60 Old Sawmill Dr,Bluffton,SC,29910,629900,4,2.5,VICTORIA BLUFF,2300,10890,2000,1,274,67,Active,,,https://www.redfin.com/SC/Bluffton/60-Old-Sawmill-Dr-29910/home/117229335,RSMLS,428881,N,Y,32.2548616,-80.8266415
MLS Listing,,Single Family Residential,2953 Needlegrass Dr,Beaufort,SC,29902,418155,3,2.5,OVERLOOK AT BATTERY CREEK S/D,2014,5227,2022,1,208,83,Active,,,https://www.redfin.com/SC/Beaufort/2953-Needlegrass-Dr-29902/home/180086688,RSMLS,431261,N,Y,32.4088572,-80.7182914
MLS Listing,,Townhouse,2020 Bluff Villas Rd,Saint Helena Island,SC,29920,399000,2,2.0,BLUFF VILLAS DATAW ISL,1308,,1985,1,305,178956971,Active,,,https://www.redfin.com/SC/Saint-Helena-Island/2020-Bluff-Villas-Rd-29920/home/117067525,RSMLS,431073,N,Y,32.4330066,-80.5814204
MLS Listing,,Single Family Residential,224 Rookery Dr,Hardeeville,SC,29927,499000,3,2.0,HILTON HEAD LAKES/TRADITION,1654,15681,2017,1,302,203,Active,,,https://www.redfin.com/SC/Hardeeville/224-Rookery-Dr-29927/home/85831699,RSMLS,431106,N,Y,32.3157788,-81.0167581
MLS Listing,,Vacant Land,2233 Be Wheatley Dr,Beaufort,SC,29902,97000,,,LIVE OAKS AT BATTERY CREEK,,13939,,1,,46,Active,,,https://www.redfin.com/SC/Beaufort/2233-Be-Wheatley-Dr-29902/home/116992185,RSMLS,427656,N,Y,32.433715,-80.703594
MLS Listing,,Single Family Residential,20 Canvasback Rd,Hilton Head Island,SC,29928,3995000,5,6.5,CANVASBACK,4296,18033,1997,1,930,96,Active,,,https://www.redfin.com/SC/Hilton-Head-Island/20-Canvasback-Rd-29928/home/117737449,RSMLS,430199,N,Y,32.1337458,-80.7720272
MLS Listing,,Single Family Residential,115 Teal Bluff Blvd,Seabrook,SC,29940,375417,3,3.0,SEABROOK OUTSIDE STUART POINT,1928,24916,2022,1,195,,Active,,,https://www.redfin.com/SC/Seabrook/115-Teal-Bluff-Blvd-29940/home/180086288,RSMLS,429123,N,Y,32.530519,-80.745737
MLS Listing,,Condo/Co-op,85 Black Watch Dr #85,Hilton Head Island,SC,29926,349000,4,2.5,THE GATHERINGS,1560,,1996,1,224,458,Active,,,https://www.redfin.com/SC/Hilton-Head-Island/85-Black-Watch-Dr-29926/unit-85/home/182756479,RSMLS,430525,N,Y,32.234039,-80.8098136
MLS Listing,,Condo/Co-op,96 Mathews Dr #65,Hilton Head Island,SC,29926,279000,2,2.0,WOODLAKE VILLAS,1025,,1982,1,272,425,Active,,,https://www.redfin.com/SC/Hilton-Head-Island/96-Mathews-Dr-29926/unit-65/home/117459685,RSMLS,429825,N,Y,32.2113014,-80.7057492
MLS Listing,,Timeshare,9 Harbourside Ln Unit 7326C,Hilton Head Island,SC,29928,78500,2,2.0,HARBOURSIDE III VILLA SH,,,1987,1,,102,Active,,,https://www.redfin.com/SC/Hilton-Head-Island/9-Harbourside-Ln-29928/unit-7326C/home/179911018,RSMLS,429665,N,Y,32.180415,-80.7294058
MLS Listing,,Single Family Residential,4048 Sage Dr,Beaufort,SC,29907,489000,4,3.0,OYSTER BLUFF,2804,10018,2017,1,174,89,Active,,,https://www.redfin.com/SC/Beaufort/4048-Sage-Dr-29907/home/120695259,RSMLS,431100,N,Y,32.429106,-80.6457632
MLS Listing,,Vacant Land,5 Quintyne Ct,Seabrook,SC,29940,68500,,,BULL POINT,,37026,,1,,238,Active,,,https://www.redfin.com/SC/Seabrook/5-Quintyne-Ct-29940/home/116678300,RSMLS,414292,N,Y,32.580359,-80.76591
MLS Listing,,Single Family Residential,11 Hickory Ln,Hilton Head Island,SC,29928,1599000,3,2.0,PALM FOREST,2408,17249,1972,1,664,8,Active,,,https://www.redfin.com/SC/Hilton-Head-Island/11-Hickory-Ln-29928/home/117341454,RSMLS,430969,N,Y,32.1355051,-80.7712778
MLS Listing,,Vacant Land,929 Kinloch Rd,Seabrook,SC,29940,200000,,,INDIAN HILL PLANT,,408157,,1,,,Active,,,https://www.redfin.com/SC/Seabrook/929-Kinloch-Rd-29940/home/118116589,RSMLS,430375,N,Y,32.563777,-80.692888
MLS Listing,,Single Family Residential,275 Belfair Oaks Blvd,Bluffton,SC,29910,1225000,3,3.5,BELFAIR,3761,20686,1998,1,326,1598,Active,,,https://www.redfin.com/SC/Bluffton/275-Belfair-Oaks-Blvd-29910/home/117764167,RSMLS,429752,N,Y,32.292722,-80.864502
MLS Listing,,Vacant Land,44 Harbour Town Yacht Basin,Hilton Head Island,SC,29928,300000,,,HARBOURTOWN YACHT CLUB,,,1987,1,,96,Active,,,https://www.redfin.com/SC/Hilton-Head-Island/149-Lighthouse-Rd-29928/home/179894309,RSMLS,430829,N,Y,32.1380723,-80.8127009
MLS Listing,,Single Family Residential,18 5th Ave,Bluffton,SC,29910,540000,4,3.0,BLUFFTON PARK,2106,5227,2005,1,256,58,Active,,,https://www.redfin.com/SC/Bluffton/18-5th-Ave-29910/home/116561689,RSMLS,429543,N,Y,32.2419884,-80.8695507
MLS Listing,,Single Family Residential,96 Saluda Way,Beaufort,SC,29906,352500,3,2.5,SHADOW MOSS S/D,1669,8450,2018,1,211,35,Active,,,https://www.redfin.com/SC/Beaufort/96-Saluda-Way-29906/home/145055542,RSMLS,428778,N,Y,32.4115719,-80.7660618
MLS Listing,,Condo/Co-op,663 William Hilton Pkwy #2114,Hilton Head Island,SC,29928,269000,2,2.0,HH RESORT/FOUR SEASONS,843,,1982,1,319,480,Active,,,https://www.redfin.com/SC/Hilton-Head-Island/663-William-Hilton-Pkwy-29928/unit-2114/home/179909026,RSMLS,429629,N,Y,32.1910505,-80.7079508
MLS Listing,,Vacant Land,30 Bryant Rd,Hilton Head Island,SC,29926,3750000,,,SPANISH GROVE,,95832,,1,,,Active,,,https://www.redfin.com/SC/Hilton-Head-Island/30-Bryant-Rd-29926/home/116722095,RSMLS,430530,N,Y,32.1872958,-80.7694426
MLS Listing,,Single Family Residential,15 Bainbridge Way,Bluffton,SC,29910,629900,3,2.0,BAYNARD PARK,2271,13939,2013,1,277,148,Active,,,https://www.redfin.com/SC/Bluffton/15-Bainbridge-Way-29910/home/117054789,RSMLS,430326,N,Y,32.274818,-80.9307532
MLS Listing,,Single Family Residential,38 Lady Slipper Island Dr,Bluffton,SC,29910,2195000,3,3.5,BELFAIR,3754,7840,2022,1,585,1598,Active,,,https://www.redfin.com/SC/Bluffton/38-Lady-Slipper-Island-Dr-29910/home/117233669,RSMLS,429937,N,Y,32.2974207,-80.8608983
MLS Listing,,Vacant Land,95 W Branch Rd,Ridgeland,SC,29936,112000,,,KNOWLES ISLAND PLANTATION,,47916,,1,,,Active,,,https://www.redfin.com/SC/Ridgeland/95-W-Branch-Rd-29936/home/179906387,RSMLS,427613,N,Y,32.5114506,-80.8608933
MLS Listing,,Vacant Land,20 River Bend Dr,Okatie,SC,29909,15000,,,CALLAWASSIE ISLAND,,28549,,1,,838523,Active,,,https://www.redfin.com/SC/Okatie/20-River-Bend-Dr-29909/home/117078616,RSMLS,429613,N,Y,32.317185,-80.854609
MLS Listing,,Single Family Residential,824 Bakers Ct,Bluffton,SC,29910,329900,3,2.0,THE FARM AT BUCKWALTER,1090,6847,2002,1,303,78,Active,,,https://www.redfin.com/SC/Bluffton/824-Bakers-Ct-29910/home/116942228,RSMLS,430845,N,Y,32.2393975,-80.908438
MLS Listing,,Vacant Land,9 Pinetree Ln,Daufuskie Island,SC,29915,39000,,,TALL PINES S/D,,20669,,1,,,Active,,,https://www.redfin.com/SC/Daufuskie-Island/9-Pinetree-Ln-29915/home/117468174,RSMLS,418099,N,Y,32.108777,-80.885475
MLS Listing,,Vacant Land,162 Haig Point Rd,Daufuskie Island,SC,29915,45000,,,TALL PINES S/D,,17406,,1,,,Active,,,https://www.redfin.com/SC/Daufuskie-Island/162-Haig-Point-Rd-29915/home/118080418,RSMLS,418105,N,Y,32.109265,-80.88666
MLS Listing,,Vacant Land,6 Pinetree Ln,Daufuskie Island,SC,29915,39000,,,TALL PINES S/D,,18316,,1,,,Active,,,https://www.redfin.com/SC/Daufuskie-Island/6-Pinetree-Ln-29915/home/117990707,RSMLS,418095,N,Y,32.108694,-80.886272
MLS Listing,,Vacant Land,212 Estate Way,Hardeeville,SC,29927,189500,,,TELFAIR PLANTATION,,150282,,1,,171,Active,,,https://www.redfin.com/SC/HARDEEVILLE/212-ESTATE-WAY-29927/home/85827445,RSMLS,422642,N,Y,32.138012,-81.038983
MLS Listing,,Vacant Land,10 Pinetree Ln,Daufuskie Island,SC,29915,39000,,,TALL PINES S/D,,17288,,1,,,Active,,,https://www.redfin.com/SC/Daufuskie-Island/10-Pinetree-Ln-29915/home/117580365,RSMLS,418082,N,Y,32.108301,-80.885893
MLS Listing,,Single Family Residential,123 Ave Of Oaks,Daufuskie Island,SC,29915,625000,3,2.0,MELROSE,1570,6098,1988,1,398,300,Active,,,https://www.redfin.com/SC/Daufuskie-Island/123-Ave-of-Oaks-29915/home/117837784,RSMLS,430566,N,Y,32.1162682,-80.8461269
MLS Listing,,Vacant Land,1705 Hunters Loop S,Hardeeville,SC,29927,165000,,,TELFAIR PLANTATION,,119790,,1,,171,Active,,,https://www.redfin.com/SC/Hardeeville/1705-Hunters-Loop-S-29927/home/85827439,RSMLS,422495,N,Y,32.13946,-81.038411
MLS Listing,,Vacant Land,10 Osprey Pl,Daufuskie Island,SC,29915,69900,,,HAIG POINT,,10890,,1,,1383,Active,,,https://www.redfin.com/SC/Daufuskie-Island/10-Osprey-Pl-29915/home/116678467,RSMLS,429270,N,Y,32.124792,-80.848135
MLS Listing,,Vacant Land,11 Bridle Path Blvd,Hardeeville,SC,29927,115000,,,TELFAIR PLANTATION,,72745,,1,,171,Active,,,https://www.redfin.com/SC/Unknown/11-Bridal-Path-Blvd-29927/home/179907932,RSMLS,424734,N,Y,32.14138,-81.04126
MLS Listing,,Vacant Land,1202 Haig Point Rd E,Daufuskie Island,SC,29915,60000,,,HAIG POINT,,11325,,1,,1383,Active,,,https://www.redfin.com/SC/Daufuskie-Island/1202-Haig-Point-Rd-E-29915/home/116651890,RSMLS,429782,N,Y,32.144681,-80.839264
MLS Listing,,Vacant Land,430 Mount Pelia Rd,Bluffton,SC,29910,925000,,,PALMETTO BLUFF,,30927,,1,,784,Active,,,https://www.redfin.com/SC/Bluffton/430-Mount-Pelia-Rd-29910/home/118165810,RSMLS,425667,N,Y,32.205771,-80.885355
MLS Listing,,Single Family Residential,10 Rumford Ln,Bluffton,SC,29910,2095000,2,2.5,PALMETTO BLUFF,1652,10890,2015,1,1268,784,Active,,,https://www.redfin.com/SC/Bluffton/10-Rumford-Ln-29910/home/118704783,RSMLS,430811,N,Y,32.20598,-80.887785
MLS Listing,,Single Family Residential,102 Game Land Rd,Bluffton,SC,29910,2475000,4,4.5,PALMETTO BLUFF,3586,11325,2022,1,690,784,Active,,,https://www.redfin.com/SC/Bluffton/102-Game-Land-Rd-29910/home/179901859,RSMLS,427591,N,Y,32.1910816,-80.8920721
MLS Listing,,Vacant Land,9 Hannah Ln,Bluffton,SC,29910,995000,,,PALMETTO BLUFF,,7405,,1,,784,Active,,,https://www.redfin.com/SC/Bluffton/9-Hannah-Ln-29910/home/118705168,RSMLS,429952,N,Y,32.1767846,-80.8921251
MLS Listing,,Single Family Residential,22 Wolf Tree Rd,Bluffton,SC,29910,3195000,4,4.0,PALMETTO BLUFF,3111,22651,2014,1,1027,784,Active,,,https://www.redfin.com/SC/Bluffton/22-Wolf-Tree-Rd-29910/home/117819487,RSMLS,427776,N,Y,32.1929655,-80.8875213
MLS Listing,,Single Family Residential,14 Camp Eight Rd,Bluffton,SC,29910,3300000,3,3.5,PALMETTO BLUFF,3088,,2014,1,1069,784,Active,,,https://www.redfin.com/SC/Bluffton/14-Camp-8-Rd-29910/home/117008773,RSMLS,430973,N,Y,32.2054303,-80.910886
MLS Listing,,Vacant Land,27 Amaranth Rd,Bluffton,SC,29910,850000,,,PALMETTO BLUFF,,24393,,1,,779,Active,,,https://www.redfin.com/SC/Bluffton/27-Amaranth-Rd-29910/home/179906283,RSMLS,421522,N,Y,32.17871,-80.901903
MLS Listing,,Vacant Land,178 Delta Estates Rd,Hardeeville,SC,29927,129000,,,HARDEEVILLE,,38332,,1,,,Active,,,https://www.redfin.com/SC/Hardeeville/178-Delta-Estates-Rd-29927/home/85827370,RSMLS,420596,N,Y,32.167636,-81.042054
MLS Listing,,Vacant Land,49 Amaranth Rd,Bluffton,SC,29910,895000,,,PALMETTO BLUFF,,27007,,1,,784,Active,,,https://www.redfin.com/SC/Bluffton/49-Amaranth-Rd-29910/home/179907731,RSMLS,420732,N,Y,32.178134,-80.903542
MLS Listing,,Vacant Land,373 Davies Rd,Bluffton,SC,29910,2995000,,,PALMETTO BLUFF,,137170,,1,,784,Active,,,https://www.redfin.com/SC/Bluffton/373-Davies-Rd-29910/home/171239417,RSMLS,428936,N,Y,32.165958,-80.902715
MLS Listing,,Vacant Land,15 Amaranth Rd,Bluffton,SC,29910,795000,,,PALMETTO BLUFF,,17424,,1,,784,Active,,,https://www.redfin.com/SC/Bluffton/15-Amaranth-Rd-29910/home/179907933,RSMLS,420664,N,Y,32.178369,-80.902356
MLS Listing,,Single Family Residential,32 Red Knot Rd,Bluffton,SC,29910,2275000,4,4.5,PALMETTO BLUFF,3250,8712,2022,1,700,784,Active,,,https://www.redfin.com/SC/Bluffton/32-Red-Knot-Rd-29910/home/179902412,RSMLS,425298,N,Y,32.1896223,-80.8914906
MLS Listing,,Vacant Land,480 Davies Rd,Bluffton,SC,29910,795000,,,PALMETTO BLUFF,,17424,,1,,784,Active,,,https://www.redfin.com/SC/Bluffton/480-Davies-Rd-29910/home/175204404,RSMLS,424577,N,Y,32.170393,-80.900357
MLS Listing,,Vacant Land,17 Sterling Pointe Dr,Hilton Head Island,SC,29926,169000,,,OAKVIEW,,8712,,1,,125,Active,,,https://www.redfin.com/SC/Hilton-Head-Island/17-Sterling-Pointe-Dr-29926/home/116883307,RSMLS,422664,N,Y,32.197966,-80.767377
MLS Listing,,Single Family Residential,66 Santa Maria Dr,Hilton Head Island,SC,29926,1795000,4,3.5,TALBIRD,3813,28287,1995,1,471,99,Active,,,https://www.redfin.com/SC/Hilton-Head-Island/66-Santa-Maria-Dr-29926/home/116887037,RSMLS,423969,N,Y,32.2477835,-80.7437657
MLS Listing,,Vacant Land,50 Fuller Pointe Dr,Hilton Head Island,SC,29926,599000,,,FULLER POINTE,,4356,,1,,71,Active,,,https://www.redfin.com/SC/Hilton-Head-Island/50-Fuller-Pointe-Dr-29926/home/116656996,RSMLS,429580,N,Y,32.229492,-80.7524
MLS Listing,,Condo/Co-op,8 Waterway Ln #11,Hilton Head Island,SC,29926,1045000,3,3.0,WATERWAY GARDENS,2317,,2022,1,451,99,Active,,,https://www.redfin.com/SC/Hilton-Head-Island/8-Waterway-Ln-29926/unit-11/home/179904173,RSMLS,424612,N,Y,32.2467402,-80.7442026
MLS Listing,,Condo/Co-op,380 Marshland Rd Unit E31,Hilton Head Island,SC,29926,319900,2,2.0,SUMMER HOUSE,1060,,2001,1,302,416,Active,,,https://www.redfin.com/SC/Hilton-Head-Island/380-Marshland-Rd-29926/unit-E31/home/116669849,RSMLS,424798,N,Y,32.1885295,-80.7630641
MLS Listing,,Condo/Co-op,1 Fuskie Ln #2201,Daufuskie Island,SC,29915,535000,3,3.0,SANDY LANE VILLAS,1890,,2005,1,283,811,Active,,,https://www.redfin.com/SC/Daufuskie-Island/1-Fuskie-Ln-29915/unit-2201/home/179901050,RSMLS,430924,N,Y,32.093914,-80.86636
MLS Listing,,Vacant Land,1513 Hunters Loop S,Hardeeville,SC,29927,99000,,,TELFAIR PLANTATION,,83199,,1,,171,Active,,,https://www.redfin.com/SC/Hardeeville/1513-Hunters-Loop-S-29927/home/85827441,RSMLS,427597,N,Y,32.139985,-81.036829
MLS Listing,,Single Family Residential,2 Welcome Breeze Ct,Daufuskie Island,SC,29915,599000,4,3.0,MELROSE,2550,22337,2002,1,235,83,Active,,,https://www.redfin.com/SC/Daufuskie-Island/2-Welcome-Breeze-Ct-29915/home/117440954,RSMLS,429694,N,Y,32.1169224,-80.85886
MLS Listing,,Single Family Residential,30 River Marsh Run,Daufuskie Island,SC,29915,2050000,4,3.5,HAIG POINT,4139,42105,1999,1,495,1383,Active,,,https://www.redfin.com/SC/Daufuskie-Island/30-River-Marsh-Run-29915/home/118046848,RSMLS,426077,N,Y,32.140715,-80.8524389
MLS Listing,,Vacant Land,32 Haig Point Rd,Daufuskie Island,SC,29915,379900,,,CASEYS POINT S/D,,33976,,1,,,Active,,,https://www.redfin.com/SC/Daufuskie-Island/32-Haig-Point-Rd-29915/home/117449404,RSMLS,428833,N,Y,32.1043,-80.892669
MLS Listing,,Single Family Residential,1 Masters Dr,Daufuskie Island,SC,29915,665000,3,2.0,MELROSE,2986,18351,2001,1,223,83,Active,,,https://www.redfin.com/SC/Daufuskie-Island/1-Masters-Dr-29915/home/116870434,RSMLS,430036,N,Y,32.1144058,-80.8575196
MLS Listing,,Vacant Land,1328 Hunters Loop S,Hardeeville,SC,29927,109000,,,TELFAIR PLANTATION,,101494,,1,,171,Active,,,https://www.redfin.com/SC/Hardeeville/1328-Hunters-Loop-S-29927/home/85827443,RSMLS,422479,N,Y,32.1395849,-81.0356888
MLS Listing,,Vacant Land,5 Buttercup Ct,Daufuskie Island,SC,29915,54900,,,MELROSE,,44988,,1,,67,Active,,,https://www.redfin.com/SC/Daufuskie-Island/5-Buttercup-Ct-29915/home/117468258,RSMLS,429466,N,Y,32.11293,-80.859861
MLS Listing,,Vacant Land,84 Old Haig Point Rd,Daufuskie Island,SC,29915,75000,,,COOPER RIVER PLANT,,21780,,1,,,Active,,,https://www.redfin.com/SC/Daufuskie-Island/84-Old-Haig-Point-Rd-29915/home/183321218,RSMLS,431268,N,Y,32.1277121,-80.8595524
MLS Listing,,Vacant Land,2 Mccall Ct,Daufuskie Island,SC,29915,25000,,,MELROSE,,19371,,1,,67,Active,,,https://www.redfin.com/SC/Daufuskie-Island/2-McCall-Ct-29915/home/118080816,RSMLS,429899,N,Y,32.115974,-80.853285
MLS Listing,,Vacant Land,,Bluffton,SC,29910,2500000,,,,,910403,,1,,,Active,,,https://www.redfin.com/SC/Bluffton/Undisclosed-address-29910/home/179903407,RSMLS,370319,N,Y,32.2906968,-80.9146833
MLS Listing,,Single Family Residential,50 Edisto Dr,Bluffton,SC,29910,949000,4,3.0,BELFAIR,3418,10890,1998,1,278,1598,Active,,,https://www.redfin.com/SC/Bluffton/50-Edisto-Dr-29910/home/117097756,RSMLS,429437,N,Y,32.2844539,-80.851797
MLS Listing,,Single Family Residential,11 Tidal Creek Ln,Okatie,SC,29909,2000000,4,5.0,SPRING ISLAND,3510,185047,1992,1,570,595,Active,,,https://www.redfin.com/SC/Okatie/11-Tidal-Creek-Ln-29909/home/117738057,RSMLS,429960,N,Y,32.320872,-80.8329781
MLS Listing,,Single Family Residential,127 Winding Oak Dr,Okatie,SC,29909,1050000,3,3.5,CALLAWASSIE ISLAND,2665,25256,2022,1,394,190,Active,,,https://www.redfin.com/SC/Okatie/127-Winding-Oak-Dr-29909/home/116616938,RSMLS,426134,N,Y,32.321878,-80.858464
MLS Listing,,Single Family Residential,288 Pickett Mill Blvd,Bluffton,SC,29909,695000,5,3.5,MILL CREEK AT CYPRESS RIDGE,3649,8276,2007,1,190,,Active,,,https://www.redfin.com/SC/Bluffton/288-Pickett-Mill-Blvd-29909/home/116670015,RSMLS,430892,N,Y,32.2622436,-80.9688236
MLS Listing,,Single Family Residential,984 Coral Reef Way,Hardeeville,SC,29927,729000,2,2.5,LATITUDE MARGARITAVILLE,2338,10454,2019,1,312,253,Active,,,https://www.redfin.com/SC/HARDEEVILLE/984-CORAL-REEF-WAY-29927/home/172687882,RSMLS,431079,N,Y,32.300994,-81.01392
MLS Listing,,Single Family Residential,3 Windlass Ct,Bluffton,SC,29910,1100000,4,3.0,B5/BELFAIR,3609,30927,1997,1,305,208,Active,,,https://www.redfin.com/SC/Bluffton/3-Windlass-Ct-29910/home/117169422,RSMLS,429919,N,Y,32.2943755,-80.8671395
MLS Listing,,Vacant Land,22 Hawthorne Rd,Bluffton,SC,29910,115000,,,COLLETON,,18295,,1,,1964,Active,,,https://www.redfin.com/SC/Bluffton/22-Hawthorne-Rd-29910/home/117184965,RSMLS,431130,N,Y,32.283768,-80.803088
MLS Listing,,Single Family Residential,38 Ensis Rd,Hilton Head Island,SC,29928,6250000,5,5.5,GRASSLAWN E,4988,17424,1991,1,1253,153,Active,,,https://www.redfin.com/SC/Hilton-Head-Island/38-Ensis-Rd-29928/home/118074434,RSMLS,430996,N,Y,32.2112821,-80.6765804
MLS Listing,,Townhouse,232 West Sq,Bluffton,SC,29910,298000,3,2.5,THE TOWNES AT BUCKWALTER,1360,1742,2006,1,219,330,Active,,,https://www.redfin.com/SC/Bluffton/232-West-Sq-29910/home/116988860,RSMLS,430218,N,Y,32.2702006,-80.9118852
MLS Listing,,Vacant Land,8 Moonshell Rd,Hilton Head Island,SC,29928,659000,,,FOLLY FIELD B,,6015,,1,,,Active,,,https://www.redfin.com/SC/Hilton-Head-Island/8-Moonshell-Rd-29928/home/117891865,RSMLS,428886,N,Y,32.2024436,-80.6895125
MLS Listing,,Vacant Land,29 Lupine Rd,Bluffton,SC,29910,599500,,,PALMETTO BLUFF,,20473,,1,,784,Active,,,https://www.redfin.com/SC/Bluffton/29-Lupine-Rd-29910/home/179901075,RSMLS,422856,N,Y,32.178465,-80.902807
MLS Listing,,Single Family Residential,244 Waterfowl Rd,Bluffton,SC,29910,2095000,4,3.5,PALMETTO BLUFF,3011,10454,2017,1,696,784,Active,,,https://www.redfin.com/SC/Bluffton/244-Waterfowl-Rd-29910/home/118711824,RSMLS,426142,N,Y,32.1864372,-80.895128
MLS Listing,,Condo/Co-op,40 Folly Field Rd #234,Hilton Head Island,SC,29928,450000,2,2.0,HHBT/ADMIRALS ROW,996,,1980,1,452,694,Active,,,https://www.redfin.com/SC/Hilton-Head-Island/40-Folly-Field-Rd-29928/unit-234/home/117348160,RSMLS,427682,N,Y,32.2010472,-80.691768
MLS Listing,,Vacant Land,72 Lexington Dr,Bluffton,SC,29910,250000,,,BELFAIR,,21780,,1,,1598,Active,,,https://www.redfin.com/SC/Bluffton/72-Lexington-Dr-29910/home/117218830,RSMLS,427405,N,Y,32.277944,-80.865832
MLS Listing,,Single Family Residential,335 Corley St,Bluffton,SC,29910,2595000,3,3.5,PALMETTO BLUFF,3139,8712,2018,1,827,784,Active,,,https://www.redfin.com/SC/Bluffton/335-Corley-St-29910/home/118705378,RSMLS,429842,N,Y,32.1783469,-80.8957331
MLS Listing,,Single Family Residential,129 Flagstaff Ln,Ridgeland,SC,29936,398560,3,2.5,HEARTHSTONE LAKES,2748,9147,2022,1,145,67,Active,,,https://www.redfin.com/SC/READING/129-FLAGSTAFF-LN-29936/home/178283910,RSMLS,431238,N,Y,32.347789,-80.942685
MLS Listing,,Single Family Residential,7 River Birch Pl,Bluffton,SC,29910,525000,3,2.5,V/RIVER,1858,7409,1996,1,283,208,Active,,,https://www.redfin.com/SC/Bluffton/7-River-Birch-Pl-29910/home/117651747,RSMLS,430663,N,Y,32.2699024,-80.8925278
MLS Listing,,Single Family Residential,3 Meadowlawn Ln,Bluffton,SC,29910,719000,4,3.5,BAYNARD PARK,3150,16988,2006,1,228,148,Active,,,https://www.redfin.com/SC/Bluffton/3-Meadowlawn-Ln-29910/home/117941028,RSMLS,430039,N,Y,32.2761532,-80.9334315
MLS Listing,,Single Family Residential,211 Summertime Pl,Hardeeville,SC,29927,734000,3,2.0,LATITUDE MARGARITAVILLE,1862,6098,2019,1,394,300,Active,,,https://www.redfin.com/SC/HARDEEVILLE/211-SUMMERTIME-PL-29927/home/169830873,RSMLS,429570,N,Y,32.30185,-81.016842
MLS Listing,,Single Family Residential,2731 Satilla Blvd,Beaufort,SC,29902,649900,4,3.5,OVERLOOK AT BATTERY CREEK S/D,2521,5227,2007,1,258,83,Active,,,https://www.redfin.com/SC/Beaufort/2731-Satilla-Blvd-29902/home/117001794,RSMLS,430014,N,Y,32.4109174,-80.7173487
MLS Listing,,Vacant Land,0 Anderson Ln,Beaufort,SC,29906,210000,,,SEC 15 1S2W,,306052,,1,,,Active,,,https://www.redfin.com/SC/Beaufort/0-Anderson-Ln-29906/home/179906144,RSMLS,417629,N,Y,32.40968,-80.7484631
MLS Listing,,Single Family Residential,77 Purdy St,Ridgeland,SC,29936,498000,3,2.5,RIDGELAND,2538,31363,1975,1,196,,Active,,,https://www.redfin.com/SC/Ridgeland/77-Purdy-St-29936/home/85834521,RSMLS,429611,N,Y,32.4726948,-80.9832653
MLS Listing,,Single Family Residential,12 Lancaster Blvd,Bluffton,SC,29909,2795000,5,7.0,BERKELEY HALL I & II,6748,38332,2006,1,414,1885,Active,,,https://www.redfin.com/SC/Bluffton/12-Lancaster-Blvd-29909/home/117107056,RSMLS,431042,N,Y,32.2927251,-80.9098424
MLS Listing,,Single Family Residential,592 Margaritaville Ave S,Hardeeville,SC,29927,749900,3,3.0,LATITUDE MARGARITAVILLE,2492,7840,2021,1,301,253,Active,,,https://www.redfin.com/SC/Hardeeville/592-Margaritaville-Ave-29927/home/172688004,RSMLS,430201,N,Y,32.279942,-81.011004
MLS Listing,,Vacant Land,341 Hampton Pkwy,Bluffton,SC,29910,179000,,,TOWN OF BLUFFTON,,441132,,1,,,Active,,,https://www.redfin.com/SC/Bluffton/341-Hampton-Pkwy-29910/home/182493374,RSMLS,429996,N,Y,32.2790143,-80.9274645
MLS Listing,,Vacant Land,30 Cooler Rd,Okatie,SC,29909,340000,,,OLD BAILEYS RD,,120661,,1,,,Active,,,https://www.redfin.com/SC/Okatie/30-Cooler-Rd-29909/home/116889928,RSMLS,429964,N,Y,32.343213,-80.881589
MLS Listing,,Condo/Co-op,100 Colonnade Rd #147,Hilton Head Island,SC,29928,499500,2,2.0,COLONNADE CLUB VILLAS,1270,,1986,1,393,648,Active,,,https://www.redfin.com/SC/Hilton-Head-Island/100-Colonnade-Clb-29928/unit-147/home/116885246,RSMLS,426069,N,Y,32.1596283,-80.7365674
MLS Listing,,Single Family Residential,1 Seaside Sparrow Rd,Hilton Head Island,SC,29928,3999000,7,7.0,SEASIDE SPARROW,5264,17297,1974,1,760,96,Active,,,https://www.redfin.com/SC/Hilton-Head-Island/1-Seaside-Sparrow-Rd-29928/home/117597866,RSMLS,429147,N,Y,32.1120963,-80.8119347
MLS Listing,,Single Family Residential,247 Hulston Landing Rd,Bluffton,SC,29909,537500,4,3.5,MILL CREEK AT CYPRESS RIDGE,3181,8276,2017,1,169,113,Active,December-18-2022 02:00 PM,December-18-2022 04:00 PM,https://www.redfin.com/SC/Bluffton/247-Hulston-Landing-Rd-29909/home/120700216,RSMLS,431003,N,Y,32.2545453,-80.9772861
MLS Listing,,Vacant Land,7 Island Creek Ct,Okatie,SC,29909,49900,,,CALLAWASSIE ISLAND,,18983,,1,,190,Active,,,https://www.redfin.com/SC/Okatie/7-Island-Creek-Ct-29909/home/116675970,RSMLS,428873,N,Y,32.329311,-80.840439
MLS Listing,,Vacant Land,2422 Hermitage Rd,Beaufort,SC,29902,268500,,,HUNDRED PINES S/D,,26571,,1,,,Active,,,https://www.redfin.com/SC/Beaufort/2422-Hermitage-Rd-29902/home/117502302,RSMLS,422831,N,Y,32.425536,-80.6920929
MLS Listing,,Vacant Land,207 Goethe Rd,Bluffton,SC,29910,500000,,,MAY RIVER RD,,6534,,1,,65,Active,,,https://www.redfin.com/SC/Bluffton/207-Goethe-Rd-29910/home/167904226,RSMLS,424979,N,Y,32.2391192,-80.862708
MLS Listing,,Single Family Residential,304 Cool Breeze Dr,Hardeeville,SC,29927,750000,2,2.5,LATITUDE MARGARITAVILLE,2110,7840,2019,1,355,253,Active,,,https://www.redfin.com/SC/Hardeeville/304-Cool-Breeze-Dr-29927/home/172688037,RSMLS,430000,N,Y,32.280159,-81.012299
MLS Listing,,Single Family Residential,396 Sanctuary St,Hardeeville,SC,29927,359490,3,2.0,ARGENT,1618,6534,2022,1,222,109,Active,,,https://www.redfin.com/SC/Hardeeville/396-Sanctuary-ST-29927/home/182915297,RSMLS,430859,N,Y,32.2425929,-81.0533854
MLS Listing,,Vacant Land,3892 Okatie Hwy,Okatie,SC,29909,399000,,,GARVEY HALL PLANTATION,,142005,,1,,,Active,,,https://www.redfin.com/SC/Bluffton/3892-Okatie-Hwy-29909/home/179902568,RSMLS,431045,N,Y,32.2402818,-81.0147417
MLS Listing,,Vacant Land,160 Delta Estates Rd,Hardeeville,SC,29927,100000,,,HARDEEVILLE,,39204,,1,,,Active,,,https://www.redfin.com/SC/Hardeeville/160-Delta-Estates-Rd-29927/home/85827323,RSMLS,424223,N,Y,32.168302,-81.040858
MLS Listing,,Vacant Land,18 N Breeze Is,Beaufort,SC,29907,2200000,,,NORTH BREEZE ISLAND S/D STUART POINT,,40946,,1,,,Active,,,https://www.redfin.com/SC/Beaufort/18-N-Breeze-Is-29907/home/118073170,RSMLS,417170,N,Y,32.406806,-80.6450179
MLS Listing,,Single Family Residential,221 Wiregrass Way,Hardeeville,SC,29927,745000,4,3.5,HILTON HEAD LAKES/TRADITION,2585,18295,2013,1,288,203,Active,,,https://www.redfin.com/SC/Hardeeville/221-Wiregrass-Way-29927/home/85831703,RSMLS,431337,N,Y,32.3155955,-81.0151714
MLS Listing,,Vacant Land,34 Hawthorne Rd,Bluffton,SC,29910,125000,,,COLLETON,,19166,,1,,1964,Active,,,https://www.redfin.com/SC/Bluffton/34-Hawthorne-Rd-29910/home/117670380,RSMLS,428996,N,Y,32.28583,-80.805105
MLS Listing,,Single Family Residential,1 Blackberry Rdg,Okatie,SC,29909,3100000,4,5.0,BLACKBERRY RIDGE,5141,207345,1997,1,603,59509893,Active,,,https://www.redfin.com/SC/Okatie/1-Blackberry-Rdg-29909/home/117227440,RSMLS,427900,N,Y,32.331404,-80.827969
MLS Listing,,Vacant Land,56 Sandcastle Ct,Hilton Head Island,SC,29928,450000,,,SANDCASTLES BY THE SEA,,3484,,1,,75,Active,,,https://www.redfin.com/SC/Hilton-Head-Island/56-Sandcastle-Ct-29928/home/116657083,RSMLS,431024,N,Y,32.2009235,-80.6962903
MLS Listing,,Vacant Land,9 Hunting Ct,Bluffton,SC,29910,16500,,,BELFAIR,,10890,,1,,1598,Active,,,https://www.redfin.com/SC/Bluffton/9-Hunting-Ct-29910/home/117934077,RSMLS,430934,N,Y,32.278851,-80.849526
MLS Listing,,Single Family Residential,34 Minuteman Dr,Bluffton,SC,29910,2500000,4,4.5,MARTINS PLACE,5500,12989,2007,1,455,67,Active,,,https://www.redfin.com/SC/Bluffton/34-Minuteman-Dr-29910/home/117562116,RSMLS,430597,N,Y,32.2284065,-80.8592059
MLS Listing,,Single Family Residential,6 Trout Hole Rd,Bluffton,SC,29910,2395000,2,2.0,PALMETTO BLUFF,1076,64904,2011,1,2226,784,Active,,,https://www.redfin.com/SC/Bluffton/6-Trout-Hole-Rd-29910/home/117704852,RSMLS,430448,N,Y,32.2211844,-80.8911519
MLS Listing,,Vacant Land,67 Trout Hole Rd,Bluffton,SC,29910,3275000,,,PALMETTO BLUFF,,56192,,1,,784,Active,,,https://www.redfin.com/SC/Bluffton/67-Trout-Hole-Rd-29910/home/116974126,RSMLS,430003,N,Y,32.224333,-80.89224
MLS Listing,,Single Family Residential,24 Damascus Rd,Bluffton,SC,29910,2285000,5,5.0,PALMETTO BLUFF,3136,7274,2022,1,729,784,Active,,,https://www.redfin.com/SC/Bluffton/24-Damascus-Rd-29910/home/171239342,RSMLS,431091,N,Y,32.186139,-80.896236
MLS Listing,,Vacant Land,81 Fuskie Ln,Daufuskie Island,SC,29915,695000,,,DAUFUSKIE ISLAND CLUB,,81892,,1,,96,Active,,,https://www.redfin.com/SC/Daufuskie-Island/81-Fuskie-Ln-29915/home/118153309,RSMLS,429690,N,Y,32.083256,-80.873571
MLS Listing,,Single Family Residential,304 Good Hope Rd,Okatie,SC,29909,2095000,4,4.5,BERKELEY HALL I & II,3821,24393,2022,1,548,1885,Active,,,https://www.redfin.com/SC/Okatie/304-Good-Hope-Rd-29909/home/118140552,RSMLS,423413,N,Y,32.307587,-80.901196
MLS Listing,,Vacant Land,35 Martinangel Ln,Daufuskie Island,SC,29915,45000,,,MELROSE,,33048,,1,,67,Active,,,https://www.redfin.com/SC/Daufuskie-Island/35-Martinangel-Ln-29915/home/116867706,RSMLS,427898,N,Y,32.107394,-80.860373
MLS Listing,,Vacant Land,12 Money Mongin Ln,Daufuskie Island,SC,29915,25000,,,MELROSE,,17236,,1,,67,Active,,,https://www.redfin.com/SC/Daufuskie-Island/12-Money-Mongin-Ln-29915/home/116901197,RSMLS,429788,N,Y,32.107085,-80.858345
MLS Listing,,Single Family Residential,34 Thomas Heyward St,Bluffton,SC,29910,2000000,3,1.0,BLUFFTON PARK,1200,90169,1950,1,1667,,Active,,,https://www.redfin.com/SC/Bluffton/34-Thomas-Heyward-St-29910/home/117757938,RSMLS,430046,N,Y,32.2350165,-80.8695223
MLS Listing,,Single Family Residential,28 Myrtle Island Cir,Bluffton,SC,29910,4595000,3,2.0,MYRTLE ISLAND,1716,99752,1953,1,2678,8,Active,,,https://www.redfin.com/SC/Bluffton/28-Myrtle-Island-Cir-29910/home/116585085,RSMLS,427257,N,Y,32.211326,-80.870605
MLS Listing,,Single Family Residential,7 Plymouth Ln,Bluffton,SC,29909,469500,2,2.0,HAMPTON VILLAGE,2166,8712,2000,1,217,196,Active,,,https://www.redfin.com/SC/Bluffton/7-Plymouth-Ln-29909/home/117326028,RSMLS,428945,N,Y,32.2861574,-80.9735947
MLS Listing,,Single Family Residential,39 Callisto Rd,Bluffton,SC,29909,389900,2,2.0,ORION PLACE,1438,5227,2006,1,271,196,Active,,,https://www.redfin.com/SC/Bluffton/39-Callisto-Rd-29909/home/116972517,RSMLS,431312,N,Y,32.2652387,-80.9661682
MLS Listing,,Timeshare,14 Wimbledon Court Ct Unit 808-3,Hilton Head Island,SC,29928,36000,2,2.0,OCEAN PALMS VILLA SH,,,1994,1,,,Active,,,https://www.redfin.com/SC/Hilton-Head-Island/14-Wimbledon-Ct-29928/unit-808-3/home/180180725,RSMLS,427495,N,Y,32.2084803,-80.6861194
MLS Listing,,Single Family Residential,25 Honeycup Rd,Bluffton,SC,29909,615990,3,3.0,FOUR SEASONS,2179,,2022,1,283,200,Active,,,https://www.redfin.com/SC/Bluffton/25-Honeycup-Rd-29909/home/183168036,RSMLS,430951,N,Y,32.25045,-80.98506
MLS Listing,,Single Family Residential,32 Toppin Dr,Hilton Head Island,SC,29926,579000,3,3.0,MOSS CREEK,1952,6111,1996,1,297,555,Active,,,https://www.redfin.com/SC/Hilton-Head-Island/32-Toppin-Dr-29926/home/117439634,RSMLS,430777,N,Y,32.2606656,-80.8092511
MLS Listing,,Single Family Residential,30 Oleander St,Hilton Head Island,SC,29928,849000,3,2.0,HOLIDAY HOMES,1302,9857,1967,1,652,10,Active,,,https://www.redfin.com/SC/Hilton-Head-Island/30-Oleander-St-29928/home/116713147,RSMLS,429678,N,Y,32.2038709,-80.6963822
MLS Listing,,Vacant Land,3 Shellfish Ln,Okatie,SC,29909,39000,,,CALLAWASSIE ISLAND,,28902,,1,,84,Active,,,https://www.redfin.com/SC/Okatie/3-Shellfish-Ln-29909/home/116836338,RSMLS,427337,N,Y,32.316981,-80.855317
MLS Listing,,Timeshare,14 Wimbledon Court # 402 Unit 402-5,Hilton Head Island,SC,29928,40000,2,2.0,OCEAN PALMS VILLA SH,,,1990,1,,,Active,,,https://www.redfin.com/SC/Hilton-Head-Island/14-Wimbledon-Ct-29928/unit-402-5/home/180784541,RSMLS,428464,N,Y,32.2084803,-80.6861194
MLS Listing,,Vacant Land,1 Bolden Rd,Bluffton,SC,29910,1725000,,,MAY RIVER RD,,1001880,,1,,,Active,,,https://www.redfin.com/SC/Bluffton/1-Bolden-Dr-29910/home/179901609,RSMLS,410984,N,Y,32.2307681,-80.9176898
MLS Listing,,Single Family Residential,22 Audubon Pond Rd,Hilton Head Island,SC,29928,2065000,3,3.0,AUDUBON POND,2365,19806,1973,1,873,96,Active,,,https://www.redfin.com/SC/Hilton-Head-Island/22-Audubon-Pond-Rd-29928/home/118067557,RSMLS,427680,N,Y,32.1176519,-80.8137938
MLS Listing,,Single Family Residential,5 Middle Island St,Beaufort,SC,29907,597500,3,2.5,CAMELLIA BANKS,2061,5662,2022,1,290,142,Active,,,https://www.redfin.com/SC/Lady-s-Island/5-Middle-Island-ST-29907/home/181099095,RSMLS,430510,N,Y,32.418367,-80.642057
MLS Listing,,Single Family Residential,1582 Hearthstone Lake Dr,Ridgeland,SC,29936,395000,3,2.0,HEARTHSTONE LAKES,1855,7405,2021,1,213,67,Active,,,https://www.redfin.com/SC/Ridgeland/61-Monument-St-29936/home/173976518,RSMLS,431158,N,Y,32.4808198,-80.9804462
MLS Listing,,Single Family Residential,480 S Logan St,Ridgeland,SC,29936,499000,3,2.0,RIDGELAND,2240,507909,1986,1,223,,Active,,,https://www.redfin.com/SC/Ridgeland/480-Logan-St-29936/home/85835002,RSMLS,428629,N,Y,32.4767838,-80.9774462
MLS Listing,,Single Family Residential,1033 Grays Hwy,Ridgeland,SC,29936,379900,3,3.0,RIDGELAND,1768,29620,1963,1,215,,Active,,,https://www.redfin.com/SC/Ridgeland/1033-Grays-Hwy-29936/home/182757087,RSMLS,430652,N,Y,32.4918792,-80.9866937
MLS Listing,,Single Family Residential,20 Orion Pl,Bluffton,SC,29909,469500,2,2.0,ORION PLACE,1804,4791,2006,1,260,196,Active,,,https://www.redfin.com/SC/Bluffton/20-Orion-Pl-29909/home/117872354,RSMLS,430802,N,Y,32.2661937,-80.9669238
MLS Listing,,Vacant Land,178B Goethe Rd,Bluffton,SC,29910,225000,,,TOWN OF BLUFFTON,,16030,,1,,,Active,,,https://www.redfin.com/SC/Bluffton/178-Goethe-Rd-29910/home/117345560,RSMLS,428776,N,Y,32.242101,-80.862973
MLS Listing,,Townhouse,81 Regent Ave,Bluffton,SC,29910,349900,3,2.5,WESTBURY PARK,1748,2178,2002,1,200,147,Active,,,https://www.redfin.com/SC/Bluffton/81-Regent-Ave-29910/home/116917739,RSMLS,429098,N,Y,32.268926,-80.8702969
MLS Listing,,Single Family Residential,6 Sagebrook Dr,Bluffton,SC,29910,342500,3,2.0,WILLOWS,1420,6969,2005,1,241,65,Active,,,https://www.redfin.com/SC/Bluffton/6-Sagebrook-Dr-29910/home/117329173,RSMLS,430856,N,Y,32.2603795,-80.9242732
MLS Listing,,Vacant Land,29 Victory Point Dr,Bluffton,SC,29910,135000,,,THE CRESCENT,,13068,,1,,176,Active,,,https://www.redfin.com/SC/Bluffton/29-Victory-Point-Dr-29910/home/117607858,RSMLS,426064,N,Y,32.266878,-80.846125
MLS Listing,,Single Family Residential,1 Nightshade Ln,Bluffton,SC,29909,1295000,4,4.0,OLDFIELD,3186,11761,2019,1,406,798,Active,,,https://www.redfin.com/SC/Bluffton/1-Nightshade-Ln-29909/home/117873600,RSMLS,431107,N,Y,32.3488998,-80.9130398
MLS Listing,,Single Family Residential,31 Rose Dhu Creek Plantation Dr,Bluffton,SC,29910,2150000,3,3.5,ROSE DHU,4156,129926,2022,1,517,154,Active,,,https://www.redfin.com/SC/Bluffton/31-Rose-Dhu-Creek-Plantation-Dr-29910/home/117985509,RSMLS,431195,N,Y,32.236665,-80.92427
MLS Listing,,Single Family Residential,79 Milden Hall Dr,Ridgeland,SC,29936,265000,3,1.0,MILDEN HALL,1162,30056,1970,1,228,,Active,,,https://www.redfin.com/SC/Ridgeland/79-Milden-Hall-Dr-29936/home/144461177,RSMLS,431335,N,Y,32.4331738,-80.9774587
MLS Listing,,Single Family Residential,13 Sea Ln,Hilton Head Island,SC,29928,2249000,5,5.0,TA/P1/BB,3282,22503,1993,1,685,150,Active,,,https://www.redfin.com/SC/Hilton-Head-Island/13-Sea-Ln-29928/home/116733970,RSMLS,429222,N,Y,32.1771586,-80.71436
MLS Listing,,Condo/Co-op,663 William Hilton Pkwy #3405,Hilton Head Island,SC,29928,330000,2,2.0,HH RESORT/FOUR SEASONS,831,,1982,1,397,480,Active,December-18-2022 01:00 PM,December-18-2022 04:00 PM,https://www.redfin.com/SC/Hilton-Head-Island/663-William-Hilton-Pkwy-29928/unit-3405/home/117437150,RSMLS,430494,N,Y,32.191201,-80.707908
MLS Listing,,Vacant Land,14 River Dr,Beaufort,SC,29907,174999,,,RED BLUFF,,21780,,1,,,Active,,,https://www.redfin.com/SC/Beaufort/14-River-Dr-29907/home/118154603,RSMLS,424540,N,Y,32.4318939,-80.6290711
MLS Listing,,Condo/Co-op,40 Folly Field Rd Unit A146,Hilton Head Island,SC,29928,330000,1,1.0,HHBT OCEAN VILLAS,540,,1980,1,611,495,Active,,,https://www.redfin.com/SC/Hilton-Head-Island/40-Folly-Field-Rd-29928/unit-A146/home/117852765,RSMLS,427830,N,Y,32.2010472,-80.691768
MLS Listing,,Condo/Co-op,35 Summerfield Ct #221,Hilton Head Island,SC,29926,435000,3,3.0,SUMMERFIELD VILLAS,1430,,2003,1,304,448,Active,,,https://www.redfin.com/SC/Hilton-Head-Island/35-Summerfield-Ct-29926/unit-221/home/179904462,RSMLS,424956,N,Y,32.2067311,-80.7455882
MLS Listing,,Single Family Residential,1059 S Innovation Dr,Bluffton,SC,29910,499000,5,3.0,THE RETREAT AT GRANDE OAKS,2378,6838,2021,1,210,83,Active,,,https://www.redfin.com/SC/Bluffton/1059-S-Innovation-Dr-29910/home/175202177,RSMLS,429276,N,Y,32.2637507,-80.9201473
MLS Listing,,Single Family Residential,13 Sandcastle Ct,Hilton Head Island,SC,29928,1990000,6,4.0,SANDCASTLES BY THE SEA,3246,3484,2019,1,613,75,Active,,,https://www.redfin.com/SC/Hilton-Head-Island/13-Sandcastle-Ct-29928/home/117948684,RSMLS,430411,N,Y,32.202212,-80.695374
MLS Listing,,Condo/Co-op,10 Lemoyne Ave #209,Hilton Head Island,SC,29928,665000,3,3.0,OCEAN WALK VILLAS,1570,,1981,1,424,,Active,,,https://www.redfin.com/SC/Hilton-Head-Island/10-Lemoyne-Ave-29928/unit-209/home/117098774,RSMLS,429681,N,Y,32.1408274,-80.7604934
MLS Listing,,Single Family Residential,85 Glencairn Ave,Bluffton,SC,29910,609900,3,2.5,HAMPTON HALL,1985,11761,2006,1,307,393,Active,,,https://www.redfin.com/SC/Bluffton/85-Glencairn-Ave-29910/home/117806184,RSMLS,425988,N,Y,32.2365353,-80.9199312
MLS Listing,,Single Family Residential,25 S Live Oak Rd,Hilton Head Island,SC,29928,1800000,4,4.0,LIVE OAK,2657,19850,1966,1,677,96,Active,,,https://www.redfin.com/SC/Hilton-Head-Island/25-S-Live-Oak-Rd-29928/home/117559884,RSMLS,426112,N,Y,32.1297904,-80.7851959
MLS Listing,,Vacant Land,999 Cherry Hill Rd,Ridgeland,SC,29936,199000,,,JASPER,,217800,,1,,,Active,,,https://www.redfin.com/SC/Ridgeland/999-Cherry-Hill-Rd-29936/home/182989035,RSMLS,430959,N,Y,32.4466094,-80.9177138
MLS Listing,,Single Family Residential,51 S Forest Beach Dr,Hilton Head Island,SC,29928,3900,2,2.0,MARRIOTT GRANDE OCEAN VILLA SH,,,,1,,,Active,,,https://www.redfin.com/SC/Hilton-Head-Island/51-S-Forest-Beach-Dr-29928/home/118180317,RSMLS,422809,N,Y,32.1369369,-80.7619816
MLS Listing,,Single Family Residential,775 Marlin Dr,Fripp Island,SC,29920,2250000,6,6.0,FRIPP ISLAND,3414,22638,1982,1,659,88,Active,,,https://www.redfin.com/SC/Fripp-Island/775-Marlin-Dr-29920/home/117852309,RSMLS,424754,N,Y,32.320198,-80.4629409
MLS Listing,,Condo/Co-op,Brittany Place Dr #25,Hilton Head Island,SC,29928,519000,3,2.0,BRITTANY PLACE,1300,,2000,1,399,495,Active,,,https://www.redfin.com/SC/Hilton-Head-Island/25-Brittany-Place-Dr-29928/unit-25/home/179902386,RSMLS,430862,N,Y,32.1785364,-80.731652
MLS Listing,,Townhouse,26 Sedgewick Ave,Bluffton,SC,29910,675000,3,2.5,HAMPTON HALL,3180,5662,2006,1,212,393,Active,,,https://www.redfin.com/SC/Bluffton/26-Sedgewick-Ave-29910/home/117812598,RSMLS,431174,N,Y,32.2422563,-80.9224803
MLS Listing,,Condo/Co-op,10 N Forest Beach Dr #1301,Hilton Head Island,SC,29928,1499000,3,3.0,THE SEA CREST VILLAS,1828,,1998,1,820,959,Active,,,https://www.redfin.com/SC/Hilton-Head-Island/10-N-Forest-Beach-Dr-29928/unit-1301/home/117232360,RSMLS,430287,N,Y,32.1425944,-80.7491421
MLS Listing,,Vacant Land,2006 Berkeley Cir,Port Royal,SC,29935,430000,,,PORT ROYAL,,16988,,1,,,Active,,,https://www.redfin.com/SC/Port-Royal/2006-Berkeley-Cir-29935/home/116991485,RSMLS,429150,N,Y,32.38232,-80.70359
MLS Listing,,Single Family Residential,43 Dune Ln,Hilton Head Island,SC,29928,5500000,7,8.5,HHBS 1,6884,9604,2006,1,799,8,Active,,,https://www.redfin.com/SC/Hilton-Head-Island/43-Dune-Ln-29928/home/116991113,RSMLS,427630,N,Y,32.1449026,-80.743809
MLS Listing,,Vacant Land,731 Eddings Point Rd,Saint Helena Island,SC,29920,500000,,,EDDINGS POINT PLANTATION,,399009,,1,,,Active,,,https://www.redfin.com/SC/St-Helena-Island/731-Eddings-Point-Rd-29920/home/174356599,RSMLS,427978,N,Y,32.449497,-80.537932
MLS Listing,,Condo/Co-op,300 Woodhaven Dr #1301,Hilton Head Island,SC,29928,115000,2,2.0,THE SEABROOK,1400,,1982,1,82,3612,Active,,,https://www.redfin.com/SC/Hilton-Head-Island/300-Woodhaven-Dr-29928/unit-1301/home/116876707,RSMLS,428214,N,Y,32.1495203,-80.7624178
MLS Listing,,Single Family Residential,22 Bartons Run Dr,Bluffton,SC,29910,1840000,5,5.5,BARTONS RUN,5105,70567,2022,1,360,133,Active,,,https://www.redfin.com/SC/Bluffton/22-Bartons-Run-Dr-29910/home/117254865,RSMLS,427596,N,Y,32.236818,-80.90933
