SALE TYPE,SOLD DATE,PROPERTY TYPE,ADDRESS,CITY,STATE OR PROVINCE,ZIP OR POSTAL CODE,PRICE,BEDS,BATHS,LOCATION,SQUARE FEET,LOT SIZE,YEAR BUILT,DAYS ON MARKET,$/SQUARE FEET,HOA/MONTH,STATUS,NEXT OPEN HOUSE START TIME,NEXT OPEN HOUSE END TIME,URL (SEE https://www.redfin.com/buy-a-home/comparative-market-analysis FOR INFO ON PRICING),SOURCE,MLS#,FAVORITE,INTERESTED,LATITUDE,LONGITUDE
MLS Listing,,Vacant Land,LOT 1 Tanager Cv,Dublin,VA,24084,225000,,,Dublin,,60984,,1,,42,Active,,,https://www.redfin.com/VA/Dublin/LOT-1-Tanager-CV-24084/home/179810466,MLSRV,890263,N,Y,37.081252,-80.616023
MLS Listing,,Single Family Residential,728 Indian Creek Rd NW,Willis,VA,24380,165000,3,2.0,Willis,1200,182952,1978,1,138,,Active,,,https://www.redfin.com/VA/Willis/728-Indian-Creek-Rd-NW-24380/home/101564515,MLSRV,892392,N,Y,36.9272049,-80.5489016
MLS Listing,,Single Family Residential,4614 Worrells Way,Dublin,VA,24084,389900,4,2.5,Dublin,2070,22215,2022,1,188,25,Active,,,https://www.redfin.com/VA/Dublin/4614-Worrells-WAY-24084/home/179049658,MLSRV,893950,N,Y,37.092890604313,-80.735017653656
MLS Listing,,Vacant Land,5231 Country Meadow Dr,Dublin,VA,24084,82750,,,Dublin,,22215,,1,,25,Active,,,https://www.redfin.com/VA/Unknown/5231-Meadow-Way-24084/home/182755638,MLSRV,894313,N,Y,37.088898,-80.72977
MLS Listing,,Single Family Residential,5335 Old Pagelyn Rd,Radford,VA,24141,149000,3,2.0,Radford,1200,43560,1861,1,124,,Active,,,https://www.redfin.com/VA/Radford/5335-Old-Pagelyn-Rd-24141/home/129424393,MLSRV,890522,N,Y,37.043415,-80.5624856
MLS Listing,,Vacant Land,LOT 6 Tanager Cv,Dublin,VA,24084,325000,,,Dublin,,95832,,1,,42,Active,,,https://www.redfin.com/VA/Dublin/LOT-6-6th-St-24084/home/179810935,MLSRV,890272,N,Y,37.081485,-80.615644
MLS Listing,,Mobile/Manufactured Home,1027 Hylton Rd NW,Indian Valley,VA,24105,420000,6,5.0,Indian Valley,3348,121096,2000,1,125,,Active,,,https://www.redfin.com/VA/Indian-Valley/1027-Hylton-Rd-NW-24105/home/101564682,MLSRV,894108,N,Y,36.891236,-80.559361
MLS Listing,,Vacant Land,0 Macks Mountain Rd,Hiwassee,VA,24347,2788800,,,Hiwassee,,,,1,,,Active,,,https://www.redfin.com/VA/Hiwassee/0-Macks-Mountain-RD-24347/home/181481075,MLSRV,892737,N,Y,36.918823,-80.667726
MLS Listing,,Vacant Land,LOT 8 Tanager Cv,Dublin,VA,24084,250000,,,Dublin,,69260,,1,,42,Active,,,https://www.redfin.com/VA/Dublin/LOT-8-Tanager-CV-24084/home/179811238,MLSRV,890277,N,Y,37.080775,-80.61631
MLS Listing,,Vacant Land,LOT 9 Tanager Cv,Dublin,VA,24084,275000,,,Dublin,,58806,,1,,42,Active,,,https://www.redfin.com/VA/Dublin/LOT-9-Tanager-CV-24084/home/179811267,MLSRV,890278,N,Y,37.08129,-80.615537
MLS Listing,,Mobile/Manufactured Home,67 Knob Hill Ln,Woodlawn,VA,24381,189000,3,2.0,Woodlawn,1568,94960,2021,1,121,,Active,,,https://www.redfin.com/VA/Woodlawn/67-Knob-Hill-Ln-24381/home/182046138,MLSRV,893623,N,Y,36.7917892,-80.8628328
MLS Listing,,Vacant Land,LOT 10 Tanager Cv,Dublin,VA,24084,275000,,,Dublin,,67518,,1,,42,Active,,,https://www.redfin.com/VA/Dublin/LOT-10-Tanager-CV-24084/home/179811329,MLSRV,890279,N,Y,37.08096,-80.61606
MLS Listing,,Single Family Residential,188 Reed Ln NW,Willis,VA,24380,229000,2,2.0,Willis,1214,107157,1980,1,189,,Active,,,https://www.redfin.com/VA/Willis/188-Reed-Ln-NW-24380/home/101570627,MLSRV,894074,N,Y,36.8662852,-80.487594
MLS Listing,,Vacant Land,LOT 14 Tanager Cv,Dublin,VA,24084,225000,,,Dublin,,61855,,1,,42,Active,,,https://www.redfin.com/VA/Dublin/LOT-14-Tanager-CV-24084/home/179811450,MLSRV,890282,N,Y,37.081131,-80.616146
MLS Listing,,Vacant Land,6200 Little River Dam Rd,Hiwassee,VA,24347,369000,,,Hiwassee,,3204273,,1,,,Active,,,https://www.redfin.com/VA/Hiwassee/6200-Little-River-Dam-Rd-24347/home/180700086,MLSRV,891694,N,Y,37.024293,-80.618957
MLS Listing,,Vacant Land,TBA Reece Rd SW,Willis,VA,24380,137400,,,Willis,,595029,,1,,,Active,,,https://www.redfin.com/VA/Unknown/TBA-Reece-Rd-SW-24380/home/182341135,MLSRV,892573,N,Y,36.839921,-80.55217
MLS Listing,,Single Family Residential,4271 Little Irish Rd,Hiwassee,VA,24347,198000,3,4.0,Hiwassee,2025,46609,1920,1,98,,Active,,,https://www.redfin.com/VA/Hiwassee/4271-State-Road-675-24347/home/179024493,MLSRV,892758,N,Y,36.969174,-80.712907
MLS Listing,,Vacant Land,LOT 13 Tanager Cv,Dublin,VA,24084,225000,,,Dublin,,89298,,1,,42,Active,,,https://www.redfin.com/VA/Dublin/LOT-13-Tanager-CV-24084/home/179811414,MLSRV,890281,N,Y,37.081329,-80.615695
MLS Listing,,Vacant Land,LOT 3 Tanager Cv,Dublin,VA,24084,275000,,,Dublin,,60984,,1,,42,Active,,,https://www.redfin.com/VA/Dublin/LOT-3-3rd-St-24084/home/179810784,MLSRV,890266,N,Y,37.0809,-80.615679
MLS Listing,,Single Family Residential,146 Mitchells Xrd,Hillsville,VA,24343,369000,4,3.0,Hillsville,3122,49658,2007,1,118,,Active,,,https://www.redfin.com/VA/HILLSVILLE/146-MITCHELLS-XRD-24343/home/68298426,MLSRV,893274,N,Y,36.837409,-80.722607
MLS Listing,,Single Family Residential,915 Valley Rd,Pulaski,VA,24301,79750,1,1.0,Pulaski,686,79279,1940,1,116,,Active,,,https://www.redfin.com/VA/Pulaski/915-Valley-Rd-24301/home/101534374,MLSRV,891992,N,Y,37.037295,-80.787334
MLS Listing,,Single Family Residential,197 Rock Church Rd SW,Willis,VA,24380,149500,2,1.0,Willis,1454,294030,1935,1,103,,Active,,,https://www.redfin.com/VA/Willis/197-Rock-Church-Rd-SW-24380/home/101565164,MLSRV,894625,N,Y,36.7873585,-80.5157351
MLS Listing,,Vacant Land,0 Cardinal Dr,Pulaski,VA,24301,24000,,,Pulaski,,104544,,1,,,Active,,,https://www.redfin.com/VA/Pulaski/Cardinal-Dr-24301/home/179025526,MLSRV,890233,N,Y,37.059228,-80.771698
MLS Listing,,Mobile/Manufactured Home,81 Bertha St,Pulaski,VA,24301,119900,3,2.0,Pulaski,1188,10018,2006,1,101,,Active,,,https://www.redfin.com/VA/Pulaski/81-Bertha-St-24301/home/101549198,MLSRV,894561,N,Y,37.0446913,-80.790153
MLS Listing,,Single Family Residential,3660 Bill St,Pulaski,VA,24301,174900,3,1.0,Pulaski,1536,52272,1965,1,114,,Active,,,https://www.redfin.com/VA/Pulaski/3660-Bill-St-24301/home/101542640,MLSRV,891055,N,Y,37.0799379,-80.7716691
MLS Listing,,Single Family Residential,4625 Worrells Way,Dublin,VA,24084,409900,4,2.5,Dublin,2176,22651,2022,1,188,25,Active,,,https://www.redfin.com/VA/Dublin/4625-Worrells-WAY-24084/home/179019980,MLSRV,894490,N,Y,37.093441,-80.731463
MLS Listing,,Vacant Land,5319 Country Mdw,Dublin,VA,24084,69750,,,Dublin,,21780,,1,,25,Active,,,https://www.redfin.com/VA/Unknown/5319-Meadow-Way-24084/home/182755431,MLSRV,894339,N,Y,37.093743,-80.732313
MLS Listing,,Vacant Land,5310 Country Meadow Dr,Dublin,VA,24084,62750,,,Dublin,,21780,,1,,25,Active,,,https://www.redfin.com/VA/Unknown/5310-Meadow-Way-24084/home/182756123,MLSRV,894314,N,Y,37.089321,-80.731166
MLS Listing,,Single Family Residential,4606 Worrells Way,Dublin,VA,24084,392750,3,2.5,Dublin,1747,21780,2022,1,225,25,Active,,,https://www.redfin.com/VA/Dublin/4606-Worrells-WAY-24084/home/179049979,MLSRV,893669,N,Y,37.086540339231,-80.7310265266418
MLS Listing,,Single Family Residential,642 5th St NE,Pulaski,VA,24301,125000,5,1.0,Pulaski,1458,8712,1933,1,86,,Active,,,https://www.redfin.com/VA/Pulaski/642-5th-St-NE-24301/home/101534271,MLSRV,892709,N,Y,37.0507958,-80.7683993
MLS Listing,,Vacant Land,0 Rock Creek Rd,Pulaski,VA,24301,720500,,,Pulaski,,,,1,,,Active,,,https://www.redfin.com/VA/Pulaski/Rock-Creek-RD-24301/home/181481534,MLSRV,892741,N,Y,37.0478982,-80.7797935
MLS Listing,,Vacant Land,0 5th St,Pulaski,VA,24301,359000,,,Pulaski,,66646,,1,,,Active,,,https://www.redfin.com/VA/Pulaski/0-5th-St-NE-24301/home/182829474,MLSRV,894335,N,Y,37.0510125,-80.7798681
MLS Listing,,Single Family Residential,505 Hermosa Dr,Pulaski,VA,24301,360000,4,2.5,Pulaski,3006,91040,1970,1,120,,Active,,,https://www.redfin.com/VA/Pulaski/505-Hermosa-Dr-24301/home/101549723,MLSRV,890172,N,Y,37.0345843,-80.7724274
MLS Listing,,Single Family Residential,413 Maple St,Pulaski,VA,24301,42000,2,1.0,Pulaski,1456,871,1920,1,29,,Active,,,https://www.redfin.com/VA/Pulaski/413-Maple-St-24301/home/101533286,MLSRV,892253,N,Y,37.0411246,-80.7835048
MLS Listing,,Vacant Land,LOT 12 Tanager Cv,Dublin,VA,24084,325000,,,Dublin,,75358,,1,,42,Active,,,https://www.redfin.com/VA/Dublin/LOT-12-Tanager-CV-24084/home/179811375,MLSRV,890280,N,Y,37.080914,-80.615961
MLS Listing,,Vacant Land,LOT 7 Tanager Cv,Dublin,VA,24084,225000,,,Dublin,,55756,,1,,42,Active,,,https://www.redfin.com/VA/Dublin/LOT-7-Tanager-CV-24084/home/179811128,MLSRV,890275,N,Y,37.08119,-80.616914
MLS Listing,,Vacant Land,Lot 2 Tanager Cv,Dublin,VA,24084,225000,,,Dublin,,60984,,1,,42,Active,,,https://www.redfin.com/VA/Dublin/Lot-2-2nd-St-24084/home/179810631,MLSRV,890265,N,Y,37.081065,-80.615988
MLS Listing,,Vacant Land,LOT 15 Tanager Cv,Dublin,VA,24084,225000,,,Dublin,,121532,,1,,42,Active,,,https://www.redfin.com/VA/Dublin/LOT-15-Tanager-CV-24084/home/179811504,MLSRV,890283,N,Y,37.081653,-80.615623
MLS Listing,,Vacant Land,LOT 5 Tanager Cv,Dublin,VA,24084,300000,,,Dublin,,71438,,1,,42,Active,,,https://www.redfin.com/VA/Dublin/LOT-5-5th-St-24084/home/179810899,MLSRV,890270,N,Y,37.081567,-80.615492
MLS Listing,,Single Family Residential,27 Bertha St,Pulaski,VA,24301,149900,4,2.0,Pulaski,1799,17859,1890,1,83,,Active,,,https://www.redfin.com/VA/Pulaski/27-Bertha-St-24301/home/101536569,MLSRV,894545,N,Y,37.0456653,-80.7898519
MLS Listing,,Single Family Residential,2893 Spring House Rd,Christiansburg,VA,24073,690000,6,4.0,Christiansburg,3996,1102939,2007,1,173,,Active,,,https://www.redfin.com/VA/Christiansburg/2893-Spring-House-Rd-24073/home/179892220,MLSRV,890985,N,Y,37.1477775,-80.4834639
MLS Listing,,Single Family Residential,13 Ingles St,Radford,VA,24141,798900,4,2.5,Radford,4574,607226,1892,1,175,,Active,,,https://www.redfin.com/VA/Radford/13-Ingles-St-24141/home/68291262,MLSRV,882875,N,Y,37.1161546,-80.593768
MLS Listing,,Vacant Land,LOT 4 Tanager Cv,Dublin,VA,24084,300000,,,Dublin,,60984,,1,,42,Active,,,https://www.redfin.com/VA/Dublin/LOT-4-4th-St-24084/home/179810836,MLSRV,890267,N,Y,37.080946,-80.616474
MLS Listing,,Multi-Family (5+ Unit),1200 Fairfax St,Radford,VA,24141,1100000,,,Radford,6909,12632,1929,1,159,,Active,,,https://www.redfin.com/VA/Radford/1200-Fairfax-St-Acc-24141/home/68289347,MLSRV,893051,N,Y,37.136822,-80.5564711
MLS Listing,,Vacant Land,0 Ashley Dr,Hiwassee,VA,24347,450000,,,Hiwassee,,1992870,,1,,,Active,,,https://www.redfin.com/VA/Unknown/Ashley-Dr-23117/home/176315100,MLSRV,893907,N,Y,37.007336,-80.58882
MLS Listing,,Vacant Land,3850 Poppy Ln,Christiansburg,VA,24073,15000,,,Christiansburg,,22215,,1,,,Active,,,https://www.redfin.com/VA/Christiansburg/3850-Poppy-Ln-24073/home/129641652,MLSRV,892926,N,Y,37.0494,-80.5129
MLS Listing,,Ranch,4210 Skydusky Rd,Bland,VA,24315,2600000,3,2.0,Bland,1076,25395480,1989,1,2416,,Active,,,https://www.redfin.com/VA/Bland/4210-Skydusky-Rd-24315/home/180500824,MLSRV,891278,N,Y,37.1319187,-80.9660696
MLS Listing,,Single Family Residential,2530 Saddleridge Cir,Pulaski,VA,24301,2950000,5,7.5,Pulaski,5920,183823,1996,1,498,,Active,,,https://www.redfin.com/VA/Pulaski/2530-Saddleridge-Cir-24301/home/101542390,MLSRV,894447,N,Y,37.0043878,-80.6867635
MLS Listing,,Single Family Residential,1449 Lakeview Dr,Pulaski,VA,24301,525000,3,3.0,Lakeview Estates,3920,43560,1983,1,134,,Active,,,https://www.redfin.com/VA/Pulaski/1449-Lakeview-Dr-24301/home/101535649,MLSRV,893772,N,Y,37.0327262,-80.6806866
MLS Listing,,Single Family Residential,2563 Horse Ridge Rd NW,Willis,VA,24380,265000,3,2.5,Willis,2432,101494,1950,1,109,,Active,,,https://www.redfin.com/VA/Willis/2563-Horse-Ridge-Rd-NW-24380/home/101562110,MLSRV,893603,N,Y,36.9280728,-80.5764578
MLS Listing,,Vacant Land,0 Irish Mountain Rd,Hiwassee,VA,24347,215000,,,Hiwassee,,4116420,,1,,,Active,,,https://www.redfin.com/VA/Unknown/Irish-Mountain-Rd-24347/home/179887068,MLSRV,894251,N,Y,36.930708,-80.725686
MLS Listing,,Vacant Land,0 Buffalo Mountain Rd,Willis,VA,24380,35000,,,Willis,,120661,,1,,,Active,,,https://www.redfin.com/VA/Willis/Buffalo-Mountain-Rd-SW-24380/home/179044506,MLSRV,893493,N,Y,36.837247,-80.535202
MLS Listing,,Single Family Residential,4624 Worrells Way,Dublin,VA,24084,419950,3,2.5,Dublin,2020,21780,2022,1,208,25,Active,,,https://www.redfin.com/VA/Dublin/4624-Worrells-WAY-24084/home/179019727,MLSRV,888561,N,Y,37.1058214274582,-80.6949574920654
MLS Listing,,Mobile/Manufactured Home,4358 Little Creek Hwy,Dublin,VA,24084,175000,3,2.0,,1296,219542,2000,1,135,,Active,,,https://www.redfin.com/VA/Dublin/4358-Little-Creek-Hwy-24084/home/68611684,NRVMLS,416894,N,Y,37.0508442,-81.0522407
MLS Listing,,Single Family Residential,305 Jeffries Dr,Radford,VA,24141,329000,3,2.0,Gloria Villas,1730,6534,2023,1,190,,Active,,,https://www.redfin.com/VA/Radford/305-Jeffries-Dr-24141/home/183294932,NRVMLS,416892,N,Y,37.1069277,-80.5841987
MLS Listing,,Single Family Residential,303 Jeffries Dr,Radford,VA,24141,329000,3,2.0,Gloria Villas,1730,6534,2023,1,190,,Active,,,https://www.redfin.com/VA/Radford/303-Jeffries-Dr-24141/home/183294568,NRVMLS,416891,N,Y,37.1069277,-80.5841987
MLS Listing,,Single Family Residential,633 Hudson Drs,Dublin,VA,24084,187200,5,4.0,,2152,27878,1965,1,87,,Active,,,https://www.redfin.com/VA/Dublin/633-Hudson-Dr-24084/home/101538276,NRVMLS,416887,N,Y,37.1072899,-80.6793538
MLS Listing,,Mobile/Manufactured Home,1645 Woods Vista Dr,Christiansburg,VA,24073,159950,3,2.0,,1080,20908,2009,1,148,,Active,,,https://www.redfin.com/VA/Christiansburg/1645-Woods-Vista-Dr-24073/home/129396514,NRVMLS,416885,N,Y,37.1272728,-80.4901132
MLS Listing,,Single Family Residential,5900 Chicwood Dr,Pulaski,VA,24301,295000,3,2.0,Chicwood Estates,1283,243935,1990,1,230,,Active,December-11-2022 01:00 PM,December-11-2022 03:00 PM,https://www.redfin.com/VA/Pulaski/5900-Chicwood-Dr-24301/home/101537848,NRVMLS,416883,N,Y,37.1133912,-80.7431089
MLS Listing,,Single Family Residential,6706 Fairlawn Ave,Fairlawn,VA,24141,135900,3,2.0,Fairlawn,980,16988,1946,8,139,,Active,,,https://www.redfin.com/VA/Fairlawn/6706-Fairlawn-Ave-24141/home/101543058,NRVMLS,416772,N,Y,37.1509865,-80.5777161
MLS Listing,,Single Family Residential,4445 Jake Buford Ave,Pulaski,VA,24301,95500,4,1.0,,1050,73616,1977,8,91,,Active,,,https://www.redfin.com/VA/Pulaski/4445-Jake-Buford-Ave-24301/home/101548533,NRVMLS,416854,N,Y,37.0684929,-80.786325
MLS Listing,,Vacant Land,0 Millers Creek Rd,Wytheville,VA,24382,894900,,,,,14810400,,9,,,Active,,,https://www.redfin.com/VA/Wytheville/Millers-Creek-Rd-24382/home/183084892,CVRMLS,2231434,N,Y,37.00528,-80.953254
MLS Listing,,Single Family Residential,121 Oakland Dr,Pulaski,VA,24301,225000,4,2.5,Northwood,1767,13068,1950,9,127,,Active,,,https://www.redfin.com/VA/Pulaski/121-Oakland-Dr-24301/home/101534845,NRVMLS,416851,N,Y,37.0569072,-80.7790645
MLS Listing,,Single Family Residential,3793 Railroad Trl,Bastian,VA,24314,169000,3,2.0,,1611,43560,1968,9,105,,Active,,,https://www.redfin.com/VA/Bastian/3793-Railroad-Trl-24314/home/68618392,NRVMLS,416849,N,Y,37.1466003,-81.1585591
MLS Listing,,Single Family Residential,330 Wisteria Dr,Radford,VA,24141,498900,3,3.0,Riverwood Estates,3205,43560,2003,10,156,,Active,,,https://www.redfin.com/VA/Radford/330-Wisteria-Dr-24141/home/129406977,NRVMLS,416847,N,Y,37.1610195,-80.5240063
MLS Listing,,Single Family Residential,3088 Indian Valley Rd,Radford,VA,24141,343000,3,2.0,,1344,251341,1994,11,255,,Active,,,https://www.redfin.com/VA/Radford/3088-Indian-Valley-Rd-NW-24141/home/101561976,NRVMLS,416844,N,Y,36.9396812,-80.5300626
MLS Listing,,Vacant Land,3124 Indian Valley Rd,Radford,VA,24141,299000,,,,,998830,,11,,,Active,,,https://www.redfin.com/VA/Radford/3124-Indian-Valley-Rd-NW-24141/home/183047078,NRVMLS,416842,N,Y,36.9378223,-80.5297153
MLS Listing,,Vacant Land,TBD Indian Valley Rd,Radford,VA,24141,399000,,,,,3195997,,11,,,Active,,,https://www.redfin.com/VA/Fairlawn/TBD-Indian-Valley-Rd-24141/home/183047076,NRVMLS,416843,N,Y,36.939654,-80.530019
MLS Listing,,Mobile/Manufactured Home,926 Craig St,Pulaski,VA,24301,115000,3,2.0,,1836,13068,1998,14,63,,Active,,,https://www.redfin.com/VA/Pulaski/926-Craig-St-24301/home/101551924,NRVMLS,416837,N,Y,37.0514425,-80.7633779
MLS Listing,,Single Family Residential,1421 Duncans Chapel Rd NW,Willis,VA,24380,419900,4,3.5,,3634,91476,1991,14,116,,Active,,,https://www.redfin.com/VA/Willis/1421-Duncans-Chapel-Rd-NW-24380/home/101562616,NRVMLS,416836,N,Y,36.9058065,-80.5039457
MLS Listing,,Single Family Residential,819 Seventeenth St,Radford,VA,24141,285000,4,2.0,,2107,10890,1996,14,135,,Active,,,https://www.redfin.com/VA/Radford/819-17th-St-24141/home/68290821,NRVMLS,416834,N,Y,37.1156478,-80.5702531
MLS Listing,,Single Family Residential,339 Henry Ave,Pulaski,VA,24301,127500,5,2.0,,1748,15245,1952,14,73,,Active,,,https://www.redfin.com/VA/Pulaski/339-Henry-Ave-24301/home/101545832,NRVMLS,416835,N,Y,37.0498747,-80.785885
MLS Listing,,Single Family Residential,123 Monroe St,Radford,VA,24141,229900,3,1.0,Monroe Terrace,908,6969,1941,16,253,,Active,,,https://www.redfin.com/VA/Radford/123-Monroe-St-24141/home/68290098,NRVMLS,416821,N,Y,37.1365575,-80.562312
MLS Listing,,Single Family Residential,1115 Wilson Ave,Pulaski,VA,24301,165000,3,1.5,Northwood Terrace,1406,19166,1954,18,117,,Active,,,https://www.redfin.com/VA/Pulaski/1115-Wilson-Ave-24301/home/101544517,NRVMLS,416755,N,Y,37.0578916,-80.7783569
MLS Listing,,Single Family Residential,113 15th St NW,Pulaski,VA,24301,199900,4,2.0,,2000,12196,1981,18,100,,Active,,,https://www.redfin.com/VA/Pulaski/113-15th-St-NW-24301/home/101543432,NRVMLS,416814,N,Y,37.0611641,-80.7824661
MLS Listing,,Vacant Land,TBD River View Ln,Hiwassee,VA,24347,29900,,,,,72004,,19,,,Active,,,https://www.redfin.com/VA/Unknown/TBD-River-View-Ln-24347/home/182963893,NRVMLS,416813,N,Y,36.9349817546235,-80.7367540481567
MLS Listing,,Single Family Residential,35 NE 6th St NE,Pulaski,VA,24301,299900,3,2.0,Northwood,2407,16117,1913,22,125,,Active,,,https://www.redfin.com/VA/Pulaski/35-6th-St-NE-24301/home/101545769,NRVMLS,416798,N,Y,37.0525161,-80.7781814
MLS Listing,,Single Family Residential,6255 Harbour Town Dr,Radford,VA,24141,530000,4,2.5,Herons Landing,2724,18295,2017,23,195,,Active,,,https://www.redfin.com/VA/Radford/6255-Harbour-Town-Dr-24141/home/101542049,NRVMLS,416792,N,Y,37.1451688,-80.5343386
MLS Listing,,Mobile/Manufactured Home,2743 Max Creek Rd,Hiwassee,VA,24347,70000,3,2.0,,1728,764478,1992,24,41,,Active,,,https://www.redfin.com/VA/Hiwassee/2743-Max-Creek-Rd-24347/home/101549036,NRVMLS,416779,N,Y,36.980492,-80.689063
MLS Listing,,Single Family Residential,1200 W Main St,Radford,VA,24141,299000,4,1.5,,1426,11761,1941,24,210,,Active,,,https://www.redfin.com/VA/Radford/1200-W-Main-St-24141/home/68288856,NRVMLS,416777,N,Y,37.1256169,-80.5869571
MLS Listing,,Single Family Residential,4313 Brookmont Rd,Pulaski,VA,24301,159900,3,1.0,,992,13939,1939,25,161,,Active,,,https://www.redfin.com/VA/Pulaski/4313-Brookmont-Rd-24301/home/101546919,NRVMLS,416711,N,Y,37.0575789,-80.7951297
MLS Listing,,Single Family Residential,6234 Old Route 11 Rd,Dublin,VA,24084,285000,4,2.0,,2128,67518,2018,28,134,,Active,,,https://www.redfin.com/VA/Dublin/6234-Old-Rte-11-24084/home/101538335,NRVMLS,416763,N,Y,37.1276274,-80.6406908
MLS Listing,,Single Family Residential,520 Bunts St,Pulaski,VA,24301,79950,3,2.0,,1260,,1940,28,63,,Active,,,https://www.redfin.com/VA/Pulaski/520-Bunts-St-24301/home/101549253,NRVMLS,416757,N,Y,37.0379606,-80.7734616
MLS Listing,,Multi-Family (5+ Unit),140 S 1st St,Wytheville,VA,24382,269000,,,,10440,10890,,30,26,,Active,,,https://www.redfin.com/VA/Wytheville/140-S-1st-St-24382/home/182736173,NRVMLS,416734,N,Y,36.9502233,-81.0819764
MLS Listing,,Vacant Land,160 Lovely Mount Dr,Radford,VA,24141,195000,,,,,81892,,30,,,Active,,,https://www.redfin.com/VA/Radford/160-Lovely-Mt-Dr-24141/home/68293468,NRVMLS,416733,N,Y,37.1088033,-80.5537192
MLS Listing,,Vacant Land,48 Sugar Creek Rd,Hillsville,VA,24343,19900,,,,,30622,,33,,,Active,,,https://www.redfin.com/VA/Hillsville/48-Sugar-Creek-Rd-24343/home/182686751,NRVMLS,416712,N,Y,36.8258342,-80.7841264
MLS Listing,,Single Family Residential,4449 Sloan Branch Rd,Draper,VA,24324,560000,4,3.0,Waterfront Farms,3352,457380,1981,35,167,,Active,,,https://www.redfin.com/VA/Draper/4449-Sloan-Branch-Rd-24324/home/101535720,NRVMLS,416708,N,Y,36.990525,-80.731152
MLS Listing,,Vacant Land,TBD 24.047 ac Conner Grove Rd SW,Willis,VA,24380,174900,,,,,1047487,,35,,,Active,,,https://www.redfin.com/VA/Willis/TBD-24-047-ac-Conner-Grove-RD-SW-24380/home/182633633,NRVMLS,416703,N,Y,36.8498759236621,-80.4752046638489
MLS Listing,,Vacant Land,TBD 8.114 Ac Conner Grove Rd SW,Willis,VA,24380,98900,,,,,353445,,35,,,Active,,,https://www.redfin.com/VA/Willis/TBD-8-114-Ac-Conner-Grove-RD-SW-24380/home/182633354,NRVMLS,416702,N,Y,36.8529751605664,-80.4745716625214
MLS Listing,,Vacant Land,tbd W Lee Hwy,Wytheville,VA,24382,69000,,,,,50093,,36,,,Active,,,https://www.redfin.com/VA/Wytheville/tbd-W-Lee-Hwy-Unknown/home/179021035,NRVMLS,416692,N,Y,36.94137,-81.10823999
MLS Listing,,Vacant Land,TBD Deertrot Rd,Dublin,VA,24084,38000,,,,,222155,,37,,,Active,,,https://www.redfin.com/VA/Unknown/TBD-Deertrot-Rd-24084/home/180786585,NRVMLS,416687,N,Y,37.0787592424219,-80.6641952896205
MLS Listing,,Vacant Land,TBD Grayson Tpke,Wytheville,VA,24382,30000,,,,,53143,,37,,,Active,,,https://www.redfin.com/VA/Wytheville/tbd-Grayson-Tpke-Unknown/home/179019621,NRVMLS,416684,N,Y,36.9095483491725,-81.1033882539673
MLS Listing,,Single Family Residential,5779 Rigney Dr,Dublin,VA,24084,259000,3,2.0,Highland Park,2276,13939,1974,39,114,,Active,,,https://www.redfin.com/VA/Dublin/5779-Rigney-Dr-24084/home/101540774,NRVMLS,416674,N,Y,37.1244942,-80.6637521
MLS Listing,,Vacant Land,TBD Hylton Rd NW,Indian Valley,VA,24105,210000,,,,,915979,,39,,,Active,,,https://www.redfin.com/VA/Unknown/TBD-Hylton-Rd-NW-24105/home/182561921,NRVMLS,416672,N,Y,36.9038499826586,-80.5519620846557
MLS Listing,,Single Family Residential,501 Winfield Cir,Pulaski,VA,24301,79900,3,1.0,Scott,1228,8712,1950,39,65,,Active,,,https://www.redfin.com/VA/Pulaski/501-Winfield-Cir-24301/home/101543441,NRVMLS,416673,N,Y,37.0546766,-80.7725359
MLS Listing,,Single Family Residential,6379 Ruebush Rd,Dublin,VA,24084,399900,3,2.0,Flanagan,1946,149846,1987,39,205,,Active,,,https://www.redfin.com/VA/Dublin/6379-Ruebush-Rd-24084/home/101549029,NRVMLS,416671,N,Y,37.1420955,-80.6588868
MLS Listing,,Vacant Land,TBD Old Route 11 Hwy,Dublin,VA,24084,32000,,,,,15681,,41,,,Active,,,https://www.redfin.com/VA/Dublin/TBD-Old-Route-11-Unknown/home/179025959,NRVMLS,416668,N,Y,37.1270984276263,-80.6413347694397
MLS Listing,,Single Family Residential,6003 Anderson Ave,Dublin,VA,24084,285000,3,2.0,Highland Park,1586,11499,2022,42,180,,Active,,,https://www.redfin.com/VA/Dublin/6003-Anderson-Ave-24084/home/182537123,NRVMLS,416664,N,Y,37.119743,-80.6701142
MLS Listing,,Vacant Land,8327 Sawgrass Way,Radford,VA,24141,55000,,,Herons Landing,,16552,,42,,,Active,,,https://www.redfin.com/VA/Radford/8327-Sawgrass-Way-24141/home/101547410,NRVMLS,416662,N,Y,37.153809,-80.533973
MLS Listing,,Single Family Residential,5694 Jill St,Pulaski,VA,24301,250000,4,2.0,Bellavista,2068,18295,1978,42,121,,Active,,,https://www.redfin.com/VA/Pulaski/5694-Jill-St-24301/home/101534847,NRVMLS,416659,N,Y,37.1074575,-80.7864354
MLS Listing,,Vacant Land,TBD Drifty Ln,Wytheville,VA,24382,53000,,,,,239144,,43,,,Active,,,https://www.redfin.com/VA/Unknown/TBD-Drifty-Ln-24382/home/182520621,NRVMLS,416656,N,Y,36.8640519358492,-81.1648873816527
MLS Listing,,Vacant Land,TBD Irish Mountain Rd,Hiwassee,VA,24347,215000,,,,,4116420,,43,,,Active,,,https://www.redfin.com/VA/Unknown/TBD-Irish-Mountain-Rd-24347/home/179024707,NRVMLS,416655,N,Y,36.930377700282,-80.713388618723
MLS Listing,,Single Family Residential,1190 W Union St,Wytheville,VA,24382,199900,3,2.0,,1588,15245,1930,46,126,,Active,,,https://www.redfin.com/VA/Wytheville/1190-W-Union-St-24382/home/68376109,NRVMLS,416630,N,Y,36.9389561,-81.0902758
MLS Listing,,Single Family Residential,110 Rose Hill Rd,Wytheville,VA,24382,225000,3,2.0,Green Acres,1659,21780,1974,48,136,,Active,,,https://www.redfin.com/VA/Wytheville/110-Rose-Hill-Rd-24382/home/68370037,NRVMLS,416624,N,Y,36.961922,-81.1336989
MLS Listing,,Single Family Residential,220 Armstrong St,Dublin,VA,24084,279900,3,2.0,,1366,13852,2022,49,205,,Active,,,https://www.redfin.com/VA/Dublin/220-Armstrong-St-24084/home/182415833,NRVMLS,416620,N,Y,37.096819465513,-80.6877047988891
MLS Listing,,Single Family Residential,3644 Valley Rd,Pulaski,VA,24301,139900,3,1.0,,1056,38332,1979,50,132,,Active,,,https://www.redfin.com/VA/Pulaski/3644-Valley-Rd-24301/home/101548187,NRVMLS,416615,N,Y,37.023672,-80.791816
MLS Listing,,Single Family Residential,8322 River Course Dr,Radford,VA,24141,535000,4,3.5,Herons Landing,3432,27442,2000,51,156,,Active,,,https://www.redfin.com/VA/Radford/8322-River-Course-Dr-24141/home/101552457,NRVMLS,416603,N,Y,37.1509834,-80.5341433
MLS Listing,,Mobile/Manufactured Home,1708 Fire Tower Rd,Christiansburg,VA,24073,189000,2,1.0,,800,781902,1970,52,236,,Active,,,https://www.redfin.com/VA/Christiansburg/1708-Fire-Tower-Rd-24073/home/129484619,NRVMLS,416599,N,Y,37.1246069,-80.4946301
MLS Listing,,Single Family Residential,6110 Hedge Ln,Dublin,VA,24084,464900,4,2.5,Hedge Lane,2483,103237,2022,52,187,,Active,,,https://www.redfin.com/VA/Dublin/6110-Hedge-Ln-24084/home/101547227,NRVMLS,416597,N,Y,37.122279,-80.645621
MLS Listing,,Single Family Residential,1559 Testerman Dr,Christiansburg,VA,24073,189800,3,2.0,Testerman Estates,1502,19340,2009,52,126,,Active,,,https://www.redfin.com/VA/Christiansburg/1559-Testerman-Dr-24073/home/129519668,NRVMLS,416463,N,Y,37.1271109,-80.5061387
MLS Listing,,Vacant Land,TBD Thaxton Rd,Pulaski,VA,24301,49900,,,,,681714,,56,,,Active,,,https://www.redfin.com/VA/Pulaski/TBD-Thaxton-Rd-24301/home/181758311,NRVMLS,416581,N,Y,37.06026861,-80.79075137
MLS Listing,,Vacant Land,TBD Lee Hwy,Pulaski,VA,24301,265000,,,,,935233,,60,,,Active,,,https://www.redfin.com/VA/Pulaski/TBD-Old-Lee-Hwy-24301/home/182240447,NRVMLS,416541,N,Y,37.0621310401187,-80.767853273114
MLS Listing,,Single Family Residential,4288 NE Railroad Trail Rd,Bastian,VA,24314,115000,3,1.0,,863,32670,1961,60,133,,Active,,,https://www.redfin.com/VA/Bastian/4288-Railroad-Trl-24314/home/68614352,NRVMLS,416149,N,Y,37.1507519,-81.1513784
MLS Listing,,Single Family Residential,3354 Virginia Heights Dr,Pulaski,VA,24301,39900,2,1.0,,766,24829,1930,63,52,,Active,,,https://www.redfin.com/VA/Pulaski/3354-Virginia-Hts-Dr-24301/home/101535523,NRVMLS,416526,N,Y,37.059122,-80.787733
MLS Listing,,Vacant Land,TBD Easy St,Christiansburg,VA,24073,50000,,,Vicker Heights,,47916,,63,,,Active,,,https://www.redfin.com/VA/Unknown/TBD-Easy-St-24073/home/182191805,NRVMLS,416523,N,Y,37.1648824182491,-80.4760437047959
MLS Listing,,Vacant Land,TBD 5th St NW,Pulaski,VA,24301,359000,,,,,66646,,64,,,Active,,,https://www.redfin.com/VA/Pulaski/TBD-5th-St-NW-24301/home/182166560,NRVMLS,416515,N,Y,37.0507423540968,-80.780027658844
MLS Listing,,Vacant Land,TBD Delton Rd,Draper,VA,24324,99900,,,,,425145,,65,,,Active,,,https://www.redfin.com/VA/Draper/TBD-Delton-Rd-24324/home/179020663,NRVMLS,416505,N,Y,36.97201103,-80.75614429
MLS Listing,,Single Family Residential,6581 Teeth of The Dog Dr,Radford,VA,24141,575000,4,3.0,Herons Landing,3962,14026,2020,65,145,,Active,,,https://www.redfin.com/VA/Radford/6581-Teeth-Of-The-Dog-Dr-24141/home/101552083,NRVMLS,416501,N,Y,37.146241,-80.531111
MLS Listing,,Single Family Residential,135 S Madison Ave,Pulaski,VA,24301,12500,3,1.0,,2176,6534,1900,66,6,,Active,,,https://www.redfin.com/VA/Pulaski/135-Madison-Ave-S-24301/home/101546790,NRVMLS,416242,N,Y,37.0436486,-80.7774889
MLS Listing,,Single Family Residential,311 S Washington Ave,Pulaski,VA,24301,125000,3,2.0,,1133,4443,1940,67,110,,Active,,,https://www.redfin.com/VA/Pulaski/311-S-Washington-Ave-24301/home/101551072,NRVMLS,416494,N,Y,37.0420714,-80.7796529
MLS Listing,,Single Family Residential,873 Farris Mines Rd,Hiwassee,VA,24347,179900,3,1.0,,1533,42253,1958,67,117,,Active,,,https://www.redfin.com/VA/Allisonia/873-Farris-Mines-Rd-24347/home/101549390,NRVMLS,416493,N,Y,36.910325,-80.7310009
MLS Listing,,Single Family Residential,3541 W Lee Hwy,Wytheville,VA,24382,150000,3,2.0,,1312,14810,1970,68,114,,Active,,,https://www.redfin.com/VA/Wytheville/3541-W-Lee-Hwy-24382/home/181918896,NRVMLS,416430,N,Y,36.9340096,-81.1639775
MLS Listing,,Vacant Land,TBD Third St,Radford,VA,24141,32500,,,,,12501,,70,,,Active,,,https://www.redfin.com/VA/Radford/TBD-3rd-St-24141/home/179025517,NRVMLS,416470,N,Y,37.10933347,-80.58681138
MLS Listing,,Mobile/Manufactured Home,570 Lake Mount Airy Rd,Rural Retreat,VA,24368,185000,3,2.0,,1369,54450,2011,73,135,,Active,,,https://www.redfin.com/VA/Rural-Retreat/570-Lake-Mount-Airy-Rd-24368/home/68378144,NRVMLS,416454,N,Y,36.9036969,-81.2376405
MLS Listing,,Single Family Residential,895 N 16th St,Wytheville,VA,24382,354900,3,3.0,,2258,26136,1965,80,157,,Active,December-10-2022 11:00 AM,December-10-2022 01:00 PM,https://www.redfin.com/VA/Wytheville/895-N-16th-St-24382/home/181868135,NRVMLS,416405,N,Y,36.9520664,-81.0989838
MLS Listing,,Vacant Land,4268 Pleasure View Dr,Hiwassee,VA,24347,39900,,,New River Panorama Acres,,141134,,80,,,Active,,,https://www.redfin.com/VA/Hiwassee/4268-Pleasure-View-Dr-24347/home/101537067,NRVMLS,416398,N,Y,36.930502,-80.744438
MLS Listing,,Single Family Residential,1722 Fire Tower Rd,Christiansburg,VA,24073,145000,3,1.0,,764,20037,1939,83,190,,Active,,,https://www.redfin.com/VA/Christiansburg/1722-Fire-Tower-Rd-24073/home/129248303,NRVMLS,416382,N,Y,37.1233891,-80.4980612
MLS Listing,,Vacant Land,TBD Shepard Dr,Dublin,VA,24084,25000,,,Orchard Hills,,10454,,85,,,Active,,,https://www.redfin.com/VA/Dublin/TBD-Shepard-Dr-24084/home/181788619,NRVMLS,416353,N,Y,37.0980431790534,-80.6794704172134
MLS Listing,,Single Family Residential,37 S Washington Ave,Pulaski,VA,24301,125000,5,2.0,,4120,16552,1856,85,30,,Active,,,https://www.redfin.com/VA/Pulaski/37-S-Washington-Ave-24301/home/101534184,NRVMLS,416053,N,Y,37.0446367,-80.7797611
MLS Listing,,Mobile/Manufactured Home,1521 Firehouse Rd NW,Willis,VA,24380,230000,3,4.5,,1720,130680,1999,86,134,,Active,,,https://www.redfin.com/VA/Willis/1521-Firehouse-Rd-NW-24380/home/101570014,NRVMLS,416348,N,Y,36.8947762,-80.4855959
MLS Listing,,Vacant Land,0 Mack Mountain Rd,Hiwassee,VA,24347,2788800,,,Hiwassee,,61637400,,86,,,Active,,,https://www.redfin.com/VA/Hiwassee/Mack-Mountain-RD-24347/home/181762061,LMLS,340490,N,Y,36.9687335,-80.7136789
MLS Listing,,Single Family Residential,122 Pine St,Pulaski,VA,24301,129900,3,1.5,,966,4356,1932,91,134,,Active,,,https://www.redfin.com/VA/Pulaski/122-Pine-St-24301/home/101546791,NRVMLS,416303,N,Y,37.0435161,-80.7725979
MLS Listing,,Vacant Land,TBD Buffalo Mtn Rd,Willis,VA,24380,35000,,,,,120835,,92,,,Active,,,https://www.redfin.com/VA/Willis/TBD-Buffalo-Mountain-Rd-SW-24380/home/179024421,NRVMLS,416299,N,Y,36.7882059,-80.50539109
MLS Listing,,Single Family Residential,778 Macks Mountain Rd,Indian Valley,VA,24105,199900,3,1.0,,1283,87120,1948,92,156,,Active,,,https://www.redfin.com/VA/Indian-Valley/778-Macks-Mountain-Rd-NW-24105/home/101562228,NRVMLS,416298,N,Y,36.9146469,-80.5782801
MLS Listing,,Single Family Residential,2020 W Main St,Radford,VA,24141,200000,3,2.0,,2021,10890,1938,95,99,,Active,,,https://www.redfin.com/VA/Radford/2020-W-Main-St-24141/home/68291389,NRVMLS,416271,N,Y,37.1149852,-80.5900373
MLS Listing,,Single Family Residential,1208 Dry Rd,Speedwell,VA,24374,129000,3,1.5,,1170,89297,1984,98,110,,Active,,,https://www.redfin.com/VA/Speedwell/1208-Dry-Rd-24374/home/181416455,NRVMLS,416253,N,Y,36.804029,-81.2296835
MLS Listing,,Single Family Residential,255 Echo Valley Rd,Wytheville,VA,24382,385000,3,2.0,,1948,258746,1950,98,198,,Active,,,https://www.redfin.com/VA/Wytheville/255-Echo-Valley-Rd-24382/home/179020673,NRVMLS,416252,N,Y,36.9434395,-81.044115
MLS Listing,,Single Family Residential,1217 Allison Ln,Pulaski,VA,24301,135000,3,1.0,Macgill Woods,1040,10890,1961,106,130,,Active,,,https://www.redfin.com/VA/Pulaski/1217-Allison-Ln-24301/home/101539928,NRVMLS,416204,N,Y,37.05913,-80.7561319
MLS Listing,,Vacant Land,TBD Burma Rd,Radford,VA,24141,225000,,,,,30491,,107,,,Active,,,https://www.redfin.com/VA/Unknown/TBD-Burma-Rd-24141/home/181239993,NRVMLS,416186,N,Y,37.0594913507059,-80.6041593753723
MLS Listing,,Vacant Land,TBD Millers Creek Rd,Max Meadows,VA,24360,95000,,,,,459035,,108,,,Active,,,https://www.redfin.com/VA/Max-Meadows/TBD-Millers-Creek-Rd-Unknown/home/179025213,NRVMLS,416184,N,Y,37.02851076,-80.93579536
MLS Listing,,Vacant Land,TBD West Main St,Radford,VA,24141,279000,,,,,64033,,111,,,Active,,,https://www.redfin.com/VA/Radford/TBD-W-Main-St-24141/home/179019870,NRVMLS,416140,N,Y,37.13856,-80.54717999
MLS Listing,,Vacant Land,TBD Shaedawn Parkway Pkwy,Dublin,VA,24084,495000,,,,,130680,,111,,,Active,,,https://www.redfin.com/VA/Dublin/TBD-Shaedawn-Parkway-PKWY-24084/home/181170885,NRVMLS,416160,N,Y,37.0939089847068,-80.6931034589996
MLS Listing,,Vacant Land,8286 Augusta National Dr,Radford,VA,24141,100000,,,Herons Landing,,30927,,111,,,Active,,,https://www.redfin.com/VA/Radford/8286-Augusta-National-Dr-24141/home/101542446,NRVMLS,416134,N,Y,37.15294,-80.536672
MLS Listing,,Vacant Land,tbd Big Bend Dr,Bland,VA,24315,14900,,,,,72745,,112,,,Active,,,https://www.redfin.com/VA/Unknown/tbd-Big-Bend-Dr-24315/home/179020894,NRVMLS,408688,N,Y,37.0743873,-81.15723496
MLS Listing,,Single Family Residential,3738 Mud Pike,Christiansburg,VA,24073,150000,3,2.0,Cedar Hill,1248,24001,1984,119,120,,Active,,,https://www.redfin.com/VA/Christiansburg/3738-Mud-Pike-24073/home/129683959,NRVMLS,415971,N,Y,37.0991553,-80.5028383
MLS Listing,,Single Family Residential,5568 Riggs St,Dublin,VA,24084,164000,3,1.0,Walnut,1096,17424,1970,130,150,,Active,,,https://www.redfin.com/VA/Dublin/5568-Riggs-St-24084/home/101533613,NRVMLS,415986,N,Y,37.118699,-80.6747027
MLS Listing,,Single Family Residential,108 Stinger Dr,Ivanhoe,VA,24350,144500,2,1.0,,832,13068,1940,133,174,,Active,,,https://www.redfin.com/VA/Ivanhoe/108-Stinger-Dr-24350/home/68375498,NRVMLS,415968,N,Y,36.8378492,-80.9602489
MLS Listing,,Single Family Residential,704 Pendleton St,Radford,VA,24141,334900,3,2.0,,1600,7840,2022,136,209,,Active,,,https://www.redfin.com/VA/Radford/704-Pendleton-St-24141/home/179300663,NRVMLS,415944,N,Y,37.1192867,-80.5814628
MLS Listing,,Single Family Residential,677 Cardinal Dr,Pulaski,VA,24301,375000,6,3.5,Pearce Place,5840,52707,1964,136,64,,Active,,,https://www.redfin.com/VA/Pulaski/677-Cardinal-Dr-24301/home/101536954,NRVMLS,415943,N,Y,37.0392574,-80.7637284
MLS Listing,,Single Family Residential,6151 Skyview Cir,Dublin,VA,24084,225000,3,2.0,Skyview,2280,22651,1973,136,99,,Active,,,https://www.redfin.com/VA/Dublin/6151-State-Rd-1077-24084/home/101549815,NRVMLS,414084,N,Y,37.1256143,-80.6944344
MLS Listing,,Vacant Land,TBD Morning Glory Dr,Radford,VA,24141,69500,,,,,52272,,142,,,Active,,,https://www.redfin.com/VA/Unknown/TBD-Morning-Glory-Dr-24141/home/180596189,NRVMLS,415899,N,Y,37.1618376019597,-80.5163858994751
MLS Listing,,Vacant Land,2688 Draper Ridge Rd,Draper,VA,24324,43000,,,,,60548,,142,,,Active,,,https://www.redfin.com/VA/Draper/2688-Draper-Ridge-Rd-24324/home/101535002,NRVMLS,415895,N,Y,36.990316,-80.815895
MLS Listing,,Vacant Land,1951 Cold Mtn Rd,Radford,VA,24141,69900,,,,,140176,,144,,,Active,,,https://www.redfin.com/VA/Radford/1951-Cold-Mountain-Rd-24141/home/129238030,NRVMLS,415866,N,Y,37.1165,-80.5475
MLS Listing,,Single Family Residential,139 D St,Austinville,VA,24312,194000,2,1.5,,960,1568,1908,149,202,,Active,,,https://www.redfin.com/VA/Austinville/139-D-St-24312/home/180489673,NRVMLS,415809,N,Y,36.8512708,-80.9107708
MLS Listing,,Single Family Residential,480 Church St,Wytheville,VA,24382,900000,6,5.0,,7918,22215,1871,151,114,,Active,,,https://www.redfin.com/VA/Wytheville/480-Church-St-24382/home/68376852,NRVMLS,415794,N,Y,36.9471194,-81.0797559
MLS Listing,,Multi-Family (2-4 Unit),604 First St SE,Pulaski,VA,24301,149500,,,,1866,43560,,155,80,,Active,,,https://www.redfin.com/VA/Pulaski/604-1st-St-SE-24301/home/101549219,NRVMLS,415772,N,Y,37.0440929,-80.77173
MLS Listing,,Single Family Residential,231 N Randolph Ave,Pulaski,VA,24301,214000,4,3.0,,2465,,1920,157,87,,Active,,,https://www.redfin.com/VA/Pulaski/231-Randolph-Ave-24301/home/101545312,NRVMLS,415732,N,Y,37.0485207,-80.7847815
MLS Listing,,Vacant Land,tbd Whetson Dr,Barren Springs,VA,24313,60000,,,,,261360,,184,,,Active,,,https://www.redfin.com/VA/Unknown/tbd-Whetstone-Dr-24313/home/179811385,NRVMLS,415476,N,Y,36.907948,-80.817344
MLS Listing,,Vacant Land,TBD Cardinal Dr,Pulaski,VA,24301,24000,,,Pearce Place,,104544,,185,,,Active,,,https://www.redfin.com/VA/Pulaski/TBD-Cardinal-Dr-24301/home/179025673,NRVMLS,415456,N,Y,37.06074639,-80.76956575
MLS Listing,,Vacant Land,TBD Gator Mountain Rd,Indian Valley,VA,24105,150000,,,,,5812689,,186,,,Active,,,https://www.redfin.com/VA/Indian-Valley/TBD-Gator-Mountain-Rd-24105/home/179798657,NRVMLS,415455,N,Y,36.91154366,-80.64238313
MLS Listing,,Vacant Land,Cove Rd,Wytheville,VA,24382,335000,,,NA,,5488560,,188,,,Active,,,https://www.redfin.com/VA/Wytheville/Cove-Rd-24382/home/179102768,SCAR,48624,N,Y,37.00716409,-81.07360133
MLS Listing,,Vacant Land,4933 Lee Highway Hwy,Pulaski,VA,24301,750000,,,,,4469560,,189,,,Active,,,https://www.redfin.com/VA/Pulaski/4933-Lee-Hwy-24301/home/180273216,NRVMLS,415429,N,Y,37.0994218,-80.7068267
MLS Listing,,Vacant Land,000 Reece Rd SW,Willis,VA,24380,159900,,,Willis,,,,190,,,Active,,,https://www.redfin.com/VA/Unknown/Reece-Rd-SW-24380/home/179043796,Triad MLS,1071718,N,Y,36.841228,-80.555423
MLS Listing,,Vacant Land,8121 River Course Dr,Radford,VA,24141,425000,,,,,110598,,191,,,Active,,,https://www.redfin.com/VA/Radford/8121-River-Course-Dr-24141/home/179691022,NRVMLS,415397,N,Y,37.148469,-80.543151
MLS Listing,,Vacant Land,1018 Horse Ridge Rd NW,Willis,VA,24380,595000,,,Willis,,,,192,,,Active,,,https://www.redfin.com/VA/Willis/1018-Horse-Ridge-Rd-NW-24380/home/179023730,Triad MLS,1054605,N,Y,36.9501437,-80.5497892
MLS Listing,,Vacant Land,TBD Lee Hwy,Draper,VA,24324,40000,,,Sherwood Forest,,52272,,201,,,Active,,,https://www.redfin.com/VA/Draper/TBD-Lee-HWY-24324/home/179558673,NRVMLS,415288,N,Y,37.00638433,-80.79914674
MLS Listing,,Single Family Residential,6291 Dana Ln,Radford,VA,24141,419900,4,2.0,Woods On The Lake,1632,101930,1990,204,257,,Active,,,https://www.redfin.com/VA/Radford/6291-Dana-Ln-24141/home/101548823,NRVMLS,415247,N,Y,37.0618229,-80.647266
MLS Listing,,Vacant Land,0 Higgs Rd NW,Indian Valley,VA,24105,159900,,,,,3463020,,205,,,Active,,,https://www.redfin.com/VA/Indian-Valley/0-Higgs-RD-NW-24105/home/179020418,NRVMLS,414402,N,Y,36.9714698955113,-80.5296844711304
MLS Listing,,Single Family Residential,1619 Downey St,Radford,VA,24141,157000,4,1.0,,1726,7405,1910,207,91,,Active,,,https://www.redfin.com/VA/Radford/1619-Downey-St-24141/home/68292679,NRVMLS,415195,N,Y,37.1380895,-80.5617479
MLS Listing,,Vacant Land,1910 Sutphintown Rd,Dugspur,VA,24325,399900,,,Dugspur,,,,217,,,Active,,,https://www.redfin.com/VA/Dugspur/1910-Sutphintown-Rd-24325/home/68302604,Triad MLS,1049388,N,Y,36.8747637,-80.6656034
MLS Listing,,Single Family Residential,292 Ivanhoe Road Rd,Max Meadows,VA,24360,160000,3,1.0,Wythe View,1291,3963,1964,218,124,,Active,,,https://www.redfin.com/VA/Max-Meadows/292-Ivanhoe-Rd-24360/home/179331928,NRVMLS,415093,N,Y,36.9251223,-80.9427255
MLS Listing,,Vacant Land,TBD Old 52 Rd,Austinville,VA,24312,159000,,,,,66646,,228,,,Active,,,https://www.redfin.com/VA/Unknown/TBD-Road-24312/home/179164806,NRVMLS,414958,N,Y,36.85459933,-80.86206206
MLS Listing,,Vacant Land,TBD Tract 2 Peppers Ferry Rd,Wytheville,VA,24382,274950,,,,,80455,,234,,,Active,,,https://www.redfin.com/VA/Wytheville/2-Peppers-Ferry-Rd-24382/home/179106087,NRVMLS,414911,N,Y,36.9819287,-81.0284805
MLS Listing,,Vacant Land,TBD Morning Glory Dr,Christiansburg,VA,24073,59880,,,,,50050,,235,,,Active,,,https://www.redfin.com/VA/Christiansburg/TBD-Morning-Glory-DR-24073/home/179019780,NRVMLS,414725,N,Y,37.16149456,-80.5198535
MLS Listing,,Vacant Land,TBD Cleburne Blvd,Dublin,VA,24084,1500000,,,,,517928,,240,,,Active,,,https://www.redfin.com/VA/Dublin/TBD-Cleburne-Blvd-Unknown/home/179023775,NRVMLS,413410,N,Y,37.14948176,-80.6912117
MLS Listing,,Vacant Land,TBD Tanager Lot 1 Cv,Dublin,VA,24084,225000,,,Tanager Cove,,60983,,240,,,Active,,,https://www.redfin.com/VA/Dublin/TBD-Tanager-Lot-1-CV-24084/home/179023766,NRVMLS,413861,N,Y,37.084297,-80.614372
MLS Listing,,Vacant Land,TBD Tanager Lot 13 Cv,Dublin,VA,24084,225000,,,Tanager Cove,,89472,,240,,,Active,,,https://www.redfin.com/VA/Dublin/TBD-Tanager-Lot-13-CV-24084/home/179023740,NRVMLS,413870,N,Y,37.084526,-80.614159
MLS Listing,,Vacant Land,tbd Loretto Dr,Wytheville,VA,24382,55000,,,,,18295,,240,,,Active,,,https://www.redfin.com/VA/Wytheville/tbd-Loretto-Dr-24382/home/179023722,NRVMLS,325475,N,Y,36.96010511,-81.08219313
MLS Listing,,Vacant Land,TBD Tanager Lot 2 Cv,Dublin,VA,24084,225000,,,Tanager Cove,,60983,,240,,,Active,,,https://www.redfin.com/VA/Dublin/TBD-2nd-St-24084/home/179023718,NRVMLS,413862,N,Y,37.084179,-80.61425
MLS Listing,,Vacant Land,tbd Century Ct,Wytheville,VA,24382,59900,,,,,69696,,240,,,Active,,,https://www.redfin.com/VA/Wytheville/tbd-Century-Ct-24382/home/179023717,NRVMLS,414526,N,Y,36.9494576,-81.1058315
MLS Listing,,Vacant Land,TBD E Main St,Radford,VA,24141,39000,,,,,23261,,240,,,Active,,,https://www.redfin.com/VA/Fairlawn/TBD-E-Main-St-24141/home/179019499,NRVMLS,409087,N,Y,37.13856,-80.54717999
MLS Listing,,Vacant Land,TBD Tanager Lot 8 Cv,Dublin,VA,24084,250000,,,Tanager Cove,,69434,,240,,,Active,,,https://www.redfin.com/VA/Dublin/TBD-Tanager-Lot-8-CV-24084/home/179023691,NRVMLS,413866,N,Y,37.084545,-80.614014
MLS Listing,,Vacant Land,TBD Tanager Lot 5 Cv,Dublin,VA,24084,300000,,,Tanager Cove,,71220,,240,,,Active,,,https://www.redfin.com/VA/Dublin/TBD-5th-St-24084/home/179023685,NRVMLS,414471,N,Y,37.0823619726262,-80.6150345239454
MLS Listing,,Vacant Land,TBD Tanager Lot 4 Cv,Dublin,VA,24084,300000,,,Tanager Cove,,60983,,240,,,Active,,,https://www.redfin.com/VA/Dublin/TBD-4th-St-24084/home/179023684,NRVMLS,413864,N,Y,37.084206,-80.614151
MLS Listing,,Vacant Land,TBD Lot 75 Bertha Farm Rd,Barren Springs,VA,24313,34900,,,Bertha Farms,,217800,,240,,,Active,,,https://www.redfin.com/VA/Barren-Springs/75-Bertha-Farms-Rd-24313/home/179023674,NRVMLS,411142,N,Y,36.8977237,-80.8154251
MLS Listing,,Vacant Land,TBD Tanager Lot 3 Cv,Dublin,VA,24084,275000,,,Tanager Cove,,60983,,240,,,Active,,,https://www.redfin.com/VA/Dublin/TBD-3rd-St-24084/home/179023670,NRVMLS,413863,N,Y,37.084309,-80.614326
MLS Listing,,Vacant Land,TBD Cardinal Dr,Dublin,VA,24084,73500,,,,,43560,,240,,,Active,,,https://www.redfin.com/VA/Unknown/TBD-Cardinal-Dr-24084/home/179023661,NRVMLS,411581,N,Y,37.067345,-80.637032
MLS Listing,,Vacant Land,212 Woods View Ct,Radford,VA,24141,28900,,,High Meadows,,14374,,240,,,Active,,,https://www.redfin.com/VA/Radford/212-Woods-View-Ct-24141/home/179020893,NRVMLS,411308,N,Y,37.1353806,-80.5236312
MLS Listing,,Vacant Land,6923 Doral Dr,Radford,VA,24141,65000,,,Herons Landing,,19602,,240,,,Active,,,https://www.redfin.com/VA/Radford/6923-Doral-Dr-24141/home/101539438,NRVMLS,413232,N,Y,37.1539521,-80.5729491
MLS Listing,,Vacant Land,1462 Julia Simpkins Rd,Hiwassee,VA,24347,18500,,,Panorama Acres,,57499,,240,,,Active,,,https://www.redfin.com/VA/Hiwassee/1462-Julia-Simpkins-Rd-24347/home/101545186,NRVMLS,408734,N,Y,36.934289,-80.74037
MLS Listing,,Condo/Co-op,210 E Withers Road Unit 202 Rd #202,Wytheville,VA,24382,209000,2,1.0,,1393,,1991,240,150,,Active,,,https://www.redfin.com/VA/Wytheville/210-E-Withers-Rd-24382/unit-202/home/179020470,NRVMLS,414679,N,Y,36.9479704,-81.0786133
MLS Listing,,Vacant Land,422 S Madison Ave,Pulaski,VA,24301,9900,,,,,6534,,240,,,Active,,,https://www.redfin.com/VA/Pulaski/422-Madison-Ave-S-24301/home/101539089,NRVMLS,414223,N,Y,37.0031427,-80.7428277
MLS Listing,,Vacant Land,TBD Tanager Lot 15 Cv,Dublin,VA,24084,225000,,,Tanager Cove,,121532,,240,,,Active,,,https://www.redfin.com/VA/Dublin/TBD-Tanager-Lot-15-CV-24084/home/179020351,NRVMLS,413872,N,Y,37.084454,-80.614143
MLS Listing,,Condo/Co-op,210 E Withers Road Unit 203 Rd #203,Wytheville,VA,24382,129000,1,1.0,,614,,1991,240,210,,Active,,,https://www.redfin.com/VA/Wytheville/210-E-Withers-Rd-24382/unit-203/home/179020339,NRVMLS,414680,N,Y,36.9479704,-81.0786133
MLS Listing,,Vacant Land,4162 Clarks Ferry Rd,Draper,VA,24324,124500,,,,,55800,,240,,,Active,,,https://www.redfin.com/VA/Draper/4162-Clarks-Ferry-Rd-24324/home/101542030,NRVMLS,413288,N,Y,36.933963,-80.757725
MLS Listing,,Vacant Land,8312 Sawgrass Way,Radford,VA,24141,174500,,,Herons Landing,,21344,,240,,,Active,,,https://www.redfin.com/VA/Radford/8312-Sawgrass-Way-24141/home/101552417,NRVMLS,414387,N,Y,37.1544669,-80.535072
MLS Listing,,Vacant Land,TBD Tanager Lot 7 Cv,Dublin,VA,24084,225000,,,Tanager Cove,,55800,,240,,,Active,,,https://www.redfin.com/VA/Dublin/TBD-Tanager-Lot-7-CV-24084/home/179020095,NRVMLS,413865,N,Y,37.084427,-80.614105
MLS Listing,,Vacant Land,4142 Clarks Ferry Rd,Draper,VA,24324,134500,,,,,62247,,240,,,Active,,,https://www.redfin.com/VA/Draper/4142-Clarks-Ferry-Rd-24324/home/101546999,NRVMLS,413287,N,Y,36.93386,-80.758766
MLS Listing,,Vacant Land,39 Knoll Ct,Radford,VA,24141,44900,,,High Meadows,,19602,,240,,,Active,,,https://www.redfin.com/VA/Radford/39-Knoll-Ct-24141/home/179019872,NRVMLS,411309,N,Y,37.136678,-80.5233151
MLS Listing,,Vacant Land,TBD Tanager Lot 6 Cv,Dublin,VA,24084,325000,,,Tanager Cove,,95832,,240,,,Active,,,https://www.redfin.com/VA/Dublin/TBD-6th-St-24084/home/179019819,NRVMLS,414534,N,Y,37.0822864535766,-80.6147943439718
MLS Listing,,Vacant Land,TBD Tanager Lot 10 Cv,Dublin,VA,24084,275000,,,Tanager Cove,,67474,,240,,,Active,,,https://www.redfin.com/VA/Dublin/TBD-Tanager-Lot-10-CV-24084/home/179019792,NRVMLS,413868,N,Y,37.08445,-80.61409
MLS Listing,,Vacant Land,TBD Tanager Lot 12 Cv,Dublin,VA,24084,325000,,,Tanager Cove,,75271,,240,,,Active,,,https://www.redfin.com/VA/Dublin/TBD-Tanager-Lot-12-CV-24084/home/179019748,NRVMLS,413869,N,Y,37.083893,-80.614182
MLS Listing,,Vacant Land,tbd Fort Chiswell Rd,Austinville,VA,24312,299000,,,,,166834,,240,,,Active,,,https://www.redfin.com/VA/Austinville/tbd-Fort-Chiswell-Rd-24312/home/179019726,NRVMLS,410077,N,Y,36.86025683,-80.86184118
MLS Listing,,Vacant Land,TBD Tanager Lot 9 Cv,Dublin,VA,24084,275000,,,Tanager Cove,,58936,,240,,,Active,,,https://www.redfin.com/VA/Dublin/TBD-Tanager-Lot-9-CV-24084/home/179019714,NRVMLS,413867,N,Y,37.083504,-80.613823
MLS Listing,,Vacant Land,TBD Tanager Lot 14 Cv,Dublin,VA,24084,225000,,,Tanager Cove,,61855,,240,,,Active,,,https://www.redfin.com/VA/Dublin/TBD-Tanager-Lot-14-CV-24084/home/179019685,NRVMLS,413871,N,Y,37.08429,-80.613831
MLS Listing,,Vacant Land,6980 Pinehurst Pl,Radford,VA,24141,78900,,,Herons Landing,,42688,,240,,,Active,,,https://www.redfin.com/VA/Radford/6980-Pinehurst-Pl-24141/home/101547448,NRVMLS,412921,N,Y,37.152464,-80.535363
MLS Listing,,Single Family Residential,4804 Lake Cliff Dr,Dublin,VA,24084,1500000,4,3.5,,4684,218671,2005,240,320,,Active,,,https://www.redfin.com/VA/Dublin/4804-Lake-Cliff-Dr-24084/home/101552396,NRVMLS,414529,N,Y,37.06843,-80.6602149
MLS Listing,,Vacant Land,TBD Holly Dr,Radford,VA,24141,79500,,,Lakeview,,20908,,240,,,Active,,,https://www.redfin.com/VA/Unknown/TBD-Holly-Dr-24141/home/179019503,NRVMLS,411115,N,Y,37.05121418,-80.66253019
