SALE TYPE,SOLD DATE,PROPERTY TYPE,ADDRESS,CITY,STATE OR PROVINCE,ZIP OR POSTAL CODE,PRICE,BEDS,BATHS,LOCATION,SQUARE FEET,LOT SIZE,YEAR BUILT,DAYS ON MARKET,$/SQUARE FEET,HOA/MONTH,STATUS,NEXT OPEN HOUSE START TIME,NEXT OPEN HOUSE END TIME,URL (SEE https://www.redfin.com/buy-a-home/comparative-market-analysis FOR INFO ON PRICING),SOURCE,MLS#,FAVORITE,INTERESTED,LATITUDE,LONGITUDE
MLS Listing,,Single Family Residential,37 Teal,Pleasant Valley,NY,12569,468900,3,2.5,Dutchess County,2220,46609,1974,49,211,,Active,,,https://www.redfin.com/NY/Pleasant-Valley/37-Teal-Ln-12569/home/92768183,MHMLS,412010,N,Y,41.7440859,-73.829845
MLS Listing,,Single Family Residential,595 Litchfield Rd,Harwinton,CT,06791,319000,4,1.0,Harwinton,2216,10890,1915,49,144,,Active,,,https://www.redfin.com/CT/Harwinton/595-Litchfield-Rd-06791/home/107252751,Smart MLS,170530626,N,Y,41.7623825,-73.1117665
MLS Listing,,Single Family Residential,2292 Rt 32,Saugerties,NY,12477,339000,3,3.0,Saugerties-Town,1638,21780,1920,1,207,,Active,,,https://www.redfin.com/NY/Saugerties/2292-NY-32-12477/home/140414761,HVCRMLS,20223785,N,Y,42.0476476,-73.9563485
MLS Listing,,Single Family Residential,167 Botti Dr,Hunter,NY,12442,799000,3,2.5,Hunter,1900,20473,1990,1,421,,Active,,,https://www.redfin.com/NY/HUNTER/167-BOTTI-DR-12442/home/129716486,CGNDMLS,144775,N,Y,42.211807,-74.204834
MLS Listing,,Single Family Residential,55 Woodlands Trl,Clinton,NY,12514,2700000,3,4.0,Dutchess County,3057,558004,2023,1,883,,Active,,,https://www.redfin.com/NY/Clinton/55-Woodlands-Trl-12514/home/170445565,MHMLS,412743,N,Y,41.8374,-73.792
MLS Listing,,Single Family Residential,62 Linderman Ave,Kingston,NY,12401,199900,3,1.5,Kingston,1856,12632,1910,1,108,,Active,,,https://www.redfin.com/NY/Kingston/62-Linderman-Ave-12401/home/140186445,Global MLS,202231082,N,Y,41.9258829,-74.0191543
MLS Listing,,Single Family Residential,47 Benner Rd,Red Hook,NY,12571,425000,3,2.0,Dutchess,1712,16552,1960,1,248,,Active,,,https://www.redfin.com/NY/Red-Hook/47-Benner-Rd-12571/home/73372319,HVCRMLS,20223783,N,Y,41.9930573,-73.8873651
MLS Listing,,Single Family Residential,256 Newfield Rd,Torrington,CT,06790,219900,3,2.0,Newfield,1389,9583,1943,1,158,,Active,,,https://www.redfin.com/CT/Torrington/256-Newfield-Rd-06790/home/107293904,Smart MLS,170540050,N,Y,41.823922,-73.1215219
MLS Listing,,Single Family Residential,16 Mountain View Ter,New Milford,CT,06776,400000,3,2.5,New Milford,2750,37461,1969,1,145,,Active,,,https://www.redfin.com/CT/New-Milford/16-Mountain-View-Ter-06776/home/107692059,Smart MLS,170540062,N,Y,41.6131768,-73.4049224
MLS Listing,,Multi-Family (2-4 Unit),18 Furnace Bank Rd,Wassaic,NY,12592,415000,2,2.0,Wassaic,1920,8712,1900,1,216,,Active,,,https://www.redfin.com/NY/Wassaic/18-Furnace-Bank-Rd-12592/home/92745720,OneKey,H6223668,N,Y,41.8059014,-73.5626105
MLS Listing,,Condo/Co-op,1304 Cherry Hill Dr,Poughkeepsie Twp,NY,12603,155000,2,1.5,Dutchess County,1245,,1982,1,124,519,Active,,,https://www.redfin.com/NY/Arlington/1304-Cherry-Hill-Dr-12603/home/92774942,MHMLS,412804,N,Y,41.704012,-73.88007
MLS Listing,,Single Family Residential,175 Glen Street St,Kingston,NY,12401,189000,1,1.0,"Kingston,city",434,19166,1940,1,435,,Active,,,https://www.redfin.com/NY/Kingston/175-Glen-St-12401/home/140411894,HVCRMLS,20223781,N,Y,41.9182589,-74.0228285
MLS Listing,,Single Family Residential,100 Ridge Rd,Shokan,NY,12481,349900,3,2.5,Olive,1820,52272,1974,1,192,,Active,,,https://www.redfin.com/NY/Shokan/100-Ridge-Rd-12481/home/140189495,HVCRMLS,20223779,N,Y,41.9792208,-74.2090134
MLS Listing,,Single Family Residential,77 Soper Rd,New Paltz,NY,12561,225000,3,2.5,Esopus,2653,56628,1945,1,85,,Active,,,https://www.redfin.com/NY/New-Paltz/77-Soper-Rd-12561/home/140099975,HVCRMLS,20223777,N,Y,41.8320868,-74.0130622
MLS Listing,,Single Family Residential,3 Trotter Ln,Poughkeepsie,NY,12603,749000,4,2.5,Coachlight Estates,3171,,2022,1,236,,Active,December-10-2022 12:00 PM,December-10-2022 03:00 PM,https://www.redfin.com/NY/Poughkeepsie/3-Trotter-Ln-12603/home/92773515,OneKey,H6223579,N,Y,41.670926,-73.889107
MLS Listing,,Single Family Residential,247 City View Ter,Kingston,NY,12401,849000,5,3.5,Ulster-Town of,2380,18295,1969,1,357,,Active,,,https://www.redfin.com/NY/Kingston/247-City-View-Ter-12401/home/140098642,HVCRMLS,20223775,N,Y,41.9565601,-74.0271893
MLS Listing,,Vacant Land,166 Old Turnpike Rd,Woodridge,NY,12789,50000,,,Woodridge,,223463,,1,,,Active,,,https://www.redfin.com/NY/Fallsburg/166-Old-Turnpike-Rd-12789/home/138925764,OneKey,H6223497,N,Y,41.6895348,-74.548043
MLS Listing,,Single Family Residential,25 Burgevin St,Kingston,NY,12401,795000,3,2.5,"Kingston,city",3251,52272,1875,1,245,,Active,,,https://www.redfin.com/NY/Kingston/25-Burgevin-St-12401/home/140266258,HVCRMLS,20223774,N,Y,41.9238204,-74.0236547
MLS Listing,,Single Family Residential,406 Roxbury Rd,Claverack,NY,12534,550000,1,1.0,Claverack,1050,871200,1950,1,524,,Active,,,https://www.redfin.com/NY/Hudson/406-Roxbury-Rd-12534/home/183293486,CGNDMLS,144771,N,Y,42.237015,-73.6648806
MLS Listing,,Single Family Residential,31 Alexander Blvd,Poughkeepsie,NY,12603,459999,4,3.5,Poughkeepsie,1872,69696,1995,1,246,,Active,,,https://www.redfin.com/NY/Poughkeepsie/31-Alexander-Blvd-12603/home/54860325,OneKey,H6223658,N,Y,41.6344457,-73.9002726
MLS Listing,,Multi-Family (2-4 Unit),83 Main St,Esopus,NY,12487,425000,4,5.0,Esopus,840,21344,1920,1,506,,Active,,,https://www.redfin.com/NY/Esopus/83-Main-St-12429/home/140128718,HVCRMLS,20223773,N,Y,41.8288509,-73.9652108
MLS Listing,,Single Family Residential,40 High St,Watertown,CT,06795,238500,3,1.0,Watertown,977,13939,1958,1,244,,Active,,,https://www.redfin.com/CT/Watertown/40-High-St-06795/home/107310707,Smart MLS,170539994,N,Y,41.601018,-73.1033862
MLS Listing,,Vacant Land,139 Stilson Hill Rd,New Milford,CT,06776,174900,,,Gaylordsville,,91476,,1,,,Active,,,https://www.redfin.com/CT/New-Milford/139-Stilson-Hill-Rd-06776/home/107714601,Smart MLS,170540005,N,Y,41.5979405,-73.4722332
MLS Listing,,Condo/Co-op,1229 Winsted Rd #91,Torrington,CT,06790,170000,2,1.5,Torrington,1226,,1987,1,139,325,Active,,,https://www.redfin.com/CT/Torrington/1229-Winsted-Rd-06790/unit-91/home/107289712,Smart MLS,170538980,N,Y,41.838904,-73.105708
MLS Listing,,Single Family Residential,165 Pineridge Rd,Torrington,CT,06790,329000,4,2.0,Torringford,1614,12632,1949,1,204,,Pre On-Market,December-11-2022 11:00 AM,December-11-2022 01:00 PM,https://www.redfin.com/CT/Torrington/165-Pineridge-Rd-06790/home/107285590,Smart MLS,170528907,N,Y,41.810116,-73.0981004
MLS Listing,,Single Family Residential,33 Lawrenceville St,Kingston,NY,12401,305000,3,1.0,Kingston,1334,5001,1955,1,229,,Active,December-11-2022 11:00 AM,December-11-2022 01:00 PM,https://www.redfin.com/NY/Kingston/33-Lawrenceville-St-12401/home/140426893,OneKey,H6223643,N,Y,41.9556762,-73.9961222
MLS Listing,,Multi-Family (2-4 Unit),58 Maple St,Winchester,CT,06098,188000,3,3.0,Winsted,1803,10454,1880,1,104,,Active,,,https://www.redfin.com/CT/Winsted/58-Maple-St-06098/home/107322992,Smart MLS,170539972,N,Y,41.9198818,-73.0679901
MLS Listing,,Vacant Land,1144 Ashley Falls Rd,Sheffield,MA,01222,399000,,,Berkshire - South,,144489,,1,,,Active,,,https://www.redfin.com/MA/Ashley-Falls/1144-Ashley-Falls-Rd-01222/home/178691658,BCMLS,239434,N,Y,42.0578519,-73.337285
MLS Listing,,Single Family Residential,204 Roosevelt Dr,Poughquag,NY,12570,649000,4,3.5,Poughquag,3965,94525,2002,1,164,152,Active,,,https://www.redfin.com/NY/Poughquag/204-Roosevelt-Dr-12570/home/73372476,OneKey,H6223302,N,Y,41.6155336,-73.6902483
MLS Listing,,Single Family Residential,Lot 9 Jude Dr,Lagrangeville,NY,12540,429000,3,2.5,Fox Meadow,2794,104980,2023,1,154,,Active,,,https://www.redfin.com/NY/Lagrangeville/9-Jude-Dr-12540/home/54865846,OneKey,H6223598,N,Y,41.674706,-73.748558
MLS Listing,,Single Family Residential,95 Aetna Ave,Torrington,CT,06790,250000,3,1.0,Torrington,1448,9583,1950,1,173,,Active,,,https://www.redfin.com/CT/Torrington/95-Aetna-Ave-06790/home/107286705,Smart MLS,170539673,N,Y,41.8013235,-73.1430049
MLS Listing,,Single Family Residential,280 Tinker St,Bearsville,NY,12498,749000,2,1.0,Woodstock,1622,43124,1930,1,462,,Active,,,https://www.redfin.com/NY/Woodstock/280-Tinker-St-12498/home/140669486,HVCRMLS,20223767,N,Y,42.0416079,-74.1522324
MLS Listing,,Single Family Residential,49 High St,Winchester,CT,06098,249900,4,1.5,Winsted,2862,10454,1904,1,87,,Active,,,https://www.redfin.com/CT/Winsted/49-High-St-06098/home/175488634,Smart MLS,170539588,N,Y,41.9225756,-73.0733392
MLS Listing,,Single Family Residential,86 Glendale Ave,Winchester,CT,06098,264900,3,1.5,Winchester,1750,35283,1948,1,151,,Active,,,https://www.redfin.com/CT/Winsted/86-Glendale-Ave-06098/home/107324041,Smart MLS,170539176,N,Y,41.9170511,-73.050789
MLS Listing,,Multi-Family (2-4 Unit),171 Salem St,Esopus,NY,12429,350000,2,3.0,Esopus,1021,6050,1890,1,343,,Active,,,https://www.redfin.com/NY/ESOPUS/171-SALEM-ST-12429/home/140561699,HVCRMLS,20223766,N,Y,41.90609,-73.978881
MLS Listing,,Multi-Family (2-4 Unit),10 Kris Korner Dr,Marlboro,NY,12542,629000,4,4.0,Marlboro,1848,83635,1988,1,340,,Active,,,https://www.redfin.com/NY/Marlboro/10-Kris-Korner-Dr-12542/home/140094792,OneKey,H6223600,N,Y,41.6293272,-73.9574506
MLS Listing,,Vacant Land,00 Sherman Rd,Wawarsing,NY,12489,245000,,,Wawarsing,,2645399,,1,,,Active,,,https://www.redfin.com/NY/Wawarsing/00-Sherman-RD-12489/home/183281962,OneKey,H6223612,N,Y,41.7496976,-74.3572811
MLS Listing,,Condo/Co-op,264 Main St Unit B,Great Barrington,MA,01230,525000,2,1.5,Berkshire - South,1860,,1869,1,282,,Active,,,https://www.redfin.com/MA/Great-Barrington/264-Main-St-01230/unit-B/home/132831405,BCMLS,239432,N,Y,42.1952679,-73.3620506
MLS Listing,,Multi-Family (2-4 Unit),8 Mountain Rd Rd,Rosendale,NY,12472,350000,3,2.0,Rosendale,837,5227,1900,1,418,,Active,,,https://www.redfin.com/NY/Rosendale/8-Mountain-Rd-12472/home/140450875,HVCRMLS,20223765,N,Y,41.8410455,-74.0874039
MLS Listing,,Single Family Residential,127 Spring Lake Rd,Red Hook,NY,12571,159900,3,1.5,Dutchess County,1284,28750,1950,1,125,,Active,,,https://www.redfin.com/NY/Red-Hook/127-Spring-Lake-Rd-12571/home/73370810,MHMLS,412651,N,Y,42.0263983,-73.8346237
MLS Listing,,Vacant Land,Stonecrest Lot 11,Beekman,NY,12533,187500,,,Dutchess County,,104980,,1,,,Active,,,https://www.redfin.com/NY/Hopewell-Junction/11-Stonecrest-Ct-12533/unit-11/home/178493177,MHMLS,412782,N,Y,41.6164883,-73.7408417
MLS Listing,,Vacant Land,Stonecrest Lot 18,Beekman,NY,12533,187500,,,Dutchess County,,108029,,1,,,Active,,,https://www.redfin.com/NY/Hopewell-Junction/18-Stonecrest-Ct-12533/unit-18/home/178493146,MHMLS,412783,N,Y,41.6160999,-73.7391858
MLS Listing,,Vacant Land,Stonecrest Lot 19,Beekman,NY,12533,169500,,,Dutchess County,,94090,,1,,,Active,,,https://www.redfin.com/NY/Hopewell-Junction/19-Stonecrest-Ct-12533/unit-19/home/178493160,MHMLS,412784,N,Y,41.6164883,-73.7408417
MLS Listing,,Condo/Co-op,111 Torringford St #8,Winchester,CT,06098,144900,2,2.0,Winsted,1958,,1987,1,74,270,Active,,,https://www.redfin.com/CT/Winsted/111-Torringford-St-06098/unit-8/home/107322859,Smart MLS,170539772,N,Y,41.9115568,-73.0552337
MLS Listing,,Single Family Residential,152 Pratt St,Winchester,CT,06098,200000,3,1.5,Winsted,1344,13939,1900,1,149,,Active,,,https://www.redfin.com/CT/Winsted/152-Pratt-St-06098/home/107609178,Smart MLS,170539888,N,Y,41.9147792,-73.0741231
MLS Listing,,Vacant Land,Stonecrest Lot 7,Beekman,NY,12533,169500,,,Dutchess County,,50965,,1,,,Active,,,https://www.redfin.com/NY/Hopewell-Junction/7-Stonecrest-Ct-12533/unit-7/home/178493148,MHMLS,412780,N,Y,41.6164883,-73.7408417
MLS Listing,,Vacant Land,123 Dunn Town Rd,Fallsburg,NY,12733,169000,,,Fallsburg,,1937984,,1,,,Active,,,https://www.redfin.com/NY/Fallsburg/123-Dunn-Town-Rd-12733/home/147197195,OneKey,H6223564,N,Y,41.7313608,-74.6021891
MLS Listing,,Vacant Land,Stonecrest Lot 2,Beekman,NY,12533,129500,,,Dutchess County,,62726,,1,,,Active,,,https://www.redfin.com/NY/Hopewell-Junction/2-Stonecrest-Ct-12533/unit-2/home/178493207,MHMLS,412777,N,Y,41.6160999,-73.7391858
MLS Listing,,Vacant Land,Stonecrest Lot 4,Beekman,NY,12533,159500,,,Dutchess County,,50530,,1,,,Active,,,https://www.redfin.com/NY/Hopewell-Junction/4-Stonecrest-Ct-12533/unit-4/home/178493117,MHMLS,412779,N,Y,41.6160999,-73.7391858
MLS Listing,,Single Family Residential,5000 Albany Post Rd,Staatsburg,NY,12580,164900,3,1.0,Staatsburg,1206,26572,1930,1,137,,Active,,,https://www.redfin.com/NY/Staatsburg/5000-US-9-12580/home/92758302,OneKey,H6223562,N,Y,41.8345706,-73.9329281
MLS Listing,,Single Family Residential,71 New Hackensack Rd,Wappingers Falls,NY,12590,375000,2,1.0,Wappingers Falls,900,87120,1923,1,417,,Active,,,https://www.redfin.com/NY/Wappingers-Falls/71-New-Hackensack-Rd-12590/home/54882156,OneKey,H6220311,N,Y,41.6073212,-73.9077073
MLS Listing,,Multi-Family (5+ Unit),1815-1821 Lucas Ave Ext,High Falls,NY,12419,975000,7,4.0,High Falls,5088,,1930,1,192,,Active,,,https://www.redfin.com/NY/Cottekill/1815-Lucas-Avenue-Ext-12419/home/183268315,OneKey,H6220696,N,Y,41.8539598,-74.1062551
MLS Listing,,Mobile/Manufactured Home,1277 Lucas Tpke,Rosendale,NY,12472,59900,3,2.0,Rosendale,1152,21780,2000,1,52,,Active,,,https://www.redfin.com/NY/Rosendale/1277-Lucas-TPKE-12572/home/183261446,HVCRMLS,20223764,N,Y,41.8443125,-74.0810669
MLS Listing,,Single Family Residential,1351 County Route 7,Ancram,NY,12502,340000,4,1.5,Ancram,2800,23958,1848,1,121,,Active,,,https://www.redfin.com/NY/Ancram/1351-County-Route-7-12502/home/183261061,CGNDMLS,144763,N,Y,42.0504474,-73.6379365
MLS Listing,,Vacant Land,0 Tompkins Rd,Taghkanic,NY,12502,279000,,,Taghkanic,438214,438214,,1,1,,Active,,,https://www.redfin.com/NY/COPAKE/TOMPKINS-RD-12502/home/124372632,CGNDMLS,144762,N,Y,42.101154,-73.617594
MLS Listing,,Single Family Residential,4 Fairview Ave,Kingston,NY,12401,99900,2,1.0,"Kingston,city",1152,4791,1942,1,87,,Active,,,https://www.redfin.com/NY/Kingston/4-Fairview-Ave-12401/home/140625071,HVCRMLS,20223743,N,Y,41.9371345,-74.0354056
MLS Listing,,Vacant Land,TBD Beehive Rd Lot 2,Accord,NY,12404,194999,,,Rochester,,246985,,1,,,Active,,,https://www.redfin.com/NY/Accord/TBD-Beehive-Rd-12404/unit-2/home/183239832,HVCRMLS,20223762,N,Y,41.8179219,-74.2960009
MLS Listing,,Vacant Land,TBD Beehive Rd Lot 3,Accord,NY,12404,199999,,,Rochester,,315810,,1,,,Active,,,https://www.redfin.com/NY/Accord/TBD-Beehive-Rd-12404/unit-3/home/183239823,HVCRMLS,20223763,N,Y,41.8179219,-74.2960009
MLS Listing,,Multi-Family (2-4 Unit),280 Maple Ave,Pine Bush,NY,12566,649900,4,4.0,Pine Bush,2818,5502,1900,1,231,,Pre On-Market,,,https://www.redfin.com/NY/Pine-Bush/280-Maple-Ave-12566/home/54993354,OneKey,H6223501,N,Y,41.6122645,-74.2996065
MLS Listing,,Condo/Co-op,604 Commons Lane Ln,Saugerties,NY,12477,285000,2,2.0,Saugerties-Town,1170,435,2015,1,244,,Active,,,https://www.redfin.com/NY/Saugerties/604-Commons-Ln-12477/home/167402868,HVCRMLS,20223761,N,Y,42.0460084,-73.959705
MLS Listing,,Single Family Residential,38 Third Ave,Kingston,NY,12401,225000,3,1.5,"Kingston,city",1188,5662,1892,1,189,,Active,,,https://www.redfin.com/NY/Kingston/38-3rd-Ave-12401/home/140315231,HVCRMLS,20223760,N,Y,41.927772,-73.9814304
MLS Listing,,Single Family Residential,59 Pine Hill Rd,Pleasant Valley,NY,12569,155000,2,1.0,Pleasant Valley,988,69696,1840,2,157,,Active,,,https://www.redfin.com/NY/Pleasant-Valley/59-Pine-Hill-Rd-12569/home/73370126,OneKey,H6222186,N,Y,41.7544916,-73.8047551
MLS Listing,,Single Family Residential,50 Belvedere Lane Ln,Saugerties,NY,12477-4707,299900,4,1.0,Saugerties-Town,1152,6098,1950,2,260,,Active,,,https://www.redfin.com/NY/Saugerties/50-Belvedere-Ln-12477/home/140666389,HVCRMLS,20223758,N,Y,42.01373,-73.9837031
MLS Listing,,Vacant Land,0 Lakeview Dr,Elizaville,NY,12523,59000,,,Elizaville,21780,21780,,2,3,,Active,,,https://www.redfin.com/NY/Elizaville/0-Lakeview-Dr-12523/home/183225639,CGNDMLS,144759,N,Y,42.063261,-73.7977024
MLS Listing,,Single Family Residential,6606 Route 55,Dover,NY,12594,299900,3,1.0,Dutchess County,2300,21780,1940,2,130,,Active,,,https://www.redfin.com/NY/Wingdale/6606-State-Rte-55-12594/home/92750071,MHMLS,412740,N,Y,41.6540135,-73.5459083
MLS Listing,,Single Family Residential,73 River Rd,Saugerties,NY,12477,1649000,5,2.5,Saugerties-Town,1860,46609,1963,2,887,,Active,,,https://www.redfin.com/NY/Saugerties/73-River-Rd-12477/home/140349664,HVCRMLS,20223757,N,Y,42.0935688,-73.9323495
MLS Listing,,Condo/Co-op,1010 Cherry Hill Dr,Poughkeepsie Twp,NY,12603,155000,1,1.0,Dutchess County,925,,1982,2,168,390,Active,December-11-2022 11:00 AM,December-11-2022 01:00 PM,https://www.redfin.com/NY/Arlington/1010-Cherry-Hill-Dr-12603/home/92774956,MHMLS,412751,N,Y,41.703767,-73.880621
MLS Listing,,Single Family Residential,54 Oakwood Blvd,Poughkeepsie,NY,12603,189900,2,1.0,Poughkeepsie,1556,9583,1947,2,122,,Active,,,https://www.redfin.com/NY/Poughkeepsie/54-Oakwood-Blvd-12603/home/92743945,OneKey,H6223446,N,Y,41.6832205,-73.9139142
MLS Listing,,Single Family Residential,6 Robinson Ln,Highland,NY,12528,309000,4,2.0,Highland,1600,52272,1974,2,193,,Active,,,https://www.redfin.com/NY/Highland/6-Robinson-Ln-12528/home/140234546,OneKey,H6222987,N,Y,41.7644049,-74.024444
MLS Listing,,Multi-Family (2-4 Unit),94 Meadowbrook Drive Dr,Lanesville,NY,12480,755000,0,,Greene,1008,56628,1989,2,749,,Active,,,https://www.redfin.com/NY/Lanesville/94-Meadow-Brook-Dr-12450/home/129426185,HVCRMLS,20223753,N,Y,42.1287954,-74.25835
MLS Listing,,Single Family Residential,42 Kuchler Dr,Lagrangeville,NY,12540,1400000,4,3.0,Lagrangeville,3323,425146,2003,2,421,,Active,,,https://www.redfin.com/NY/Lagrangeville/42-Kuchler-Dr-12540/home/54831864,OneKey,H6223436,N,Y,41.665019,-73.78083
MLS Listing,,Vacant Land,N Parliman Rd,Lagrangeville,NY,12540,239000,,,Lagrangeville,,1041084,,2,,,Active,,,https://www.redfin.com/NY/LAGRANGEVILLE/N-PARLIMAN-RD-12540/home/73371709,OneKey,H6222862,N,Y,41.68075,-73.727835
MLS Listing,,Single Family Residential,11 Ridge Rd,Poughkeepsie,NY,12603,320000,3,2.0,Poughkeepsie,1344,31799,1956,2,238,,Active,,,https://www.redfin.com/NY/Arlington/11-Ridge-Rd-12603/home/92774877,OneKey,H6221877,N,Y,41.7043293,-73.8716544
MLS Listing,,Vacant Land,42 Twin Ponds Preserve,Brandon,NY,12966,329000,,,Twin Ponds Preserve,,346737,,2,,,Active,,,https://www.redfin.com/NY/Brandon/42-Twin-Ponds-Preserve-12966/home/183217250,ACVMLS,175468,N,Y,41.921459,-74.025078
MLS Listing,,Vacant Land,45 Twin Ponds Preserve,Brandon,NY,12966,229000,,,Twin Ponds Preserve,,221284,,2,,,Active,,,https://www.redfin.com/NY/Brandon/45-Twin-Ponds-Preserve-12966/home/183217100,ACVMLS,175469,N,Y,41.921234,-74.025452
MLS Listing,,Vacant Land,44 Twin Ponds Preserve,Brandon,NY,12966,349000,,,Twin Ponds Preserve,,264844,,2,,,Active,,,https://www.redfin.com/NY/Brandon/44-Twin-Ponds-Preserve-12966/home/183217091,ACVMLS,175481,N,Y,41.921314,-74.025314
MLS Listing,,Vacant Land,43 Twin Ponds Preserve,Brandon,NY,12966,189000,,,Twin Ponds Preserve,,276606,,2,,,Active,,,https://www.redfin.com/NY/Brandon/43-Twin-Ponds-Preserve-12966/home/183217090,ACVMLS,175479,N,Y,41.921391,-74.025192
MLS Listing,,Vacant Land,46 Twin Ponds Preserve,Brandon,NY,12966,269000,,,Twin Ponds Preserve,,310582,,2,,,Active,,,https://www.redfin.com/NY/Brandon/46-Twin-Ponds-Preserve-12966/home/183217067,ACVMLS,175490,N,Y,41.921234,-74.025452
MLS Listing,,Single Family Residential,351 Libertyville Rd Rd,New Paltz,NY,12561-3732,819000,5,4.0,Gardiner,3176,261360,1985,2,258,,Active,,,https://www.redfin.com/NY/New-Paltz/351-Libertyville-Rd-12561/home/140102044,HVCRMLS,20223752,N,Y,41.7211244,-74.1380574
MLS Listing,,Multi-Family (2-4 Unit),32 N Main Rd,Otis,MA,01253,350000,4,2.0,Berkshire - South,1728,78408,1900,2,203,,Active,,,https://www.redfin.com/MA/Otis/32-N-Main-Rd-01253/home/134076376,BCMLS,239427,N,Y,42.1942784,-73.091553
MLS Listing,,Condo/Co-op,6507 Chelsea Cv N,Hopewell Junction,NY,12533,300000,2,2.5,Chelsea Cove,1298,436,1987,2,231,,Active,,,https://www.redfin.com/NY/Hopewell-Junction/6507-Chelsea-Cv-N-12533/home/92746397,OneKey,H6223266,N,Y,41.6159115,-73.7478546
MLS Listing,,Single Family Residential,77 Hollenbeck Rd,Cornwall,CT,06031,449000,3,3.0,Cornwall,2716,74052,1971,2,165,,Active,,,https://www.redfin.com/CT/Falls-Village/77-Hollenbeck-Rd-06031/home/107275227,Smart MLS,170539672,N,Y,41.9075529,-73.2718598
MLS Listing,,Multi-Family (2-4 Unit),29 Broadway,Fallsburg,NY,12733,348900,10,4.0,Fallsburg,5430,11326,1945,2,64,,Active,,,https://www.redfin.com/NY/Fallsburg/29-Broadway-12733/home/138888500,OneKey,H6223174,N,Y,41.708699,-74.5723704
MLS Listing,,Single Family Residential,355 Segar Mountain Rd,Kent,CT,06785,350000,3,2.0,Kent,1970,60983,1977,2,178,,Active,,,https://www.redfin.com/CT/South-Kent/355-Segar-Mountain-Rd-06785/home/107315978,Smart MLS,170539525,N,Y,41.7231538,-73.4221878
MLS Listing,,Condo/Co-op,244 Ledge Dr,Torrington,CT,06790,169900,3,2.0,Burrville,1410,,1976,2,120,300,Active,,,https://www.redfin.com/CT/Torrington/244-Ledge-Dr-06790/home/107295992,Smart MLS,170539602,N,Y,41.8777749,-73.1106585
MLS Listing,,Single Family Residential,1763 Torringford St,Torrington,CT,06790,239000,3,1.0,Torrington,1586,22651,1946,3,151,,Active,December-10-2022 12:00 PM,December-10-2022 02:00 PM,https://www.redfin.com/CT/Torrington/1763-Torringford-St-06790/home/107296798,Smart MLS,170537767,N,Y,41.8355331,-73.0773971
MLS Listing,,Single Family Residential,5 Kimberly Dr,Rhinebeck,NY,12572,465000,3,2.0,Dutchess County,3000,95832,1976,3,155,,Active,,,https://www.redfin.com/NY/Rhinebeck/5-Kimberly-Dr-12572/home/54856281,MHMLS,412745,N,Y,41.9681004,-73.8364157
MLS Listing,,Single Family Residential,174 Mountain Rd,Pleasant Valley,NY,12569,249000,2,2.0,Pleasant Valley,1226,16988,1850,3,203,,Pre On-Market,,,https://www.redfin.com/NY/Pleasant-Valley/174-Mountain-Rd-12569/home/73361760,OneKey,H6223374,N,Y,41.7027157,-73.7751579
MLS Listing,,Single Family Residential,16 Sommerfield Dr,Wallkill,NY,12589,314900,4,2.5,Wallkill,2866,47916,1990,3,110,,Active,,,https://www.redfin.com/NY/Wallkill/16-Sommerfield-Dr-12589/home/72583067,CGNDMLS,144749,N,Y,41.5857712,-74.1201192
MLS Listing,,Single Family Residential,180 Forest St,Lee,MA,01238,299000,4,2.0,Lee,1569,7405,1700,3,191,,Active,,,https://www.redfin.com/MA/Lee/180-Forest-St-01238/home/133425187,MLS PIN,73063322,N,Y,42.292678,-73.2210825
MLS Listing,,Multi-Family (2-4 Unit),132 Prospect St,Kingston,NY,12401,349000,3,2.0,Kingston,1498,3202,1898,3,233,,Active,,,https://www.redfin.com/NY/Kingston/132-Prospect-St-12401/home/140432514,OneKey,H6223349,N,Y,41.9307332,-74.0108128
MLS Listing,,Multi-Family (2-4 Unit),129 Prospect St,Kingston,NY,12401,375000,2,2.0,Kingston,1633,,1890,3,230,,Active,,,https://www.redfin.com/NY/Kingston/129-Prospect-St-12401/home/140432918,OneKey,H6223345,N,Y,41.930528,-74.0110309
MLS Listing,,Single Family Residential,54 Eastwood Rd,Torrington,CT,06790,179900,3,1.0,Torrington,1377,4791,1930,3,131,,Active,,,https://www.redfin.com/CT/Torrington/54-Eastwood-Rd-06790/home/107296122,Smart MLS,170539430,N,Y,41.8153756,-73.1189401
MLS Listing,,Vacant Land,TBD S Ohioville Rd,Clintondale,NY,12515,99000,,,Clintondale,,304920,,3,,,Active,,,https://www.redfin.com/NY/Clintondale/TBD-S-Ohioville-Rd-12515/home/176664245,OneKey,H6222866,N,Y,41.689998,-74.083479
MLS Listing,,Multi-Family (2-4 Unit),187 Greenwoods Rd W,Norfolk,CT,06058,289900,7,2.0,Norfolk,2631,13939,1900,3,110,,Active,,,https://www.redfin.com/CT/Norfolk-Historic-District/187-Greenwoods-Rd-W-06058/home/107274784,Smart MLS,170539555,N,Y,41.9969638,-73.2115432
MLS Listing,,Single Family Residential,87 Heights Dr,Torrington,CT,06790,249000,3,1.5,Torrington,1700,13068,1976,3,146,,Active,,,https://www.redfin.com/CT/Torrington/87-Heights-Dr-06790/home/107296762,Smart MLS,170539428,N,Y,41.799874,-73.1451715
MLS Listing,,Single Family Residential,314 Northfield Rd,Litchfield,CT,06759,295000,2,2.0,Northfield,1316,87120,1800,3,224,,Active,,,https://www.redfin.com/CT/Litchfield/314-Northfield-Rd-06759/home/107168119,Smart MLS,170539168,N,Y,41.7196931,-73.1437425
MLS Listing,,Vacant Land,A Newfield and Barbaret Rd,Torrington,CT,06790,39900,,,Newfield,,120225,,3,,,Active,,,https://www.redfin.com/CT/Torrington/A-Newfield-Rd-06790/home/173491289,Smart MLS,170539528,N,Y,41.870788,-73.136663
MLS Listing,,Single Family Residential,6 Livingston St,Red Hook,NY,12571,899600,2,2.5,Red Hook,1496,5663,2020,3,601,321,Active,December-10-2022 11:00 AM,December-10-2022 01:00 PM,https://www.redfin.com/NY/Red-Hook/6-Livingston-St-12571/home/171238364,OneKey,H6222613,N,Y,41.9844667,-73.8848386
MLS Listing,,Vacant Land,593 Acorn Hill Rd,Olivebridge,NY,12461,169000,,,Olivebridge,,131116,,3,,,Active,,,https://www.redfin.com/NY/Olivebridge/593-Acorn-Hill-Rd-12461/home/183186952,OneKey,H6223055,N,Y,41.8928792,-74.2473452
MLS Listing,,Single Family Residential,646 Milton Tpke,Highland,NY,12528,319000,3,1.0,Highland,1350,111514,1950,3,236,,Active,,,https://www.redfin.com/NY/Highland/646-Milton-Tpke-12528/home/140128758,OneKey,H6223259,N,Y,41.6658459,-74.0263171
MLS Listing,,Single Family Residential,159 Roberts St,Torrington,CT,06790,164900,2,1.0,Torrington,1622,17859,1930,3,102,,Active,,,https://www.redfin.com/CT/Torrington/159-Roberts-St-06790/home/107288572,Smart MLS,170539478,N,Y,41.8069253,-73.1410687
MLS Listing,,Ranch,979981 Shunpike,Washington,NY,12545,1500000,4,2.0,Dutchess County,2600,914760,1870,3,577,,Active,,,https://www.redfin.com/NY/Millbrook/979981-Shunpike-12545/home/183186853,MHMLS,412727,N,Y,41.84201,-73.65703
MLS Listing,,Single Family Residential,3 Thayer Lane Ln,Red Hook,NY,12571,299900,3,2.0,Dutchess,1608,45738,1987,3,187,,Active,,,https://www.redfin.com/NY/Red-Hook/3-Thayer-Ln-12571/home/54856434,HVCRMLS,20223741,N,Y,42.0146331,-73.8836443
MLS Listing,,Vacant Land,55 Maple St,Lee,MA,01238,104900,,,Berkshire - South,,43996,,3,,,Active,,,https://www.redfin.com/MA/Lee/55-Maple-St-01238/home/133453366,BCMLS,239419,N,Y,42.3036727,-73.2438996
MLS Listing,,Single Family Residential,6665 St Hway 42 N,Woodbourne,NY,12788,240000,3,1.0,Woodbourne,1300,82764,1957,4,185,,Active,,,https://www.redfin.com/NY/Woodbourne/6665-New-York-42-12788/home/183184009,OneKey,H6223239,N,Y,41.7833215,-74.5842002
MLS Listing,,Single Family Residential,509 Ulster Heights Rd,Ellenville,NY,12428,575000,4,2.5,Ellenville,2744,47480,1940,4,210,,Active,,,https://www.redfin.com/NY/Ellenville/509-Ulster-Heights-Rd-12428/home/140667742,OneKey,H6223238,N,Y,41.7437782,-74.428312
MLS Listing,,Single Family Residential,95 Lower Post Rd,Ghent,NY,12075,1225000,4,2.0,Ghent,2941,1587762,1898,4,417,,Active,,,https://www.redfin.com/NY/Ghent/95-Lower-Post-Rd-12075/home/124401223,CGNDMLS,144743,N,Y,42.293552,-73.720442
MLS Listing,,Single Family Residential,7675 Main St Unit B-14,Hunter,NY,12442,219000,1,2.0,Hunter,547,448,1987,4,400,,Active,,,https://www.redfin.com/NY/Hunter/7675-Main-ST-12442/unit-B-14/home/181765942,CGNDMLS,144730,N,Y,42.205986,-74.204889
MLS Listing,,Single Family Residential,121 Lawrence Ln,Torrington,CT,06790,229900,4,2.0,N/A,1927,13068,1982,4,119,,Active,,,https://www.redfin.com/CT/Torrington/121-Lawrence-Ln-06790/home/107288862,Smart MLS,170539419,N,Y,41.7977944,-73.1441573
MLS Listing,,Single Family Residential,181 Fairlawn Dr,Torrington,CT,06790,379900,3,2.5,Torrington,1951,20037,1955,4,195,,Pre On-Market,,,https://www.redfin.com/CT/Torrington/181-Fairlawn-Dr-06790/home/107285109,Smart MLS,170539416,N,Y,41.8027902,-73.0976739
MLS Listing,,Single Family Residential,10 Hanscom Ave,Poughkeepsie,NY,12601,369000,4,2.0,Poughkeepsie,2122,9583,1900,4,174,,Pre On-Market,,,https://www.redfin.com/NY/Poughkeepsie/10-Hanscom-Ave-12601/home/92742671,OneKey,H6222856,N,Y,41.695398,-73.9210332
MLS Listing,,Townhouse,57 Edelweiss Dr,Woodridge,NY,12789,205000,2,3.5,Davos / The Woods,1456,2178,1989,4,141,,Active,,,https://www.redfin.com/NY/Woodridge/57-Edelweiss-Dr-12789/home/138893523,OneKey,H6223193,N,Y,41.6994275,-74.5827472
MLS Listing,,Single Family Residential,33 Hillcrest Ave,Watertown,CT,06779,165000,3,2.0,Oakville,1152,11325,1950,4,143,,Active,,,https://www.redfin.com/CT/Oakville/33-Hillcrest-Ave-06779/home/107314390,Smart MLS,170539302,N,Y,41.5929311,-73.0927979
MLS Listing,,Condo/Co-op,422 Gregory Ct,Highland,NY,12528,239000,2,2.0,Woods At Bridgeview,1027,436,1991,4,233,250,Active,,,https://www.redfin.com/NY/Highland/422-Gregory-Ct-12528/home/140326735,OneKey,H6223108,N,Y,41.7009398,-73.9641237
MLS Listing,,Single Family Residential,351 Lake Shore Dr,Pine Bush,NY,12566,299900,4,2.0,Pine Bush,1408,8803,1940,4,213,,Active,,,https://www.redfin.com/NY/Pine-Bush/351-Lake-Shore-Dr-12566/home/140240965,OneKey,H6223048,N,Y,41.6062191,-74.347922
MLS Listing,,Single Family Residential,64 Hunt Rd,Wallkill,NY,12589,200000,4,3.5,Wallkill,3570,74052,1990,4,56,,Active,,,https://www.redfin.com/NY/Wallkill/64-Hunt-Rd-12589/home/140113397,OneKey,H6223134,N,Y,41.6188591,-74.093461
MLS Listing,,Single Family Residential,20 Wynkoop Ln,V. Rhinebeck,NY,12572,695000,4,2.5,Dutchess County,3480,41382,1975,4,200,,Active,,,https://www.redfin.com/NY/Rhinebeck/20-Wynkoop-Ln-12572/home/92777697,MHMLS,412723,N,Y,41.932141,-73.8975626
MLS Listing,,Ranch,468 Snydertown Rd,Claverack,NY,12513,374999,,,Craryville,,1498464,,4,,,Active,,,https://www.redfin.com/NY/Claverack/468-Snydertown-RD-12513/home/183177581,Global MLS,202230841,N,Y,42.173594,-73.670842
MLS Listing,,Ranch,0 Shookville Rd,Milan,NY,12571,499000,,,Red Hook,,443876,,4,,,Active,,,https://www.redfin.com/NY/Milan/Shookville-Rd-12571/home/92764725,Global MLS,202230839,N,Y,42.00191,-73.803079
MLS Listing,,Single Family Residential,9 Crosmour Dr,V. Rhinebeck,NY,12572,750000,3,1.0,Dutchess County,1186,13939,1957,4,632,,Active,,,https://www.redfin.com/NY/Rhinebeck/9-Crosmour-Dr-12572/home/92777711,MHMLS,412715,N,Y,41.9295425,-73.8991358
MLS Listing,,Vacant Land,State Route 55,Highland,NY,12528,19900,,,Highland,,57064,,4,,,Active,,,https://www.redfin.com/NY/Highland/State-Route-55-Unknown/home/173197968,OneKey,H6223037,N,Y,41.7188648,-73.9647483
MLS Listing,,Vacant Land,00 Old Rt 23,Cairo,NY,12413,34900,,,Cairo,,47916,,4,,,Active,,,https://www.redfin.com/NY/Cairo/0-Old-Route-23-12413/home/183175959,Global MLS,202230836,N,Y,42.3038318,-74.0321802
MLS Listing,,Multi-Family (2-4 Unit),1180 Ashley Falls Rd,Sheffield,MA,01222,699000,3,3.5,Berkshire - South,4044,10890,1860,4,173,,Active,,,https://www.redfin.com/MA/Ashley-Falls/1180-Ashley-Falls-Rd-01222/home/135086966,BCMLS,239414,N,Y,42.0563014,-73.3355684
MLS Listing,,Single Family Residential,7 Brady Pl,Poughkeepsie,NY,12601,325000,3,2.0,Poughkeepsie,1000,6098,1947,4,325,,Active,,,https://www.redfin.com/NY/Poughkeepsie/7-Brady-Pl-12601/home/76392173,OneKey,H6222921,N,Y,41.7332505,-73.9106532
MLS Listing,,Single Family Residential,134 Colorado Ave N,Torrington,CT,06790,219900,3,1.5,Torrington,1632,12196,1973,4,135,,Active,,,https://www.redfin.com/CT/Torrington/134-Colorado-Ave-N-06790/home/107293567,Smart MLS,170538873,N,Y,41.8009346,-73.1381645
MLS Listing,,Vacant Land,11 Applewood Ln,Cornwall,CT,06754,75000,,,Cornwall Bridge,,248292,,4,,63,Active,,,https://www.redfin.com/CT/CORNWALL-BRIDGE/11-APPLEWOOD-LN-06754/home/107275239,Smart MLS,170539236,N,Y,41.808528,-73.374981
MLS Listing,,Single Family Residential,5571 Cauterskill Rd,Catskill,NY,12414,425000,3,1.5,Greene,2320,49222,1980,4,183,,Active,,,https://www.redfin.com/NY/Catskill/5571-Cauterskill-Rd-12414/home/183174471,HVCRMLS,20223735,N,Y,42.2348121,-73.9013291
MLS Listing,,Single Family Residential,32 Maurizi Ln,Woodstock,NY,12498,1199000,4,3.5,Woodstock,3310,56192,2022,4,362,,Active,December-10-2022 01:00 PM,December-10-2022 03:00 PM,https://www.redfin.com/NY/Woodstock/32-Maurizi-Ln-12498/home/140556625,HVCRMLS,20223734,N,Y,42.0217142,-74.0839164
MLS Listing,,Vacant Land,TBD Vista Maria/Cragsmoor Rd,Cragsmoor,NY,12420,495000,,,Wawarsing,,1367784,,4,,,Active,,,https://www.redfin.com/NY/Cragsmoor/TBD-Vista-Maria-Rd-12566/home/183174362,HVCRMLS,20223733,N,Y,41.661561,-74.382828
MLS Listing,,Vacant Land,Vista Maria/cragsmoor Rd,Cragsmoor,NY,12420,495000,,,Cragsmoor,,1367784,,4,,,Active,,,https://www.redfin.com/NY/PINE-BUSH/VISTA-MARIA-RD-12566/home/140504350,OneKey,H6223069,N,Y,41.651239,-74.380261
MLS Listing,,Single Family Residential,33 Tannery Brook Rd,Woodstock,NY,12498,1199000,4,4.0,Woodstock,1811,8712,1870,4,662,,Active,December-10-2022 01:00 PM,December-10-2022 03:00 PM,https://www.redfin.com/NY/Woodstock/33-Tannery-Brook-Rd-12498/home/140670002,HVCRMLS,20223732,N,Y,42.0381045,-74.1181004
MLS Listing,,Single Family Residential,6 Indian Ln,Poughkeepsie,NY,12603,389900,2,2.0,Poughkeepsie,1415,15246,1910,4,276,,Active,December-11-2022 12:00 PM,December-11-2022 02:00 PM,https://www.redfin.com/NY/Poughkeepsie/6-Indian-Ln-12603/home/73378094,OneKey,H6223096,N,Y,41.6778599,-73.9261169
MLS Listing,,Multi-Family (2-4 Unit),57 Smith St,Poughkeepsie City,NY,12601,275000,,,Dutchess County,2112,3485,1910,4,130,,Active,,,https://www.redfin.com/NY/Poughkeepsie/57-Smith-St-12601/home/73367078,MHMLS,412717,N,Y,41.7041914,-73.9180478
MLS Listing,,Vacant Land,120 Dibble Hill Rd,Cornwall,CT,06796,229000,,,Dibble Hill,,230868,,4,,,Active,,,https://www.redfin.com/CT/West-Cornwall/120-Dibble-Hill-Rd-06796/home/107275833,Smart MLS,170537897,N,Y,41.8575203,-73.3470092
MLS Listing,,Single Family Residential,122 Cream St,Hyde Park,NY,12601,749000,2,1.5,Dutchess County,3940,940896,1966,5,190,,Active,December-11-2022 01:00 PM,December-11-2022 04:00 PM,https://www.redfin.com/NY/Poughkeepsie/122-Cream-St-12601/home/183170218,MHMLS,412663,N,Y,41.778672,-73.883482
MLS Listing,,Vacant Land,Cream St,Poughkeepsie Twp,NY,12601,499000,,,Dutchess County,,2134440,,5,,,Active,,,https://www.redfin.com/NY/POUGHKEEPSIE/CREAM-ST-12601/home/92737307,MHMLS,412666,N,Y,41.754683,-73.880802
MLS Listing,,Single Family Residential,3 Elm St,Red Hook,NY,12571,625000,4,2.5,Lindon Acres,2600,29621,1965,5,240,,Active,,,https://www.redfin.com/NY/Red-Hook/3-Elm-St-12571/home/92776685,MHMLS,412716,N,Y,42.0127769,-73.8880541
MLS Listing,,Single Family Residential,7 Dublin Ln,Poughkeepsie,NY,12603,439000,3,2.0,Ireland Estates,2124,24829,1956,5,207,,Pre On-Market,,,https://www.redfin.com/NY/Arlington/7-Dublin-Ln-12603/home/73378280,OneKey,H6222111,N,Y,41.6946409,-73.8789587
MLS Listing,,Single Family Residential,919 N Quaker Hill Rd,Pawling,NY,12564,695000,3,3.0,Pawling,2435,269201,1987,5,285,,Active,,,https://www.redfin.com/NY/Pawling/919-N-Quaker-Hill-Rd-12564/home/54878541,OneKey,H6223082,N,Y,41.614714,-73.529316
MLS Listing,,Single Family Residential,12 Ronnie Ln,Poughkeepsie Twp,NY,12603,399000,3,2.5,Country Club Estates,1876,43560,1965,5,213,,Active,,,https://www.redfin.com/NY/Poughkeepsie/12-Ronnie-Ln-12601/home/92771005,MHMLS,412630,N,Y,41.631726,-73.909511
MLS Listing,,Multi-Family (2-4 Unit),178 Main Street St,Catskill,NY,12414,340000,4,2.0,Greene,,3049,1910,5,,,Active,,,https://www.redfin.com/NY/Catskill/178-Main-St-12414/home/183169046,HVCRMLS,20223731,N,Y,42.213853,-73.8606286
MLS Listing,,Single Family Residential,628 New Paltz Rd,Highland,NY,12528,399000,3,2.0,Highland,1375,25265,1991,5,290,,Active,,,https://www.redfin.com/NY/Highland/628-New-Paltz-Rd-12528/home/140572447,OneKey,H6223075,N,Y,41.739795,-74.0199824
MLS Listing,,Single Family Residential,66 Budd Ln,North East,NY,12546,300000,2,1.0,Dutchess County,1824,224334,1975,5,164,,Active,,,https://www.redfin.com/NY/Millerton/66-Budd-Ln-12546/home/73380844,MHMLS,412713,N,Y,41.981764,-73.525617
MLS Listing,,Townhouse,1 Winterthur Rd,Woodridge,NY,12789,205000,2,2.5,Woodridge,1728,3646,1986,5,119,,Active,,,https://www.redfin.com/NY/Woodridge/1-Winterthur-Rd-12789/home/138913149,OneKey,H6222841,N,Y,41.6962713,-74.5845302
MLS Listing,,Single Family Residential,251 Riverside St,Watertown,CT,06779,165000,3,1.0,Oakville,1034,10018,1920,5,160,,Active,,,https://www.redfin.com/CT/Oakville/251-Riverside-St-06779/home/107310561,Smart MLS,170537871,N,Y,41.5926306,-73.0948267
MLS Listing,,Multi-Family (2-4 Unit),316 Park Ave,Torrington,CT,06790,259900,6,2.0,Torrington,2220,3484,1900,5,117,,Active,,,https://www.redfin.com/CT/Torrington/316-Park-Ave-06790/home/107284986,Smart MLS,170539156,N,Y,41.7936472,-73.1183869
MLS Listing,,Single Family Residential,93 Summit St,Hudson,NY,12534,249900,3,1.0,Hudson,1047,37462,1952,5,239,,Active,,,https://www.redfin.com/NY/Hudson/93-Summit-St-12534/home/181767305,CGNDMLS,144728,N,Y,42.238683,-73.644904
MLS Listing,,Single Family Residential,22 Thornwood Dr,Poughkeepsie City,NY,12603,489000,3,3.0,Dutchess County,2570,22651,1958,6,190,,Active,,,https://www.redfin.com/NY/Poughkeepsie/22-Thornwood-Dr-12603/home/73374133,MHMLS,412647,N,Y,41.679299,-73.9158203
MLS Listing,,Single Family Residential,25 Temby Dr,Dover Plains,NY,12522,475000,4,2.5,Dover Plains,2101,52272,2017,6,226,,Active,,,https://www.redfin.com/NY/Dover-Plains/25-Temby-Dr-12522/home/54853122,OneKey,H6223025,N,Y,41.699357,-73.57321
MLS Listing,,Single Family Residential,36 Hazelwood Rd S,Wurtsboro,NY,12790,50000,2,1.0,Wurtsboro,631,7841,1967,6,79,,Active,,,https://www.redfin.com/NY/Wurtsboro/36-Hazelwood-Rd-S-12790/home/138870293,OneKey,H6223047,N,Y,41.5906,-74.4992457
MLS Listing,,Single Family Residential,53 High Falls Road Ext,Catskill,NY,12414,30000,1,1.0,Catskill,816,13068,1975,6,37,,Active,,,https://www.redfin.com/NY/Catskill/53-High-Falls-Road-Ext-12414/home/183162253,CGNDMLS,144727,N,Y,42.197911,-73.961031
MLS Listing,,Single Family Residential,386 Willow Glen Rd,Milan,NY,12571,395000,3,3.0,Dutchess County,2168,82764,2003,6,182,,Active,,,https://www.redfin.com/NY/Red-Hook/386-Willow-Glen-Rd-12571/home/92765401,MHMLS,412648,N,Y,42.0060311,-73.7472111
MLS Listing,,Vacant Land,Sunrise Dr Lot 6,Red Hook,NY,12571,145000,,,Dutchess County,,56628,,6,,,Active,,,https://www.redfin.com/NY/Red-Hook/6-Sunrise-Dr-12571/unit-6/home/183161854,MHMLS,412692,N,Y,41.9774396,-73.8536536
MLS Listing,,Condo/Co-op,313 Crystal Hill Ln,Poughkeepsie City,NY,12603,265000,2,2.0,Dutchess County,1336,,2004,6,198,380,Active,,,https://www.redfin.com/NY/Poughkeepsie/313-Crystal-Hill-Ln-12603/home/92736468,MHMLS,412703,N,Y,41.678926,-73.90836
MLS Listing,,Single Family Residential,621 Decker Rd,Wallkill,NY,12589,649900,4,3.5,Wallkill,2700,291852,2022,6,241,,Active,,,https://www.redfin.com/NY/Wallkill/621-Decker-Rd-12589/home/180541067,OneKey,H6223012,N,Y,41.6627898,-74.2695805
MLS Listing,,Multi-Family (2-4 Unit),288-290 Baileys Gap Rd,Highland,NY,12528,548900,4,4.0,Highland,2478,102366,2009,6,222,,Active,,,https://www.redfin.com/NY/Highland/288-Baileys-Gap-Rd-12528/home/113598522,OneKey,H6222464,N,Y,41.6956673,-74.0123877
MLS Listing,,Single Family Residential,10 van Siclen Dr,Poughkeepsie Twp,NY,12601,354900,2,1.5,Dutchess County,2509,25700,1950,7,141,,Active,,,https://www.redfin.com/NY/Poughkeepsie/10-Van-Siclen-Dr-12601/home/54875529,MHMLS,412702,N,Y,41.6630082,-73.932377
MLS Listing,,Single Family Residential,1025 Plattekill Ardonia Rd,Clintondale,NY,12515,459900,4,3.0,Clintondale,2200,40075,2023,7,209,,Active,,,https://www.redfin.com/NY/Clintondale/1025-Plattekill-Ardonia-Rd-12515/home/140711414,OneKey,H6223002,N,Y,41.6738832,-74.0785206
MLS Listing,,Multi-Family (2-4 Unit),26 Rock City Rd,Milan,NY,12571,449000,4,2.0,Dutchess County,2360,12632,1900,7,190,,Active,,,https://www.redfin.com/NY/Red-Hook/26-Rock-City-Rd-12571/home/92764680,MHMLS,412660,N,Y,41.9722629,-73.8205171
MLS Listing,,Single Family Residential,51 Maple Ave,Germantown,NY,12526,2600000,4,,Germantown,3067,47916,1790,7,848,,Active,,,https://www.redfin.com/NY/Germantown/51-Maple-Ave-12526/home/124198011,CGNDMLS,144719,N,Y,42.1411578,-73.8825877
MLS Listing,,Single Family Residential,0 County Route 10,Taghkanic,NY,12502,1400000,,1.0,Taghkanic,1200,7579440,1995,7,1167,,Active,,,https://www.redfin.com/NY/ANCRAM/COUNTY-ROUTE-10-12502/home/124126996,CGNDMLS,144725,N,Y,42.127548,-73.695028
MLS Listing,,Single Family Residential,268 State Route 32 S,New Paltz,NY,12561,224900,3,1.0,New Paltz,1276,26136,1955,7,176,,Active,,,https://www.redfin.com/NY/New-Paltz/268-State-Rte-32-S-12561/home/140654998,OneKey,H6222986,N,Y,41.7116862,-74.0864705
MLS Listing,,Single Family Residential,0 County Rte 10,Taghkanic,NY,12504,1400000,0,1.0,Taghkanic,1200,7579440,1995,7,1167,,Active,,,https://www.redfin.com/NY/Taghkanic/0-County-Rte-10-12504/home/183151897,Global MLS,202230784,N,Y,42.122723,-73.707508
MLS Listing,,Single Family Residential,856 Sawkill Rd,Kingston,NY,12401,249900,3,1.5,"Kingston,town",1252,43560,1973,7,200,,Active,,,https://www.redfin.com/NY/Kingston/856-Sawkill-Rd-12401/home/140157423,HVCRMLS,20223727,N,Y,41.9854234,-74.0296221
MLS Listing,,Single Family Residential,1023 Plattekill Ardonia Rd,Clintondale,NY,12515,459900,4,3.0,Clintondale,2200,39640,2022,7,209,,Active,,,https://www.redfin.com/NY/Clintondale/1023-Plattekill-Ardonia-Rd-12515/home/140711423,OneKey,H6222985,N,Y,41.6734536,-74.0786152
MLS Listing,,Single Family Residential,251 Harmony Hill Rd,Harwinton,CT,06791,579000,4,2.5,Center,2927,186001,1860,7,198,,Active,December-11-2022 01:00 PM,December-11-2022 03:00 PM,https://www.redfin.com/CT/Harwinton/251-Harmony-Hill-Rd-06791/home/107253876,Smart MLS,170538399,N,Y,41.7882396,-73.0515182
MLS Listing,,Multi-Family (2-4 Unit),66 Spook Hole Rd,Ellenville,NY,12428,815000,5,2.5,Ellenville,1532,2726856,1930,7,532,,Active,,,https://www.redfin.com/NY/Ellenville/66-Spook-Hole-Rd-12428/home/140489698,OneKey,H6222976,N,Y,41.7711748,-74.4602726
MLS Listing,,Single Family Residential,60 Willa Ln Ln,Chichester,NY,12416,100000,2,1.0,Shandaken,576,15681,1966,7,174,,Active,,,https://www.redfin.com/NY/Chichester/60-Willa-Ln-12416/home/140583763,HVCRMLS,20223726,N,Y,42.1080218,-74.2947364
MLS Listing,,Single Family Residential,15 Podmijersky Rd,Hudson,NY,12534,319000,,,Hudson,2384,29185,1960,7,134,,Active,,,https://www.redfin.com/NY/Hudson/15-Podmijersky-Rd-12534/home/124072664,CGNDMLS,144723,N,Y,42.1752508,-73.7643565
MLS Listing,,Single Family Residential,125 Main Street St,Saugerties,NY,12477,749000,4,1.5,Saugerties-Town,2941,9147,1900,7,255,,Active,,,https://www.redfin.com/NY/Saugerties/125-Main-St-12477/home/140343798,HVCRMLS,20223725,N,Y,42.0789641,-73.94969
MLS Listing,,Condo/Co-op,5 Coll Hollow Rd,Poughkeepsie,NY,12601,155000,3,1.0,Green Fields East,880,1742,1975,7,176,,Active,,,https://www.redfin.com/NY/Poughkeepsie/5-Coll-Hollow-Rd-12601/home/73354404,OneKey,H6221641,N,Y,41.7684264,-73.8712687
MLS Listing,,Single Family Residential,15 Mayflower Ave,Dover Plains,NY,12522,209000,3,1.0,Dover Plains,1207,21344,1969,7,173,,Active,,,https://www.redfin.com/NY/Dover-Plains/15-Mayflower-Ave-12522/home/54879328,OneKey,H6222969,N,Y,41.6999637,-73.5810596
MLS Listing,,Single Family Residential,227 Lindorf St St,Ulster Park,NY,12487,189900,3,1.5,Esopus,2122,17859,1969,7,89,,Active,,,https://www.redfin.com/NY/Ulster-Park/227-Lindorf-St-12487/home/140499093,HVCRMLS,20222998,N,Y,41.8924623,-73.9816485
MLS Listing,,Single Family Residential,67 Route 385 Unit L,Catskill,NY,12414,575000,3,1.0,Catskill,1116,200376,1930,7,515,,Active,,,https://www.redfin.com/NY/Catskill/67-NY-385-12414/unit-L/home/129433663,CGNDMLS,144721,N,Y,42.2311282,-73.8618691
MLS Listing,,Single Family Residential,120 Fire House Rd,Fallsburg,NY,12733,290000,3,2.0,Fallsburg,1560,906048,1920,7,186,,Active,,,https://www.redfin.com/NY/Fallsburg/120-Firehouse-Rd-12788/home/138893062,OneKey,H6204313,N,Y,41.7547558,-74.5752764
MLS Listing,,Single Family Residential,1547 State Route 23,Taghkanic,NY,12521,549000,3,2.5,Taghkanic,2560,217800,1850,7,214,,Active,,,https://www.redfin.com/NY/Craryville/1547-NY-23-12521/home/124408198,CGNDMLS,144661,N,Y,42.1787108,-73.6017425
MLS Listing,,Single Family Residential,11 Spruce Ln,Catskill,NY,12414,315000,4,2.0,Catskill,1864,43560,1986,7,169,,Active,,,https://www.redfin.com/NY/Catskill/11-Spruce-Ln-12414/home/183148624,CGNDMLS,144710,N,Y,42.1680652,-73.9445009
MLS Listing,,Vacant Land,0 Lot 00 Vega Mountain Rd,Roxbury,NY,12474,75000,,,Roxbury,,307969,,7,,,Active,,,https://www.redfin.com/NY/Roxbury/0-Lot-00-Vega-Mountain-RD-12474/home/183148532,ODBOR,137153,N,Y,42.254256,-74.544711
MLS Listing,,Vacant Land,Chestnut Ridge Rd,Dover Plains,NY,12522,850000,,,Dover Plains,,3206887,,7,,,Active,,,https://www.redfin.com/NY/DOVER-PLAINS/CHESTNUT-RIDGE-RD-12522/home/92736347,OneKey,H6222938,N,Y,41.764675,-73.641213
MLS Listing,,Single Family Residential,827 Route 217,Claverack,NY,12565,199000,3,1.0,Claverack,1080,10890,1840,7,184,,Active,,,https://www.redfin.com/NY/CLAVERACK/827-ROUTE-217-12513/home/124195060,CGNDMLS,144708,N,Y,42.248991,-73.658716
MLS Listing,,Multi-Family (2-4 Unit),68 Spook Hole Rd,Ellenville,NY,12428,815000,5,4.0,Wawarsing,1532,2722500,1930,7,532,,Active,,,https://www.redfin.com/NY/Ellenville/68-Spook-Hole-Rd-12428/home/183148283,HVCRMLS,20223724,N,Y,41.7703512,-74.460861
MLS Listing,,Single Family Residential,453 Cooper St,Accord,NY,12404,869000,2,2.5,Marbletown,1439,93218,1890,7,604,,Active,,,https://www.redfin.com/NY/Accord/453-Cooper-St-12404/home/140272598,HVCRMLS,20223723,N,Y,41.838944,-74.1987422
MLS Listing,,Multi-Family (2-4 Unit),75 Livingston Street St,Saugerties,NY,12477,269000,4,2.0,Saugerties-Vlg,893,4356,1875,7,301,,Active,,,https://www.redfin.com/NY/Saugerties/75-Livingston-St-12477/home/183148118,HVCRMLS,20223722,N,Y,42.0784621,-73.957772
MLS Listing,,Single Family Residential,279 Cramer Rd,Jewett,NY,12444,399000,4,1.5,Jewett,2500,309712,1940,7,160,,Active,,,https://www.redfin.com/NY/Jewett/279-Cramer-Rd-12444/home/129440775,CGNDMLS,144709,N,Y,42.26265,-74.265945
MLS Listing,,Single Family Residential,20 Old Mill Rd,Rifton,NY,12471,325000,3,1.0,Esopus,1162,29620,1950,7,280,,Active,,,https://www.redfin.com/NY/RIFTON/20-OLD-MILL-RD-12471/home/140368611,HVCRMLS,20223721,N,Y,41.835789,-74.035957
MLS Listing,,Condo/Co-op,707 Scenic Ln,Poughkeepsie,NY,12603,247700,2,2.0,Fox Hill,1328,745,2003,7,187,414,Active,,,https://www.redfin.com/NY/Poughkeepsie/707-Scenic-Ln-12603/home/92787305,OneKey,H6222346,N,Y,41.678061,-73.904449
MLS Listing,,Single Family Residential,41 Reed St,North Canaan,CT,06018,240000,4,1.0,North Canaan,1396,15681,1900,7,172,,Active,December-10-2022 10:00 AM,December-10-2022 12:00 PM,https://www.redfin.com/CT/Canaan/41-Reed-St-06018/home/107273560,Smart MLS,170538865,N,Y,42.0278304,-73.3346933
MLS Listing,,Single Family Residential,93 Mcguinness St,Torrington,CT,06790,229900,2,2.0,Torrington,1092,6534,1940,8,211,,Active,,,https://www.redfin.com/CT/Torrington/93-Mc-Guinness-St-06790/home/107287672,Smart MLS,170537423,N,Y,41.8147843,-73.1300508
MLS Listing,,Single Family Residential,30 Derrenbacher St,Kingston,NY,12401,300000,3,1.5,Kingston,1513,4478,1923,8,198,,Active,,,https://www.redfin.com/NY/Kingston/30-Derrenbacher-St-12401/home/140623887,OneKey,H6222040,N,Y,41.9336185,-73.9956516
MLS Listing,,Single Family Residential,2 Partington Pl,New Paltz,NY,12561,399900,5,3.0,New Paltz,2650,19602,1971,8,151,,Active,,,https://www.redfin.com/NY/New-Paltz/2-Partington-Pl-12561/home/140439468,OneKey,H6222765,N,Y,41.7057454,-74.092635
MLS Listing,,Single Family Residential,30 Livingston St,V. Rhinebeck,NY,12572,1245000,3,2.5,Dutchess County,2788,5227,1860,8,447,,Active,,,https://www.redfin.com/NY/Rhinebeck/30-Livingston-St-12572/home/92777595,MHMLS,411471,N,Y,41.9280635,-73.9099642
MLS Listing,,Condo/Co-op,274 Hooker Ave Unit E3,Poughkeepsie,NY,12603,229000,2,1.5,George Town Condo,1990,423,1975,8,115,553,Active,,,https://www.redfin.com/NY/Poughkeepsie/274-Hooker-Ave-12603/unit-E3/home/92743861,OneKey,H6222813,N,Y,41.6858409,-73.9090226
MLS Listing,,Multi-Family (2-4 Unit),746 Sergeant Palmateer Way,Wappingers Falls,NY,12590,508000,3,1.5,Wappingers Falls,1906,23522,1936,8,267,,Active,,,https://www.redfin.com/NY/Wappingers-Falls/746-Sergeant-Palmateer-Way-12590/home/92782199,OneKey,H6222478,N,Y,41.5895539,-73.9105613
MLS Listing,,Single Family Residential,18 Cemetery Rd,Copake Falls,NY,12517,125000,3,1.0,Copake Falls,1089,10890,1890,8,115,,Active,,,https://www.redfin.com/NY/Copake-Falls/18-Cemetery-Rd-12517/home/124330620,CGNDMLS,144711,N,Y,42.1217935,-73.5216118
MLS Listing,,Single Family Residential,42 Brooke,La Grange,NY,12603,639900,4,3.5,Sleight Farm,3974,145926,2022,8,161,,Active,,,https://www.redfin.com/NY/Poughkeepsie/42-Brooke-Ct-12603/home/183118347,MHMLS,412671,N,Y,41.6930292,-73.8571756
MLS Listing,,Condo/Co-op,1548 Route 9 Unit 12C,Wappingers Falls,NY,12590,70000,1,1.0,Wappingers Falls Owners,900,147233,1965,8,78,633,Active,,,https://www.redfin.com/NY/Wappingers-Falls/1548-U-S-9-12590/unit-12C/home/178515849,OneKey,H6222826,N,Y,41.5952045,-73.9084715
MLS Listing,,Single Family Residential,715 Slate Quarry Road Rd,Rhinebeck,NY,12572,89000,2,1.0,Dutchess,480,5662,1955,8,185,,Active,,,https://www.redfin.com/NY/Rhinebeck/715-Slate-Quarry-Rd-12572/home/92749124,HVCRMLS,20223717,N,Y,41.9089777,-73.810913
MLS Listing,,Single Family Residential,105 Kent Hollow Rd,Kent,CT,06757,529000,4,3.0,South Kent,2892,60983,1976,8,183,,Active,December-10-2022 12:00 PM,December-10-2022 02:00 PM,https://www.redfin.com/CT/Kent/105-Kent-Hollow-Rd-06757/home/107316730,Smart MLS,170538757,N,Y,41.722243,-73.400876
MLS Listing,,Single Family Residential,82 HIGHLAND AVE Ave,Kingston,NY,12401,629000,4,1.5,"Kingston,city",1999,7405,1915,8,315,,Active,,,https://www.redfin.com/NY/Kingston/82-Highland-Ave-12401/home/140161012,HVCRMLS,20223715,N,Y,41.9280192,-73.9894536
MLS Listing,,Single Family Residential,167 E Camp Rd,Germantown,NY,12526,549900,2,1.5,Columbia County,1564,60984,1950,8,352,,Active,,,https://www.redfin.com/NY/Germantown/167-E-Camp-Rd-12526/home/124282151,MHMLS,412668,N,Y,42.1204562,-73.8929462
MLS Listing,,Single Family Residential,11 County House Rd,Washington,NY,12545,1500000,4,2.0,Dutchess County,16894,228690,1920,8,89,,Active,,,https://www.redfin.com/NY/Millbrook/11-County-House-Rd-12545/home/54981657,MHMLS,412643,N,Y,41.7720939,-73.6971974
MLS Listing,,Single Family Residential,5 Brookland Farms Rd,Poughkeepsie,NY,12601,425000,3,2.5,Poughkeepsie,2604,22651,1965,8,163,,Active,,,https://www.redfin.com/NY/Poughkeepsie/5-Brookland-Farms-Rd-12601/home/54874750,OneKey,H6222646,N,Y,41.6338392,-73.9122148
MLS Listing,,Single Family Residential,36 Hagan Dr,Poughkeepsie,NY,12603,549000,4,3.0,Hagan,2227,13939,1968,8,247,,Active,December-10-2022 11:00 AM,December-10-2022 02:00 PM,https://www.redfin.com/NY/Poughkeepsie/36-Hagan-Dr-12603/home/73362533,OneKey,H6222479,N,Y,41.655268,-73.9098724
MLS Listing,,Single Family Residential,82 Dewitt Mills  Road Rd,Kingston,NY,12443,282000,3,1.0,Hurley,1661,52272,1960,8,170,,Active,,,https://www.redfin.com/NY/Hurley/82-Dewitt-Mills-Rd-12443/home/140390402,HVCRMLS,20223708,N,Y,41.91113,-74.048901
MLS Listing,,Single Family Residential,45 Towpath Rd,Wawarsing,NY,12489,335000,3,1.5,Wawarsing,1522,69696,1880,8,220,,Active,,,https://www.redfin.com/NY/WAWARSING/45-TOWPATH-RD-12489/home/140525882,OneKey,H6222690,N,Y,41.750258,-74.347975
MLS Listing,,Single Family Residential,29 Bonnie Vu Ln,New Milford,CT,06776,499900,4,2.5,New Milford,2611,82764,1987,8,191,,Active,,,https://www.redfin.com/CT/New-Milford/29-Bonnie-Vu-Ln-06776/home/107714427,Smart MLS,170538725,N,Y,41.60423,-73.3637546
MLS Listing,,Single Family Residential,12 Saddle Ridge Rd,New Milford,CT,06776,525000,5,3.5,Northville,2934,90169,1974,8,179,,Active,,,https://www.redfin.com/CT/New-Milford/12-Saddle-Ridge-Rd-06776/home/107695893,Smart MLS,170538711,N,Y,41.6161674,-73.3774779
MLS Listing,,Single Family Residential,190 Cedar Valley Rd,Poughkeepsie,NY,12603,370000,3,2.5,Poughkeepsie,1963,25700,1973,8,188,,Active,,,https://www.redfin.com/NY/Poughkeepsie/190-Cedar-Valley-Rd-12603/home/73362998,OneKey,H6222761,N,Y,41.6568344,-73.8876867
MLS Listing,,Vacant Land,289 Antelope Dr,Lee,MA,01238,85000,,,Berkshire - South,,82764,,9,,,Active,,,https://www.redfin.com/MA/Lee/289-Antelope-Dr-01238/home/133458072,BCMLS,239396,N,Y,42.2971746,-73.2057201
MLS Listing,,Single Family Residential,17 Bishop Dr,Poughkeepsie,NY,12603,275000,2,1.0,Poughkeepsie,1152,31799,1950,9,239,,Active,December-10-2022 12:00 PM,December-10-2022 02:00 PM,https://www.redfin.com/NY/Poughkeepsie/17-Bishop-Dr-12603/home/92762400,OneKey,H6222355,N,Y,41.6711335,-73.8379894
MLS Listing,,Single Family Residential,124 Town Line Hwy S,Bethlehem,CT,06751,1500000,7,6.5,Bethlehem,8020,791049,2002,9,187,,Active,,,https://www.redfin.com/CT/Bethlehem/124-Town-Line-Hwy-S-06751/home/107243940,Smart MLS,170532788,N,Y,41.6402292,-73.1652747
MLS Listing,,Single Family Residential,44 Bristol Hill Rd,Glenford,NY,12433,1499999,3,3.5,Hurley,3167,74052,1987,9,474,,Active,,,https://www.redfin.com/NY/Glenford/44-Bristol-Hill-Rd-12433/home/140645570,HVCRMLS,20223711,N,Y,41.9992226,-74.1537691
MLS Listing,,Single Family Residential,111 Cranberry Dr,Hopewell Junction,NY,12533,575000,3,2.5,Covered Bridge,2362,48787,1996,9,243,,Active,,,https://www.redfin.com/NY/Hopewell-Junction/111-Cranberry-Dr-12533/home/92753965,OneKey,H6222528,N,Y,41.6280767,-73.7836606
MLS Listing,,Single Family Residential,902 Church Rd,Saugerties,NY,12477,719000,3,2.0,Saugerties,2100,108900,1950,9,342,,Active,December-10-2022 12:00 PM,December-10-2022 01:30 PM,https://www.redfin.com/NY/Saugerties/902-Church-Rd-12477/home/140223476,OneKey,H6221069,N,Y,42.0316639,-74.0482115
MLS Listing,,Vacant Land,0 Aberdeen Ln East Lot 405-25 --,New Marlborough,MA,01230,79900,,,Berkshire - South,,115869,,9,,,Active,,,https://www.redfin.com/MA/New-Marlborough/0-Aberdeen-Ln-E-01230/home/183076886,BCMLS,239397,N,Y,42.1541394,-73.2903533
MLS Listing,,Single Family Residential,1500 County Route 56,Fallsburg,NY,12733,399000,2,2.5,Fallsburg,1320,184259,2022,9,302,,Active,,,https://www.redfin.com/NY/Fallsburg/1500-County-Route-56-12733/home/175568232,OneKey,H6221789,N,Y,41.7396867,-74.6107628
MLS Listing,,Mobile/Manufactured Home,5 Frank Smith Rd,Napanoch,NY,12458,99100,2,1.0,Wawarsing,924,56628,1960,9,107,,Active,,,https://www.redfin.com/NY/Napanoch/5-Frank-Smith-Rd-12458/home/140503896,HVCRMLS,20223707,N,Y,41.838892,-74.480745
MLS Listing,,Single Family Residential,17 Stone St,New Hamburg,NY,12590,439000,3,2.0,New Hamburg,780,3920,1860,9,563,,Active,,,https://www.redfin.com/NY/Wappingers-Falls/17-Stone-St-12590/home/54863796,OneKey,H6222642,N,Y,41.5893584,-73.9482091
MLS Listing,,Multi-Family (5+ Unit),44 Church Rd,Mountain Dale,NY,12763,910000,4,22.0,Mountain Dale,11493,450410,1939,9,79,,Active,,,https://www.redfin.com/NY/Mountain-Dale/44-Church-Rd-12763/home/138984257,OneKey,H6222534,N,Y,41.685817,-74.5295678
MLS Listing,,Single Family Residential,3745 Route 44,Millbrook,NY,12545,319900,3,1.0,Millbrook,1208,43560,1930,9,265,,Active,,,https://www.redfin.com/NY/Millbrook/3745-US-44-12545/home/73365536,OneKey,H6222668,N,Y,41.7942722,-73.6552076
MLS Listing,,Single Family Residential,11 Big Meadow Ln,Hyde Park,NY,12601,359999,3,2.0,Dutchess County,2398,64904,1976,9,150,,Active,,,https://www.redfin.com/NY/Poughkeepsie/11-Big-Meadow-Ln-12601/home/54865636,MHMLS,412644,N,Y,41.7398118,-73.9272104
MLS Listing,,Vacant Land,Mt Vernon Rd,Wurtsboro,NY,12790,199500,,,Wurtsboro,,1589940,,9,,,Active,,,https://www.redfin.com/NY/WURTSBORO/MOUNT-VERNON-RD-12790/home/138805746,OneKey,H6221882,N,Y,41.628451,-74.469924
MLS Listing,,Vacant Land,Route 22,Wingdale,NY,12594,399000,,,Tbd,,348480,,9,,,Active,,,https://www.redfin.com/NY/Wingdale/Unknown-Unknown/home/174426039,OneKey,H6222664,N,Y,41.6452352,-73.5638221
MLS Listing,,Single Family Residential,11 Peacock Rd,Rhinebeck,NY,12572,895000,4,2.5,Rhinebeck Estates,2366,108029,2002,9,378,,Active,,,https://www.redfin.com/NY/Rhinebeck/11-Peacock-Rd-12572/home/92778622,OneKey,H6222618,N,Y,41.9410752,-73.8887432
MLS Listing,,Single Family Residential,49 King George Rd,Poughkeepsie,NY,12603,399900,3,2.0,Poughkeepsie,1772,13504,1965,9,226,,Active,,,https://www.redfin.com/NY/Poughkeepsie/49-King-George-Rd-12603/home/92771750,OneKey,H6222449,N,Y,41.6512827,-73.9056467
MLS Listing,,Single Family Residential,165 E Dorsey Ln,Poughkeepsie,NY,12601,425000,3,2.0,Poughkeepsie,1600,156816,1930,9,266,,Active,,,https://www.redfin.com/NY/Poughkeepsie/165-E-Dorsey-Ln-12601/home/73368748,OneKey,H6222658,N,Y,41.744365,-73.882828
MLS Listing,,Single Family Residential,25 S Jefferson Ave,Catskill,NY,12414,449000,3,1.0,Catskill,1452,10890,1932,9,309,,Active,,,https://www.redfin.com/NY/Catskill/25-S-Jefferson-Ave-12414/home/183062830,CGNDMLS,144696,N,Y,42.2315277,-73.8797855
MLS Listing,,Single Family Residential,2325 Scudder Hill Rd,Roxbury,NY,12421,299000,2,2.0,Delaware,1128,14810,1974,9,265,,Active,,,https://www.redfin.com/NY/Denver/2325-Scudder-Hill-Rd-12421/home/183062080,HVCRMLS,20223699,N,Y,42.2264283,-74.5659087
MLS Listing,,Single Family Residential,274 Broksburgh Rd #23,Windham,NY,12496,339000,2,2.0,Windham,1717,436,2002,10,197,,Active,,,https://www.redfin.com/NY/Windham/274-Broksburgh-RD-12496/unit-23/home/183059712,CGNDMLS,144610,N,Y,42.301578,-74.206751
MLS Listing,,Single Family Residential,520 Beekman Rd,Hopewell Junction,NY,12533,263000,2,2.0,Hopewell Junction,1656,43560,1950,10,159,,Active,,,https://www.redfin.com/NY/Hopewell-Junction/520-Beekman-Rd-12533/home/56875736,OneKey,H6221883,N,Y,41.5977322,-73.7558529
MLS Listing,,Vacant Land,58 Stanley Rd,Otis,MA,01253,99000,,,Berkshire - South,,53143,,10,,,Active,,,https://www.redfin.com/MA/Otis/58-Stanley-Rd-01253/home/178711093,BCMLS,239392,N,Y,42.189033,-73.048812
MLS Listing,,Vacant Land,Church Road Tr 36,Fallsburg,NY,12733,65000,,,Fallsburg,,30000,,10,,,Active,,,https://www.redfin.com/NY/FALLSBURG/CHURCH-ROAD-TR-36-12733/home/138829483,OneKey,H6222324,N,Y,41.672854,-74.542798
MLS Listing,,Multi-Family (2-4 Unit),13 Storm Dr,Poughquag,NY,12570,679000,4,4.0,Poughquag,2976,96703,1997,10,228,,Active,,,https://www.redfin.com/NY/Poughquag/13-Storm-Dr-12570/home/73374679,OneKey,H6222315,N,Y,41.5922101,-73.6925933
MLS Listing,,Single Family Residential,6464 Montgomery St,V. Rhinebeck,NY,12572,1595000,,1.5,Dutchess County,3800,27878,1920,10,420,,Active,,,https://www.redfin.com/NY/Rhinebeck/6464-Montgomery-St-12572/home/179156690,MHMLS,412631,N,Y,41.9309393,-73.9126282
MLS Listing,,Vacant Land,597 Sleepy Hollow Rd,Athens,NY,12015,200000,,,Athens,23780,23780,,10,8,,Active,,,https://www.redfin.com/NY/Athens/597-Sleepy-Hollow-Rd-12015/home/183056645,CGNDMLS,144691,N,Y,42.2999524,-73.8011739
MLS Listing,,Single Family Residential,0 601 Sleepy Hollow Rd,Athens,NY,12015,1200000,5,4.0,Athens,3200,43124,2006,10,375,,Active,,,https://www.redfin.com/NY/Athens/601-Sleepy-Hollow-Rd-12015/home/129680930,CGNDMLS,144690,N,Y,42.3001013,-73.8015842
MLS Listing,,Single Family Residential,98 S Hamilton St,Poughkeepsie,NY,12601,339000,4,2.5,Poughkeepsie,2549,17424,1920,10,133,,Active,,,https://www.redfin.com/NY/Poughkeepsie/98-S-Hamilton-St-12601/home/92742727,OneKey,H6222532,N,Y,41.6960145,-73.9250748
MLS Listing,,Single Family Residential,411 Hibernia Rd,Salt Point,NY,12578,299000,3,2.0,Salt Point,1920,,1952,10,156,,Active,,,https://www.redfin.com/NY/Salt-Point/411-Hibernia-Rd-12578/home/92749309,OneKey,H6222523,N,Y,41.813337,-73.760765
MLS Listing,,Single Family Residential,2 Cardiff Ln,Rock Hill,NY,12775,399000,4,2.5,Emerald Green,2420,12197,2004,10,165,,Active,,,https://www.redfin.com/NY/Rock-Hill/2-Cardiff-Ln-12775/home/139011709,OneKey,H6222452,N,Y,41.6144696,-74.598523
MLS Listing,,Single Family Residential,71 Holland Dr,West Hurley,NY,19491,329900,3,1.5,Hurley,1250,21780,1961,10,264,,Active,,,https://www.redfin.com/NY/West-Hurley/71-Holland-Dr-12491/home/140386241,HVCRMLS,20223698,N,Y,42.0078659,-74.1127323
MLS Listing,,Multi-Family (2-4 Unit),25 Jansen Ave,Kingston,NY,12401,259900,4,2.0,Kingston,1760,4500,1880,10,148,,Active,,,https://www.redfin.com/NY/Kingston/25-Jansen-Ave-12401/home/140319014,OneKey,H6222519,N,Y,41.9263246,-73.9929429
MLS Listing,,Single Family Residential,74 Harrison Ave,Torrington,CT,06790,195000,3,1.5,Torrington,1349,14810,1954,10,145,,Active,,,https://www.redfin.com/CT/Torrington/74-Harrison-Ave-06790/home/107292878,Smart MLS,170535162,N,Y,41.7960785,-73.1092697
MLS Listing,,Vacant Land,388 Carter Rd,Plymouth,CT,06782,249000,,,Plymouth,,1245816,,10,,,Active,,,https://www.redfin.com/CT/Plymouth/388-Carter-Rd-06782/home/107245221,Smart MLS,170538335,N,Y,41.6443097,-73.0621523
MLS Listing,,Single Family Residential,321 S Shore Dr,Rock Hill,NY,12790,499639,3,2.5,Rock Hill,2048,49223,2005,10,244,,Active,,,https://www.redfin.com/NY/ROCK-HILL/321-S-SHORE-DR-12775/home/138813901,OneKey,H6220060,N,Y,41.587413,-74.596902
MLS Listing,,Single Family Residential,1135 CREEK LOCKS RD Rd,Bloomington,NY,12411,999000,7,3.0,Ulster-Town of,3294,196020,1880,10,303,,Active,,,https://www.redfin.com/NY/Bloomington/1135-Creek-Locks-Rd-12411/home/140299495,HVCRMLS,20223694,N,Y,41.8767442,-74.039861
MLS Listing,,Single Family Residential,265 Rt 32 North N,New Paltz,NY,12561,699999,5,3.0,New Paltz,1956,34848,1994,10,358,,Active,,,https://www.redfin.com/NY/New-Paltz/265-NY-32-12561/home/140157948,HVCRMLS,20223693,N,Y,41.7122216,-74.0868991
MLS Listing,,Single Family Residential,17 Stone St,Poughkeepsie Twp,NY,12601,439000,3,2.0,Dutchess County,1080,3920,1860,10,406,,Active,,,https://www.redfin.com/NY/Poughkeepsie-Twp/17-Stone-ST-12601/home/183052114,MHMLS,412582,N,Y,41.58936,-73.94821
MLS Listing,,Single Family Residential,3 Argent Dr,Highland,NY,12528,299000,2,1.5,Highland,1464,3049,2002,11,204,55,Active,,,https://www.redfin.com/NY/Highland/3-Argent-Dr-12528/home/140417633,OneKey,H6222170,N,Y,41.701305,-73.96442
MLS Listing,,Single Family Residential,6 Berne Ct,Woodridge,NY,12789,330000,4,2.5,Woodridge,2180,8276,2006,11,151,,Active,,,https://www.redfin.com/NY/Woodridge/6-Berne-Ct-12789/home/138986046,OneKey,H6222391,N,Y,41.6981268,-74.5783634
MLS Listing,,Condo/Co-op,62 Liftside Dr #302,Hunter,NY,12442,150000,3,2.5,Hunter,1994,86858640,2004,11,75,,Active,,,https://www.redfin.com/NY/Hunter/62-Liftside-Dr-12442/unit-302/home/129634690,CGNDMLS,144556,N,Y,42.2051376,-74.2152771
MLS Listing,,Condo/Co-op,71 Miller Rd #10,Beekman,NY,12533,95000,2,1.0,Dutchess County,800,,1965,11,119,184,Active,,,https://www.redfin.com/NY/Hopewell-Junction/71-Miller-Rd-12533/unit-10/home/144228590,MHMLS,412595,N,Y,41.6132599,-73.753077
MLS Listing,,Single Family Residential,6 N Cross Rd,Hyde Park,NY,12580,549900,3,2.5,Dutchess County,3636,435600,2004,11,151,,Active,,,https://www.redfin.com/NY/Staatsburg/6-N-Cross-Rd-12580/home/92760202,MHMLS,412224,N,Y,41.843507,-73.922633
MLS Listing,,Multi-Family (2-4 Unit),2 Park Pl,Poughkeepsie,NY,12601,250000,6,2.0,Poughkeepsie,2760,,1910,11,91,,Active,,,https://www.redfin.com/NY/Poughkeepsie/2-Park-Pl-12601/home/92745260,OneKey,H6221988,N,Y,41.7064502,-73.9188516
MLS Listing,,Single Family Residential,1340 E Otis Rd,Otis,MA,01253,739000,3,2.0,Berkshire - South,2160,142006,2003,11,342,,Active,,,https://www.redfin.com/MA/OTIS/1340-E-OTIS-RD-01253/home/134070982,BCMLS,239386,N,Y,42.182315,-73.051544
MLS Listing,,Single Family Residential,84 Clematis Ave,Waterbury,CT,06708,209900,3,1.5,Waterbury,1232,12196,1967,11,170,,Active,,,https://www.redfin.com/CT/Waterbury/84-Clematis-Ave-06708/home/53664462,Smart MLS,170538205,N,Y,41.584295,-73.0825616
MLS Listing,,Vacant Land,Tunnel Hill Rd,Fallsburg,NY,12733,29900,,,Fallsburg,,24498,,11,,,Active,,,https://www.redfin.com/NY/FALLSBURG/TUNNEL-HILL-RD-12733/home/138954969,OneKey,H6219431,N,Y,41.701378,-74.621147
MLS Listing,,Single Family Residential,160 Willowbrook Rd,Hudson,NY,12534,665000,5,3.0,Hudson,2552,60984,1960,11,261,,Active,,,https://www.redfin.com/NY/Hudson/160-Willowbrook-Rd-12534/home/124312023,CGNDMLS,144662,N,Y,42.1348808,-73.7496463
MLS Listing,,Single Family Residential,191 Huguenot St,New Paltz,NY,12561,1100000,5,3.0,New Paltz,5638,217800,1780,11,195,,Active,,,https://www.redfin.com/NY/New-Paltz/191-Huguenot-St-12561/home/140187728,OneKey,H6222300,N,Y,41.7606994,-74.0868646
MLS Listing,,Single Family Residential,1534 Route 376,Wappingers Falls,NY,12590,249000,2,1.0,Wappingers Falls,775,8712,1959,11,321,,Active,,,https://www.redfin.com/NY/Wappingers-Falls/1534-NY-376-12590/home/92784757,OneKey,H6222328,N,Y,41.6231422,-73.8707356
MLS Listing,,Vacant Land,0 Leeds-athens Rd,Catskill,NY,12414,125000,,,Catskill,1833876,1833876,,11,0,,Active,,,https://www.redfin.com/NY/Catskill/0-Leeds-athens-RD-12414/home/183043048,CGNDMLS,144666,N,Y,42.2173102,-73.8645734
MLS Listing,,Single Family Residential,158 N Clinton St,Poughkeepsie City,NY,12601,189900,1,1.0,Dutchess County,1400,7405,1910,11,136,,Active,,,https://www.redfin.com/NY/Poughkeepsie/158-N-Clinton-St-12601/home/54856802,MHMLS,412505,N,Y,41.7109403,-73.9189434
MLS Listing,,Condo/Co-op,3106 Pine Cone Ct,Poughkeepsie,NY,12603,175000,1,1.0,Fox Hill Ii,936,505,1984,11,187,286,Active,,,https://www.redfin.com/NY/Poughkeepsie/3106-Pine-Cone-Ct-12603/home/92744445,OneKey,H6222310,N,Y,41.6804426,-73.9069566
MLS Listing,,Vacant Land,Beekman Poughquag Rd,Beekman,NY,12570,750000,,,Dutchess County,,849420,,11,,,Active,,,https://www.redfin.com/NY/Poughquag/Beekman-Poughquag-Rd-12570/home/73374742,MHMLS,392531,N,Y,41.609203,-73.683123
MLS Listing,,Single Family Residential,30 Willow Rd,Saugerties,NY,12477,399900,3,1.5,Saugerties-Town,2098,10890,1965,11,191,,Active,,,https://www.redfin.com/NY/Saugerties/30-Willow-Rd-12477/home/140652910,HVCRMLS,20223684,N,Y,42.0541088,-73.9621113
MLS Listing,,Single Family Residential,15 Wendover Dr,Poughkeepsie Twp,NY,12601,425000,3,2.0,Dutchess County,1824,16117,1961,11,233,,Active,,,https://www.redfin.com/NY/Poughkeepsie/15-Wendover-Dr-12601/home/54872428,MHMLS,412538,N,Y,41.6160831,-73.9123985
MLS Listing,,Single Family Residential,503 Millbrook Dr,Port Ewen,NY,12466,795000,3,2.0,Esopus,1440,43560,1903,11,552,,Active,,,https://www.redfin.com/NY/Port-Ewen/503-Millbrook-DR-12466/home/176656535,HVCRMLS,20223683,N,Y,41.9094458,-73.9683102
MLS Listing,,Single Family Residential,69 Overocker Rd,Poughkeepsie,NY,12603,299900,3,1.0,Poughkeepsie,1400,20473,1943,11,214,,Active,,,https://www.redfin.com/NY/Arlington/69-Overocker-Rd-12603/home/73363088,OneKey,H6222168,N,Y,41.6943277,-73.8832218
MLS Listing,,Single Family Residential,26 Oakwood Blvd,Hudson,NY,12534,299900,3,1.0,Hudson,1062,6534,1950,11,282,,Active,,,https://www.redfin.com/NY/Hudson/26-Oakwood-Blvd-12534/home/124449926,CGNDMLS,144631,N,Y,42.2531254,-73.7707914
MLS Listing,,Vacant Land,00 Roberts St,Torrington,CT,06790,34900,,,West Torrington,,13503,,11,,,Active,,,https://www.redfin.com/CT/Torrington/0-Roberts-St-06790/home/183030515,Smart MLS,170538095,N,Y,41.8037299,-73.1396557
MLS Listing,,Single Family Residential,224 Highland St,Great Barrington,MA,01236,399000,4,1.5,Berkshire - South,2382,8276,1900,11,168,,Active,,,https://www.redfin.com/MA/Great-Barrington/224-Highland-St-01236/home/132834242,BCMLS,239376,N,Y,42.2541667,-73.367623
MLS Listing,,Single Family Residential,223 Westledge Dr,Torrington,CT,06790,399000,3,2.0,West Torrington,1736,112384,2022,12,230,,Active,,,https://www.redfin.com/CT/Torrington/223-Westledge-Dr-06790/home/183029687,Smart MLS,170538090,N,Y,41.8109636,-73.149332
MLS Listing,,Single Family Residential,8 Ann St,Saugerties,NY,12477,799000,3,4.0,Cantine's Island Communi,2392,8276,2016,12,334,175,Active,,,https://www.redfin.com/NY/Saugerties/8-Ann-St-12477/home/140313538,OneKey,H6221762,N,Y,42.0720189,-73.9480369
MLS Listing,,Multi-Family (2-4 Unit),25 Anderson Rd,Sherman,CT,06784,539000,0,,Sherman,2696,163350,1973,12,200,,Active,,,https://www.redfin.com/CT/Sherman/25-Anderson-Rd-06784/home/107170517,Smart MLS,170538031,N,Y,41.6303248,-73.5093704
MLS Listing,,Single Family Residential,386 Sherman Rd,Ellenville,NY,12428,495000,3,2.0,Ellenville,2310,1271081,2002,12,214,,Active,,,https://www.redfin.com/NY/Ellenville/386-Sherman-Rd-12428/home/140308189,OneKey,H6222176,N,Y,41.790476,-74.4621109
MLS Listing,,Single Family Residential,196 Mountain Rd,Stanford,NY,12581,199000,4,1.0,Dutchess County,1506,98881,1879,12,132,,Active,,,https://www.redfin.com/NY/Stanfordville/196-Mountain-Rd-12581/home/73379018,MHMLS,412482,N,Y,41.9235246,-73.6832131
MLS Listing,,Single Family Residential,352 Old Middle St,Goshen,CT,06756,475000,3,2.5,Goshen,2344,79714,1996,12,203,,Active,,,https://www.redfin.com/CT/Goshen/352-Old-Middle-St-06756/home/107317714,Smart MLS,170538025,N,Y,41.8096639,-73.2172885
MLS Listing,,Single Family Residential,30 Johnson Rd,Lagrangeville,NY,12540,247000,5,2.5,Lagrangeville,1712,24829,1968,13,144,,Active,,,https://www.redfin.com/NY/Lagrangeville/30-Johnson-Rd-12540/home/73361869,OneKey,H6218241,N,Y,41.6558938,-73.7470732
MLS Listing,,Single Family Residential,53 Stickles Rd,Livingston,NY,12534,485000,3,2.0,Livingston,1652,87120,1992,13,294,,Active,,,https://www.redfin.com/NY/Livingston/53-Stickles-Rd-12534/home/182262028,CGNDMLS,144649,N,Y,42.166592,-73.7741467
MLS Listing,,Single Family Residential,3276 State Route 209,Wurtsboro,NY,12790,209500,3,1.0,Wurtsboro,888,3920,1972,13,236,,Active,,,https://www.redfin.com/NY/WURTSBORO/3276-STATE-ROUTE-209-12790/home/138805820,OneKey,H6221879,N,Y,41.58276,-74.47637
MLS Listing,,Single Family Residential,5098 Route 9,Staatsburg,NY,12580,325000,3,1.0,,1037,26136,1973,13,313,,Active,December-10-2022 01:00 PM,December-10-2022 03:00 PM,https://www.redfin.com/NY/Staatsburg/5098-US-9-12580/home/54871527,OneKey,H6222144,N,Y,41.8406622,-73.9292082
MLS Listing,,Single Family Residential,5625 Route 22,North East,NY,12546,439000,5,2.0,Dutchess County,2328,153767,1890,13,189,,Active,,,https://www.redfin.com/NY/Millerton/5625-NY-22-12546/home/73376814,MHMLS,412593,N,Y,41.927138,-73.536129
MLS Listing,,Single Family Residential,2 Reservoir St,Poughkeepsie City,NY,12601,179000,3,1.0,Dutchess County,1962,4356,1920,13,91,,Active,,,https://www.redfin.com/NY/Poughkeepsie/2-Reservoir-St-12601/home/92744636,MHMLS,412587,N,Y,41.7149291,-73.9167963
MLS Listing,,Vacant Land,Lake Shore Dr E,Rock Hill,NY,12775,220000,,,Rock Hill,,9148,,13,,,Active,,,https://www.redfin.com/NY/Rock-Hill/168-Lake-Shore-Dr-E-12775/home/57026397,OneKey,H6222134,N,Y,41.60726,-74.574713
MLS Listing,,Multi-Family (2-4 Unit),7 Leonta Ct,Highland,NY,12528,300000,5,2.0,Highland,1712,10890,1934,13,175,,Active,,,https://www.redfin.com/NY/Highland/7-Leonta-Ct-12528/home/140483171,OneKey,H6222136,N,Y,41.7189447,-73.9673689
MLS Listing,,Townhouse,20 Delong St,Beekman,NY,12570,329900,2,3.0,Dutchess County,2460,,1992,13,134,173,Active,,,https://www.redfin.com/NY/Poughquag/20-Delong-St-12570/home/92747594,MHMLS,412592,N,Y,41.6163451,-73.697927
MLS Listing,,Single Family Residential,99 Kingsview Hwy,Wallkill,NY,12589,374999,4,2.5,Wallkill,1556,65340,1978,14,241,,Active,December-10-2022 11:00 AM,December-10-2022 01:00 PM,https://www.redfin.com/NY/Wallkill/99-Kingsview-Hwy-12589/home/140510042,OneKey,H6215190,N,Y,41.6237347,-74.1134206
MLS Listing,,Single Family Residential,42 Styvestandt Dr,Poughkeepsie Twp,NY,12601,199925,3,1.0,Dutchess County,1324,16117,1956,14,151,,Active,,,https://www.redfin.com/NY/Poughkeepsie/42-Styvestandt-Dr-12601/home/73377828,MHMLS,412390,N,Y,41.7264138,-73.9066113
MLS Listing,,Single Family Residential,28 Birchwood Dr,New Milford,CT,06776,399900,3,2.0,New Milford,1140,13939,1969,14,351,,Active,,,https://www.redfin.com/CT/New-Milford/28-Birchwood-Dr-06776/home/107724048,Smart MLS,170537839,N,Y,41.5963463,-73.4122428
MLS Listing,,Single Family Residential,30 Cook St,Washington,CT,06794,429000,3,1.5,Washington Depot,1672,57934,1910,14,257,,Active,,,https://www.redfin.com/CT/Washington-Depot/30-Cook-St-06794/home/107171788,Smart MLS,170537921,N,Y,41.6426675,-73.3227637
MLS Listing,,Single Family Residential,5098 Albany Post Rd,Hyde Park,NY,12538,325000,3,1.0,Dutchess County,2074,26136,1973,14,157,,Active,December-10-2022 01:00 PM,December-10-2022 03:00 PM,https://www.redfin.com/NY/Hyde-Park/5098-Albany-Post-Rd-12538/home/103476580,MHMLS,412583,N,Y,41.84093,-73.92957
MLS Listing,,Single Family Residential,76 Longview Trl,Wurtsboro,NY,12790,129900,1,1.0,Wurtsboro,564,7841,1953,14,230,,Active,,,https://www.redfin.com/NY/Wurtsboro/76-Longview-Trl-12790/home/138820534,OneKey,H6222064,N,Y,41.5904208,-74.5023018
MLS Listing,,Single Family Residential,45 Platt Ave,V. Rhinebeck,NY,12572,499900,3,2.5,Dutchess County,2198,5663,1950,14,227,,Active,,,https://www.redfin.com/NY/Rhinebeck/45-Platt-Ave-12572/home/73378673,MHMLS,412580,N,Y,41.9319921,-73.906795
MLS Listing,,Single Family Residential,27 Furnace Rd,Hopewell Junction,NY,12533,525000,3,3.0,Hopewell Junction,2689,60113,2009,14,195,,Active,,,https://www.redfin.com/NY/Hopewell-Junction/27-Furnace-Rd-12533/home/73353026,OneKey,H6202995,N,Y,41.6348956,-73.6907541
MLS Listing,,Single Family Residential,742 Noxon Rd,Poughkeepsie,NY,12603,505000,4,2.5,Poughkeepsie,2023,175547,1994,15,250,,Active,,,https://www.redfin.com/NY/Poughkeepsie/742-Noxon-Rd-12603/home/92763426,OneKey,H6221801,N,Y,41.644401,-73.8182425
MLS Listing,,Single Family Residential,262 Potic Mountain Rd,Catskill,NY,12414,499999,4,2.5,Catskill,2496,,2003,15,200,,Active,,,https://www.redfin.com/NY/Catskill/262-Potic-Mountain-Rd-12414/home/129490272,OneKey,H6221395,N,Y,42.283942,-73.907855
MLS Listing,,Single Family Residential,25 Parkwood Blvd,Poughkeepsie City,NY,12603,292000,3,1.5,Dutchess County,2274,6534,1928,15,128,,Active,,,https://www.redfin.com/NY/Poughkeepsie/25-Parkwood-Blvd-12603/home/73367086,MHMLS,412546,N,Y,41.6852575,-73.9141198
MLS Listing,,Condo/Co-op,22 Riveredge Dr #22,Winchester,CT,06098,127900,2,1.5,Wallen's Hill,992,,1986,15,129,336,Active,,,https://www.redfin.com/CT/Winsted/22-Riveredge-Dr-06098/unit-22/home/172354026,Smart MLS,170532030,N,Y,41.929344,-73.058159
MLS Listing,,Multi-Family (2-4 Unit),85 Wall St,Torrington,CT,06790,174999,6,2.0,Torrington,2100,3920,1900,15,83,,Active,,,https://www.redfin.com/CT/Torrington/85-Wall-St-06790/home/107285922,Smart MLS,170537867,N,Y,41.8046308,-73.1185713
MLS Listing,,Single Family Residential,117 Raycliffe Dr,Woodstock,NY,12498,629000,3,1.5,Woodstock,3324,362854,1989,15,189,,Active,,,https://www.redfin.com/NY/Woodstock/117-Raycliffe-Dr-12498/home/140491508,HVCRMLS,20223425,N,Y,42.0749737,-74.0734772
MLS Listing,,Single Family Residential,39 Nassau Rd,Poughkeepsie,NY,12601,439000,5,3.0,Southgate,2188,13068,1962,15,201,,Active,,,https://www.redfin.com/NY/Poughkeepsie/39-Nassau-Rd-12601/home/54864155,OneKey,H6221981,N,Y,41.6383638,-73.9297593
MLS Listing,,Single Family Residential,34 Jackson Hill Rd,Sharon,CT,06069,599900,3,2.5,Sharon,2892,36154,1970,15,207,,Active,,,https://www.redfin.com/CT/Sharon/34-Jackson-Hill-Rd-06069/home/107176367,Smart MLS,170535836,N,Y,41.874221,-73.4599375
MLS Listing,,Single Family Residential,44 Horse Shoe Ln,Salisbury,CT,06039,1185000,4,3.5,Lakeville,3122,184258,1999,16,380,,Active,,,https://www.redfin.com/CT/Lakeville/44-Horse-Shoe-Ln-06039/home/107174421,Smart MLS,170537442,N,Y,41.9486244,-73.4230165
MLS Listing,,Single Family Residential,4407 Albany Post Rd,Hyde Park,NY,12538,250000,3,1.5,Dutchess County,3348,20909,1890,16,75,,Active,,,https://www.redfin.com/NY/Hyde-Park/4407-Albany-Post-Rd-12538/home/183014021,MHMLS,412560,N,Y,41.7922808,-73.9369695
MLS Listing,,Single Family Residential,5625 5627 Route 22,Millerton,NY,12546,439000,,2.0,Millerton,2328,153767,1890,16,189,,Active,,,https://www.redfin.com/NY/Millerton/5627-New-York-22-12546/home/183013363,CGNDMLS,144652,N,Y,41.9280593,-73.5354802
MLS Listing,,Single Family Residential,509 Buckingham St,Watertown,CT,06779,238000,4,1.5,Watertown,2010,13939,2018,16,118,,Active,,,https://www.redfin.com/CT/Watertown/509-Buckingham-St-06779/home/107314175,Smart MLS,170537781,N,Y,41.6002499,-73.0865271
MLS Listing,,Single Family Residential,18 Spring,Poughkeepsie Twp,NY,12603,322759,5,2.0,Dutchess County,1856,16988,1940,16,174,,Active,,,https://www.redfin.com/NY/Poughkeepsie-Twp/18-Spring-12603/home/182797958,MHMLS,412578,N,Y,41.72331,-73.92071
MLS Listing,,Single Family Residential,7 Duhamel Dr,Hopewell Junction,NY,12533,785000,4,3.5,Hopewell Junction,5250,43560,2002,16,150,120,Active,,,https://www.redfin.com/NY/Hopewell-Junction/7-Duhamel-Dr-12533/home/54881708,OneKey,H6222027,N,Y,41.608682,-73.7639199
MLS Listing,,Single Family Residential,21 Shady Crk,Pleasant Valley,NY,12569,179999,1,1.0,Dutchess County,702,6098,1995,16,256,,Active,,,https://www.redfin.com/NY/Pleasant-Valley/21-Shady-Creek-Rd-12569/home/92768216,MHMLS,412576,N,Y,41.7279632,-73.8379319
MLS Listing,,Single Family Residential,37 Third Ave,Kingston,NY,12401,279000,3,1.0,"Kingston,city",864,2613,1890,16,323,,Active,,,https://www.redfin.com/NY/Kingston/37-3rd-Ave-12401/home/140398588,HVCRMLS,20223675,N,Y,41.9278947,-73.9816944
MLS Listing,,Vacant Land,0 Church Hill Rd,Woodbury,CT,06798,139900,,,Woodbury,,127195,,16,,,Active,,,https://www.redfin.com/CT/Woodbury/0-Church-Hill-Rd-06798/home/183011284,Smart MLS,170537745,N,Y,41.5999658,-73.2067574
MLS Listing,,Single Family Residential,20 Maple Ave,Hunter,NY,12442,399000,3,1.5,Hunter,960,12197,1980,16,416,,Active,,,https://www.redfin.com/NY/HUNTER/20-MAPLE-AVE-12442/home/129368322,CGNDMLS,144630,N,Y,42.213756,-74.223342
MLS Listing,,Vacant Land,Creek Rd,Poughkeepsie,NY,12601,89000,,,Poughkeepsie,,15246,,16,,,Active,,,https://www.redfin.com/NY/POUGHKEEPSIE/CREEK-RD-12601/home/73364951,OneKey,H6222009,N,Y,41.731598,-73.900438
MLS Listing,,Vacant Land,Cart Rd,Dover Plains,NY,12522,369000,,,Dover Plains,,1751548,,16,,,Active,,,https://www.redfin.com/NY/DOVER-PLAINS/CART-RD-12522/home/92749736,OneKey,H6222004,N,Y,41.745647,-73.58644
MLS Listing,,Single Family Residential,109 Pine Tree Dr,Kingston,NY,12401,829900,5,4.0,"Kingston,city",2816,36154,1968,16,295,,Active,,,https://www.redfin.com/NY/Kingston/109-Pine-Tree-Dr-12401/home/140486510,HVCRMLS,20223673,N,Y,41.8865237,-74.0203956
MLS Listing,,Single Family Residential,24 Purdy Ave,Marlboro,NY,12542,395000,4,2.0,Marlboro,2177,40502,1954,16,181,,Active,,,https://www.redfin.com/NY/Marlboro/24-Purdy-Ave-12542/home/140638202,OneKey,H6221731,N,Y,41.6116412,-73.9720064
MLS Listing,,Single Family Residential,574 New Paltz Rd,Highland,NY,12528,325000,2,2.0,Highland,1188,27007,1890,16,274,,Active,December-11-2022 12:00 PM,December-11-2022 03:00 PM,https://www.redfin.com/NY/Highland/574-New-Paltz-Rd-12528/home/140289268,OneKey,H6221976,N,Y,41.7374849,-74.0138771
MLS Listing,,Single Family Residential,33 Arlmont,Kingston,NY,12401,179900,4,1.0,"Kingston,city",1403,13068,1900,16,128,,Active,,,https://www.redfin.com/NY/Kingston/33-Arlmont-St-12401/home/140164120,HVCRMLS,20223575,N,Y,41.9203872,-74.0217265
MLS Listing,,Single Family Residential,170 Clifton Ave,Kingston,NY,12401,329000,3,1.0,"Kingston,city",1643,7405,1945,16,200,,Active,December-17-2022 11:00 AM,December-17-2022 02:00 PM,https://www.redfin.com/NY/Kingston/170-Clifton-Ave-12401/home/140167609,HVCRMLS,20223669,N,Y,41.9333381,-73.9899127
MLS Listing,,Single Family Residential,1634 High Falls Rd,Catskill,NY,12414,275000,4,1.0,Greene,836,17424,1920,17,329,,Active,,,https://www.redfin.com/NY/Catskill/1634-High-Falls-Rd-12414/home/129833315,HVCRMLS,20223668,N,Y,42.168214,-73.959103
MLS Listing,,Single Family Residential,2 Pleasant Ln,Poughkeepsie,NY,12603,399000,3,1.5,Poughkeepsie,1682,18731,1984,17,237,,Active,,,https://www.redfin.com/NY/Poughkeepsie/2-Pleasant-Ln-12603/home/54875704,OneKey,H6221820,N,Y,41.6421181,-73.880934
MLS Listing,,Vacant Land,553 Roosa Gap Rd,,NY,12721,349000,,,,,2,,17,,,Active,,,https://www.redfin.com/NY/Bloomingburg/553-Roosa-Gap-Rd-12721/home/138893409,OneKey,3444958,N,Y,41.591271,-74.4265715
MLS Listing,,Single Family Residential,10 Nichris Ln,Staatsburg,NY,12580,925000,4,2.5,Staatsburg,3414,122839,2003,17,271,,Active,,,https://www.redfin.com/NY/Staatsburg/10-Nichris-Ln-12580/home/92760071,OneKey,H6221901,N,Y,41.8627419,-73.911323
MLS Listing,,Single Family Residential,51 Duck Pond Rd,Stone Ridge,NY,12484,725000,5,3.5,Marbletown,3120,21780,2022,17,232,,Active,,,https://www.redfin.com/NY/Marbletown/51-Duck-Pond-Rd-12484/home/140212139,HVCRMLS,20223665,N,Y,41.8614299,-74.133932
MLS Listing,,Single Family Residential,194 St Elmo Rd,Wallkill,NY,12589,549900,4,2.5,Wallkill,2209,126324,2022,17,249,,Active,,,https://www.redfin.com/NY/Wallkill/194-Saint-Elmo-Rd-12589/home/182992051,OneKey,H6221884,N,Y,41.5893038,-74.1452764
MLS Listing,,Single Family Residential,55 Windwood Ln,Woodstock,NY,12498,745000,4,3.5,Hurley,2847,235224,2005,17,262,,Active,,,https://www.redfin.com/NY/Woodstock/55-Windwood-Ln-12498/home/140537429,HVCRMLS,20223664,N,Y,42.0027566,-74.1171828
MLS Listing,,Single Family Residential,24 Newton Rd,New Milford,CT,06755,360000,2,1.5,Gaylordsville,1638,67953,1991,17,220,,Active,December-11-2022 12:00 PM,December-11-2022 03:00 PM,https://www.redfin.com/CT/Gaylordsville/24-Newton-Rd-06755/home/107700518,Smart MLS,170537599,N,Y,41.6435021,-73.4872789
MLS Listing,,Single Family Residential,49 Nutmeg Dr,Torrington,CT,06790,209900,2,1.0,Torrington,1246,10890,1980,17,168,,Active,,,https://www.redfin.com/CT/Torrington/49-Nutmeg-Dr-06790/home/107294988,Smart MLS,170531456,N,Y,41.8101295,-73.088187
MLS Listing,,Single Family Residential,30 Straight Path,Rock Hill,NY,12775,274500,2,2.0,Rock Hill,1300,7501,1986,17,211,67,Active,,,https://www.redfin.com/NY/Rock-Hill/30-Straight-Path-12775/home/138852043,OneKey,H6221853,N,Y,41.608314,-74.5694185
MLS Listing,,Single Family Residential,345 Sigler Rd,Pine Plains,NY,12567,849000,3,2.5,Pine Plains,2881,778417,1820,17,295,,Active,,,https://www.redfin.com/NY/Pine-Plains/345-Sigler-Rd-12567/home/181422962,OneKey,H6221856,N,Y,42.0073741,-73.6557796
MLS Listing,,Vacant Land,Lot#23 Loop Rd,Watertown,CT,06795,134900,,,Watertown,,141134,,17,,,Active,,,https://www.redfin.com/CT/Watertown/Lot23-Loop-Rd-06795/home/179402684,Smart MLS,170536201,N,Y,41.585068,-73.11103
MLS Listing,,Vacant Land,Lot 2 Northfield Rd,Watertown,CT,06795,274900,,,Watertown,,287060,,17,,,Active,,,https://www.redfin.com/CT/Watertown/2-Northfield-Rd-06795/home/144527483,Smart MLS,170536200,N,Y,41.6126063,-73.1193345
MLS Listing,,Vacant Land,Lot#22 Loop Rd,Watertown,CT,06795,134900,,,Pond View Estates,,133293,,17,,,Active,,,https://www.redfin.com/CT/Watertown/Lot22-Loop-Rd-06795/home/179402683,Smart MLS,170536203,N,Y,41.585215,-73.110723
MLS Listing,,Single Family Residential,16 Rest Area Ln,Saugerties,NY,12477,105000,3,1.0,Saugerties-Town,2460,43560,1947,17,43,,Active,,,https://www.redfin.com/NY/SAUGERTIES/16-REST-AREA-LN-12477/home/140216798,HVCRMLS,20223663,N,Y,42.05336,-73.980613
MLS Listing,,Single Family Residential,25 Pleasant Ridge Rd,Beekman,NY,12570,1490000,4,3.5,Dutchess County,4195,328007,2022,17,355,,Active,,,https://www.redfin.com/NY/Poughquag/25-Pleasant-Ridge-Rd-12570/home/180790387,MHMLS,412543,N,Y,41.6082543,-73.6692899
MLS Listing,,Townhouse,47 Old Farm Rd,Red Hook,NY,12571,800000,3,2.5,Red Hook,2572,,2021,17,311,,Active,,,https://www.redfin.com/NY/Red-Hook/47-Old-Farm-Rd-12571/home/182634807,OneKey,H6221822,N,Y,41.9837157,-73.8845095
MLS Listing,,Single Family Residential,7 Hamlet Way,Hopewell Junction,NY,12533,649000,4,3.5,Hopewell Junction,3912,88427,2022,17,166,120,Active,,,https://www.redfin.com/NY/Hopewell-Junction/7-Hamlet-Way-12533/home/54860481,OneKey,H6221685,N,Y,41.612649,-73.7627
MLS Listing,,Single Family Residential,4424 Route 199,Millerton,NY,12546,650000,4,2.0,Millerton,1792,2599225,1920,17,363,,Active,,,https://www.redfin.com/NY/Millerton/4424-NY-199-12546/home/92765830,CGNDMLS,144600,N,Y,41.953955,-73.547468
MLS Listing,,Single Family Residential,6 Seekonk Cross,Alford,MA,01230,4950000,4,5.0,Alford,7000,767527,2003,17,707,,Active,,,https://www.redfin.com/MA/Great-Barrington/6-Seekonk-Cross-Rd-01230/home/132833244,MLS PIN,73060258,N,Y,42.2238729,-73.4132674
MLS Listing,,Single Family Residential,14 Platt Ave,Rhinebeck,NY,12572,699000,3,2.0,Rhinebeck,1942,13068,1947,17,360,,Active,,,https://www.redfin.com/NY/Rhinebeck/14-Platt-Ave-12572/home/73370860,OneKey,H6221802,N,Y,41.9310111,-73.9110206
MLS Listing,,Single Family Residential,505 Sheffield Plain Rd,Sheffield,MA,01257,399000,3,2.0,Berkshire - South,1900,43560,1847,17,210,,Active,,,https://www.redfin.com/MA/Sheffield/505-Sheffield-Pln-01257/home/135093172,BCMLS,239368,N,Y,42.1195246,-73.3553268
MLS Listing,,Single Family Residential,126 Main St N,Bethlehem,CT,06751,279900,4,1.0,Bethlehem,1389,82764,1953,17,202,,Active,,,https://www.redfin.com/CT/Bethlehem/126-Main-St-N-06751/home/107243580,Smart MLS,170533823,N,Y,41.6471798,-73.2039852
MLS Listing,,Vacant Land,0 Route 44-55,Gardiner,NY,12525,1500000,,,Gardiner,,2744280,,17,,,Active,,,https://www.redfin.com/NY/Gardiner/0-Route-44-55-12525/home/182990266,HVCRMLS,20223660,N,Y,41.675447,-74.1827119
MLS Listing,,Townhouse,430 432 State St,Hudson,NY,12534,795000,4,3.0,Hudson,3400,6098,1900,17,234,,Active,,,https://www.redfin.com/NY/Hudson/432-State-St-12534/home/182990175,CGNDMLS,144634,N,Y,42.251782,-73.785746
MLS Listing,,Vacant Land,Oak Summit Rd,Washington,NY,12545,95000,,,Dutchess County,,84071,,17,,,Active,,,https://www.redfin.com/NY/Washington/Oak-Summit-Rd-12545/home/73375522,MHMLS,412395,N,Y,41.74893,-73.69261
MLS Listing,,Vacant Land,Oak Summit Rd,Millbrook,NY,12545,95000,,,Millbrook,,84071,,17,,,Active,,,https://www.redfin.com/NY/MILLBROOK/OAK-SUMMIT-RD-12545/home/73364818,OneKey,H6221796,N,Y,41.759667,-73.681061
MLS Listing,,Single Family Residential,50 Dunneman Ave,Kingston,NY,12401,564000,4,2.0,Kingston,2679,12502,1950,17,211,,Active,,,https://www.redfin.com/NY/Kingston/50-Dunneman-Ave-12401/home/140542499,OneKey,H6221554,N,Y,41.9281552,-74.0346598
MLS Listing,,Single Family Residential,22 Brodie Rd,Hopewell Junction,NY,12533,589000,4,2.5,Hopewell Junction,2688,47480,1991,17,219,,Active,,,https://www.redfin.com/NY/Hopewell-Junction/22-Brodie-Rd-12533/home/54866482,OneKey,H6221150,N,Y,41.6058295,-73.7537844
MLS Listing,,Single Family Residential,292 Blue Mountain Rd,Saugerties,NY,12477,646000,3,1.5,Saugerties-Town,2392,614196,1870,17,270,,Active,,,https://www.redfin.com/NY/Saugerties/292-Blue-Mountain-Rd-12477/home/140344751,HVCRMLS,20223656,N,Y,42.100308,-74.014345
MLS Listing,,Single Family Residential,3 Gables Blvd,Poughkeepsie,NY,12603,279000,2,2.0,Gables Community,1456,,2001,18,192,399,Active,,,https://www.redfin.com/NY/Poughkeepsie/3-Gables-Blvd-12603/home/182985566,OneKey,H6221128,N,Y,41.7288394,-73.888881
