SALE TYPE,SOLD DATE,PROPERTY TYPE,ADDRESS,CITY,STATE OR PROVINCE,ZIP OR POSTAL CODE,PRICE,BEDS,BATHS,LOCATION,SQUARE FEET,LOT SIZE,YEAR BUILT,DAYS ON MARKET,$/SQUARE FEET,HOA/MONTH,STATUS,NEXT OPEN HOUSE START TIME,NEXT OPEN HOUSE END TIME,URL (SEE https://www.redfin.com/buy-a-home/comparative-market-analysis FOR INFO ON PRICING),SOURCE,MLS#,FAVORITE,INTERESTED,LATITUDE,LONGITUDE
MLS Listing,,Vacant Land,1650 Top Hill Rd,Little Rock,AR,72223,105000,,,Pulaski County West,,218235,,2,,,Active,,,https://www.redfin.com/AR/Little-Rock/1650-Top-Hill-Rd-72223/home/180875601,CARMLS,22040123,N,Y,34.74669,-92.4953658
MLS Listing,,Single Family Residential,5204 Randolph Rd,North Little Rock,AR,72116,220000,3,2.0,North Little Rock (central),1709,9583,1963,3,129,,Active,,,https://www.redfin.com/AR/North-Little-Rock/5204-Randolph-Rd-72116/home/95312465,CARMLS,22040111,N,Y,34.8024962,-92.2423683
MLS Listing,,Single Family Residential,1196 Oak Ridge Dr,Memphis,TN,38111,329900,3,2.0,Sea Isle/Park,,11761,1955,3,150,,Active,,,https://www.redfin.com/TN/Memphis/1196-Oak-Ridge-Dr-38111/home/60657094,Memphis Area Association of Realtors(R) MLS,10139058,N,Y,35.0991295,-89.9230968
MLS Listing,,Single Family Residential,804 N Natchez St,Kosciusko,MS,39090,169900,3,2.0,Metes And Bounds,2135,14374,1959,50,80,,Active,,,https://www.redfin.com/MS/Kosciusko/804-N-Natchez-St-39090/home/94487384,MLSU,4032414,N,Y,33.067072,-89.5857331
MLS Listing,,Single Family Residential,4999 Laurel Greens Dr,Memphis,TN,38125,579900,5,3.5,Windyke,,20037,2011,59,153,25,Active,,,https://www.redfin.com/TN/Memphis/4999-Laurel-Green-Dr-38125/home/60859546,Memphis Area Association of Realtors(R) MLS,10136042,N,Y,35.0114497,-89.78979
MLS Listing,,Single Family Residential,15 Woodridge Dr,Greenbrier,AR,72058,344000,4,2.0,Greenbrier School District,2309,51836,2005,65,149,,Active,,,https://www.redfin.com/AR/Greenbrier/15-Woodridge-Dr-72058/home/95387640,CARMLS,22034348,N,Y,35.2660248,-92.3780069
MLS Listing,,Single Family Residential,3252 Southern Ave,Memphis,TN,38111,268500,2,2.0,Chickasaw Gardens,,8276,1950,141,269,,Active,,,https://www.redfin.com/TN/Memphis/3252-Southern-Ave-38111/home/60716918,Memphis Area Association of Realtors(R) MLS,10129408,N,Y,35.1155013,-89.9538
MLS Listing,,Vacant Land,01 Mormon Rd,Northport,AL,35475,36000,,,Northport,,172497,,1,,,Active,,,https://www.redfin.com/AL/Northport/01-Mormon-Rd-35475/home/183394530,WAMLS,154619,N,Y,33.4570612,-87.7228278
MLS Listing,,Single Family Residential,54 Fontenay Cir,Little Rock,AR,72223,624500,3,2.5,Pulaski County West,4351,24393,1991,1,144,79,Active,,,https://www.redfin.com/AR/Little-Rock/54-Fontenay-Cir-72223/home/81405873,CARMLS,22040301,N,Y,34.7687664,-92.4688518
MLS Listing,,Single Family Residential,1953 Torreyson St,Conway,AR,72034,65000,3,1.0,Conway - Old Town,1496,,1957,1,43,,Active,,,https://www.redfin.com/AR/Conway/1953-Torreyson-St-72034/home/95396350,CARMLS,22040300,N,Y,35.0763361,-92.4520512
MLS Listing,,Single Family Residential,114 Wheatland Cir,Eutaw,AL,35462,135000,3,2.0,Wheatland West End Add,1323,,1970,1,102,,Active,,,https://www.redfin.com/AL/Eutaw/114-Wheatland-Cir-35462/home/120474135,WAMLS,150659,N,Y,32.8406941,-87.9112806
MLS Listing,,Single Family Residential,2345 Appleton Dr,Southaven,MS,38672,599000,5,4.5,Dickens Place,4114,34412,2004,1,146,10,Active,,,https://www.redfin.com/MS/Southaven/2345-Appleton-Dr-38672/home/94412319,MLSU,4035589,N,Y,34.924097,-89.9485113
MLS Listing,,Single Family Residential,2907 Bermuda Ln,North Little Rock,AR,72206,92000,3,1.0,North Little Rock - East Of I-44,1000,6969,1962,1,92,,Active,,,https://www.redfin.com/AR/Little-Rock/2907-Bermuda-Ln-72206/home/82868689,CARMLS,22040299,N,Y,34.7187732,-92.198865
MLS Listing,,Single Family Residential,107 Briar Hollow Dr,Monroe,LA,71203,236500,3,2.0,OAK TRACE,2281,,2018,1,104,,Active,,,https://www.redfin.com/LA/Monroe/107-Briar-Hollow-Dr-71203/home/144689984,NELABOR,204144,N,Y,32.5502832,-92.0158983
MLS Listing,,Single Family Residential,1435 E Holmes Rd,Memphis,TN,38116,232000,4,3.0,Whitehaven/Southland Mall,,30056,1958,1,97,,Active,,,https://www.redfin.com/TN/Memphis/1435-E-Holmes-Rd-38116/home/87619331,Memphis Area Association of Realtors(R) MLS,10139054,N,Y,35.0060875,-90.0160171
MLS Listing,,Single Family Residential,9250 Mason St,Olive Branch,MS,38654,192000,2,2.0,Mason,1487,23086,1962,1,129,,Active,,,https://www.redfin.com/MS/Olive-Branch/9250-Mason-St-38654/home/60796263,MLSU,4035588,N,Y,34.956869,-89.8260283
MLS Listing,,Vacant Land,000 Highway 1 Hwy,Dewitt,AR,72402,490000,,,Arkansas County - East,,5227200,,1,,,Active,,,https://www.redfin.com/AR/Dewitt/000-Highway-1-HWY-72402/home/183390450,CARMLS,22040297,N,Y,34.293215,-91.3351283
MLS Listing,,Condo/Co-op,200 Wagner Pl #205,Memphis,TN,38103,349000,2,2.0,South Bluffs/Downtown,,,1983,1,291,,Active,,,https://www.redfin.com/TN/Memphis/200-Wagner-Pl-38103/unit-205/home/60691216,Memphis Area Association of Realtors(R) MLS,10139220,N,Y,35.1411765,-90.0567159
MLS Listing,,Single Family Residential,3378 Dabler Pl,Bartlett,TN,38134,350000,4,2.5,Bartlett - West,,18295,1986,1,159,,Active,,,https://www.redfin.com/TN/Bartlett/3378-Dabler-Pl-38134/home/87740189,Memphis Area Association of Realtors(R) MLS,10139219,N,Y,35.2179213,-89.8590401
MLS Listing,,Single Family Residential,13306 Abinger Dr,Little Rock,AR,72212,350000,4,2.5,Lit - West Little Rock (northwes,3811,14810,1979,1,92,22,Active,,,https://www.redfin.com/AR/Little-Rock/13306-Abinger-Dr-72212/home/81393391,CARMLS,22040296,N,Y,34.7717018,-92.4210836
MLS Listing,,Single Family Residential,1798 Chisholm Rd,Florence,AL,35630,289900,3,2.0,R L Malone,1485,13939,2022,1,195,,Active,,,https://www.redfin.com/AL/Florence/1798-Chisholm-Rd-35630/home/183388589,SAARMLS,508894,N,Y,34.824365,-87.67507
MLS Listing,,Single Family Residential,2317 Camden Cv,Muscle Shoals,AL,35661,219000,3,2.0,Whitfield Colony Phase I,1500,8712,2003,1,146,,Active,,,https://www.redfin.com/AL/Muscle-Shoals/2317-Camden-Cv-W-35661/home/80487486,SAARMLS,508893,N,Y,34.7386171,-87.6237983
MLS Listing,,Townhouse,225 Country Club Pkwy #63,Maumelle,AR,72113,334900,3,2.5,Maumelle,1700,,,1,197,168,Active,,,https://www.redfin.com/AR/Maumelle/225-Country-Club-Pkwy-72113/unit-63/home/183387912,CARMLS,22040294,N,Y,34.8414699,-92.3988743
MLS Listing,,Townhouse,225 Country Club Pkwy #62,Maumelle,AR,72113,334900,3,2.5,Maumelle,1700,,,1,197,168,Active,,,https://www.redfin.com/AR/Maumelle/225-Country-Club-Pkwy-72113/unit-62/home/183387898,CARMLS,22040293,N,Y,34.8414699,-92.3988743
MLS Listing,,Townhouse,225 Country Club Pkwy #61,Maumelle,AR,72113,334900,3,2.5,Maumelle,1700,,,1,197,168,Active,,,https://www.redfin.com/AR/Maumelle/225-Country-Club-Pkwy-72113/unit-61/home/183387897,CARMLS,22040292,N,Y,34.8414699,-92.3988743
MLS Listing,,Townhouse,225 Country Club Pkwy #60,Maumelle,AR,72113,334900,3,2.5,Maumelle,1700,,,1,197,168,Active,,,https://www.redfin.com/AR/Maumelle/225-Country-Club-Pkwy-72113/unit-60/home/183387885,CARMLS,22040291,N,Y,34.8414699,-92.3988743
MLS Listing,,Single Family Residential,4422 Boyce Rd,Memphis,TN,38117,199000,2,1.0,Sea Isle/Park,,8712,1955,1,,,Active,,,https://www.redfin.com/TN/Memphis/4422-Boyce-Rd-38117/home/87688827,Memphis Area Association of Realtors(R) MLS,10139205,N,Y,35.0893,-89.9146824
MLS Listing,,Townhouse,225 Country Club Pkwy #44,Maumelle,AR,72113,334900,3,2.5,Maumelle,1700,,,1,197,168,Active,,,https://www.redfin.com/AR/Maumelle/225-Country-Club-Pkwy-72113/unit-44/home/183387793,CARMLS,22040290,N,Y,34.8414699,-92.3988743
MLS Listing,,Townhouse,225 Country Club Pkwy #43,Maumelle,AR,72113,334900,3,2.5,Maumelle,1700,,,1,197,168,Active,,,https://www.redfin.com/AR/Maumelle/225-Country-Club-Pkwy-72113/unit-43/home/183387792,CARMLS,22040289,N,Y,34.8414699,-92.3988743
MLS Listing,,Townhouse,225 Country Club Pkwy #42,Maumelle,AR,72113,334900,3,2.5,Maumelle,1700,,,1,197,168,Active,,,https://www.redfin.com/AR/Maumelle/225-Country-Club-Pkwy-72113/unit-42/home/183387775,CARMLS,22040288,N,Y,34.8414699,-92.3988743
MLS Listing,,Townhouse,225 Country Club Pkwy #41,Maumelle,AR,72113,334900,3,2.5,Maumelle,1700,,,1,197,168,Active,,,https://www.redfin.com/AR/Maumelle/225-Country-Club-Pkwy-72113/unit-41/home/183387695,CARMLS,22040287,N,Y,34.8414699,-92.3988743
MLS Listing,,Vacant Land,2798 Stage Center Dr,Bartlett,TN,38134,45000,,,Bartlett - West,,18730,,1,,,Active,,,https://www.redfin.com/TN/Memphis/2798-Stage-Center-Dr-38134/home/163601394,Memphis Area Association of Realtors(R) MLS,10139204,N,Y,35.202135,-89.859984
MLS Listing,,Vacant Land,14118 Kanis Rd,Little Rock,AR,72223,1200000,,,Lit - West Little Rock (northwes,,217800,,1,,,Active,,,https://www.redfin.com/AR/Little-Rock/14118-Kanis-Rd-72223/home/81395913,CARMLS,22040286,N,Y,34.745641,-92.430789
MLS Listing,,Townhouse,225 Country Club Pkwy #40,Maumelle,AR,72113,334900,3,2.5,Maumelle,1700,,,1,197,168,Active,,,https://www.redfin.com/AR/Maumelle/225-Country-Club-Pkwy-72113/unit-40/home/183387626,CARMLS,22040285,N,Y,34.8414699,-92.3988743
MLS Listing,,Single Family Residential,2136 Weems St,Conway,AR,72034,195000,3,1.0,Conway Northwest,1626,,1957,1,120,,Active,,,https://www.redfin.com/AR/Conway/2136-Weems-St-72034/home/82884919,CARMLS,22040284,N,Y,35.0946625,-92.4552959
MLS Listing,,Multi-Family (2-4 Unit),308-316 Cherrie Ave,Sherwood,AR,72120,149900,9,,Sherwood,3300,19602,1995,1,45,,Active,,,https://www.redfin.com/AR/Sherwood/308-Cherrie-Ave-72120/home/82986575,CARMLS,22040283,N,Y,34.8361577,-92.196838
MLS Listing,,Condo/Co-op,1901 E 5th Ave. St E #1313,Tuscaloosa,AL,35401,234900,3,3.0,Midtown Village,1336,,2008,1,176,420,Active,,,https://www.redfin.com/AL/Tuscaloosa/1901-5th-Ave-E-35401/unit-1313/home/136121679,WAMLS,154653,N,Y,33.1926887,-87.529617
MLS Listing,,Single Family Residential,6479 Stone Lake Dr,Bartlett,TN,38135,350000,4,2.0,Bartlett - West,,9583,1994,1,194,,Active,,,https://www.redfin.com/TN/Bartlett/6479-Stone-Lake-Dr-38135/home/60825124,Memphis Area Association of Realtors(R) MLS,10139202,N,Y,35.2206106,-89.8470452
MLS Listing,,Multi-Family (5+ Unit),6604-6615 Fitts Rd,North Little Rock,AR,72118,259900,10,7.5,North Little Rock (west/crystal,4750,77972,1975,1,55,,Active,,,https://www.redfin.com/AR/North-Little-Rock/6604-Fitts-Rd-72118/home/82920591,CARMLS,22040282,N,Y,34.8136523,-92.30403
MLS Listing,,Single Family Residential,924 Liberty Ave,Covington,TN,38019,595000,4,3.5,Tipton - North,,65340,1973,1,213,,Active,,,https://www.redfin.com/TN/Covington/924-W-Liberty-Ave-38019/home/60583800,Memphis Area Association of Realtors(R) MLS,10139201,N,Y,35.5658614,-89.658879
MLS Listing,,Single Family Residential,8108 Briscoe Dr,Olive Branch,MS,38654,478000,5,3.0,Ross Meadows,2900,33541,2022,1,165,25,Active,,,https://www.redfin.com/MS/Olive-Branch/8108-Briscoe-Dr-38654/home/183386749,MLSU,4035569,N,Y,34.8994279,-89.8462257
MLS Listing,,Single Family Residential,1801 Turtle Hill Dr,Cordova,TN,38016,420000,6,3.5,Countrywood,,12196,2002,1,117,4,Active,,,https://www.redfin.com/TN/Cordova/1801-Turtle-Hill-Dr-38016/home/87773379,Memphis Area Association of Realtors(R) MLS,10139200,N,Y,35.174483,-89.7606732
MLS Listing,,Single Family Residential,741 N Sanga Rd,Memphis,TN,38018,250000,3,2.0,Cordova - West,,6098,1996,1,179,,Active,,,https://www.redfin.com/TN/Cordova/741-N-Sanga-Rd-38018/home/60787277,Memphis Area Association of Realtors(R) MLS,10139199,N,Y,35.1452465,-89.7703122
MLS Listing,,Single Family Residential,3116 Signal St,Memphis,TN,38127,112000,3,1.0,Frayser/Whitney,,15681,1950,1,93,,Active,,,https://www.redfin.com/TN/Memphis/3116-Signal-St-38127/home/87693419,Memphis Area Association of Realtors(R) MLS,10139198,N,Y,35.2107035,-90.0113489
MLS Listing,,Single Family Residential,1307 Tyne St,Memphis,TN,38111,114900,4,2.0,Getwell/Park,,6098,1975,1,82,,Active,,,https://www.redfin.com/TN/Memphis/1307-Tyne-St-38111/home/87678677,Memphis Area Association of Realtors(R) MLS,10139197,N,Y,35.096388,-89.9408321
MLS Listing,,Single Family Residential,4858 Walden Glen St,Memphis,TN,38128,139900,4,2.0,Raleigh/Singleton,,11325,1985,1,100,,Active,,,https://www.redfin.com/TN/Memphis/4858-Walden-Glen-St-38128/home/60740558,Memphis Area Association of Realtors(R) MLS,10139195,N,Y,35.2491659,-89.9013544
MLS Listing,,Vacant Land,10664 Missionary Ridge Rd,Bon Aqua,TN,37025,379900,,,10.15 ACRES,,442134,,,,,Active,,,https://www.redfin.com/TN/Bon-Aqua/10664-Missionary-Ridge-Rd-37025/home/87799631,REALTRACS,2469357,N,Y,35.9620981,-87.3926428
MLS Listing,,Single Family Residential,1824 Thrift Ave,Memphis,TN,38127,120000,3,1.0,Frayser - East,,20908,1942,1,120,,Active,,,https://www.redfin.com/TN/Memphis/1824-Thrift-Ave-38127/home/87695757,Memphis Area Association of Realtors(R) MLS,10139194,N,Y,35.2139668,-90.0029325
MLS Listing,,Single Family Residential,107 Cedarwood Dr,Sherwood,AR,72120,188000,4,2.5,Sherwood,1881,8712,1987,1,100,,Active,,,https://www.redfin.com/AR/Sherwood/107-Cedarwood-Dr-72120/home/95372820,CARMLS,22040279,N,Y,34.8423023,-92.2092453
MLS Listing,,Single Family Residential,4900 Old Stone Cv,Unincorporated,TN,38125,310000,3,2.5,Germantown Extended/State Line,,6534,2003,1,155,,Active,,,https://www.redfin.com/TN/Memphis/4900-Old-Stone-Cv-38125/home/87635343,Memphis Area Association of Realtors(R) MLS,10139193,N,Y,35.0145396,-89.8025468
MLS Listing,,Single Family Residential,3122 Johnson Ave,Memphis,TN,38112,99500,3,2.0,Chickasaw Gardens,,7840,1951,1,83,,Active,,,https://www.redfin.com/TN/Memphis/3122-Johnson-Ave-38112/home/87643305,Memphis Area Association of Realtors(R) MLS,10139192,N,Y,35.1419753,-89.9571553
MLS Listing,,Single Family Residential,1930 Highland Rd,Batesville,AR,72501,199000,3,3.0,Batesville,1810,36154,,1,110,,Active,,,https://www.redfin.com/AR/Batesville/1930-Highland-Rd-72501/home/121933639,CARMLS,22040277,N,Y,35.7788128,-91.6326789
MLS Listing,,Single Family Residential,163 Matlock Ln,Muscle Shoals,AL,35661,229950,3,2.0,Ford City,1810,87120,1976,1,127,,Active,,,https://www.redfin.com/AL/Muscle-Shoals/163-Matlock-Ln-35661/home/80486726,SAARMLS,508892,N,Y,34.8034469,-87.5161163
MLS Listing,,Vacant Land,19 Crown Ct,North Little Rock,AR,72116,25500,,,North Little Rock (central),,12632,,1,,,Active,,,https://www.redfin.com/AR/North-Little-Rock/19-Crown-Ct-72116/home/183384934,CARMLS,22040257,N,Y,34.829333,-92.2386499
MLS Listing,,Single Family Residential,10923 Gettysburg Ct,Mabelvale,AR,72209,98800,3,2.0,Lit - Southwest Little Rock (sou,1680,10454,1979,1,59,,Active,,,https://www.redfin.com/AR/Mabelvale/10923-Gettysburg-Ct-72103/home/95352691,CARMLS,22040274,N,Y,34.6503984,-92.3735145
MLS Listing,,Single Family Residential,107 Snell Dr,Florence,AL,35630,179900,3,1.0,Mars Hill,1984,130680,1958,1,91,,Active,,,https://www.redfin.com/AL/Florence/107-Snell-Dr-35630/home/122549961,SAARMLS,508891,N,Y,34.8549238,-87.659323
MLS Listing,,Single Family Residential,611 Mountain Springs Rd,Cabot,AR,72023,215000,3,2.0,Cabot School District,1700,70131,1977,1,126,,Active,,,https://www.redfin.com/AR/Cabot/611-Mountain-Springs-Rd-72023/home/95412386,CARMLS,22040273,N,Y,34.9895412,-92.0297489
MLS Listing,,Single Family Residential,2709 Freedom Dr,Jonesboro,AR,72401,214900,3,2.0,Jonesboro B,1820,12196,1999,1,118,,Active,,,https://www.redfin.com/AR/Jonesboro/2709-Freedom-Dr-72401/home/119424342,CARMLS,22040272,N,Y,35.8763859,-90.7054266
MLS Listing,,Single Family Residential,80 El Dorado,Little Rock,AR,72212,485000,5,3.5,Lit - West Little Rock (northwes,3749,21780,1979,1,129,39,Active,December-18-2022 02:00 PM,December-18-2022 04:00 PM,https://www.redfin.com/AR/Little-Rock/80-Eldorado-Dr-72212/home/95335414,CARMLS,22040271,N,Y,34.7873318,-92.4183179
MLS Listing,,Single Family Residential,8610 Cameron St,Olive Branch,MS,38654,524900,5,3.5,Estates Of Southern Trails,3544,40075,2007,1,148,,Active,,,https://www.redfin.com/MS/Olive-Branch/8610-Cameron-St-38654/home/91482437,MLSU,4035565,N,Y,34.9142412,-89.8372241
MLS Listing,,Townhouse,291 Mountain Terrace Cir,Maumelle,AR,72113,306443,2,2.0,Maumelle,1800,3484,,1,170,256,Active,,,https://www.redfin.com/AR/Maumelle/291-Mountain-Terrace-Cir-72113/home/183384738,CARMLS,22040270,N,Y,34.8558556,-92.4232849
MLS Listing,,Single Family Residential,4940 Avi Dr,Arlington,TN,38002,425000,4,3.0,Bartlett/Brunswick,,16117,2015,1,152,,Active,,,https://www.redfin.com/TN/Arlington/4940-Avi-Dr-38002/home/70102822,Memphis Area Association of Realtors(R) MLS,10139190,N,Y,35.2608221,-89.8147377
MLS Listing,,Single Family Residential,7440 Crosswinds Blvd,Hernando,MS,38632,388900,3,2.0,Hernando,2247,12632,2022,1,173,33,Active,,,https://www.redfin.com/MS/Hernando/7440-Cross-Winds-Dr-38632/home/183384612,MLSU,4035562,N,Y,34.850916,-89.854197
MLS Listing,,Single Family Residential,1932 Harrison Dr,Tuscaloosa,AL,35405,340000,4,2.5,Ridge Haven,2380,,2008,1,143,19,Active,,,https://www.redfin.com/AL/Tuscaloosa/1932-Harrison-Dr-35405/home/135909654,WAMLS,154651,N,Y,33.1075608,-87.564053
MLS Listing,,Single Family Residential,1348 CR 3914,Arley,AL,35541,550000,2,2.0,Grand banks,2400,56628,,1,229,,Active,,,https://www.redfin.com/AL/Arley/1348-County-Rd-3914-35541/home/95163090,Walker County Area MLS,22-2492,N,Y,34.0221412,-87.1919998
MLS Listing,,Single Family Residential,9566 Sequoia Point Cv,Lakeland,TN,38002,799900,3,3.0,Lakeland/Hwy 70 30,,10890,2001,1,200,8,Active,,,https://www.redfin.com/TN/Lakeland/9566-Sequoia-Point-Cv-38002/home/60705919,Memphis Area Association of Realtors(R) MLS,10139186,N,Y,35.24252,-89.7436801
MLS Listing,,Single Family Residential,5708 Remsen Ave,Bartlett,TN,38135,259900,4,2.0,Raleigh - Southeast,,6534,1983,1,144,,Active,,,https://www.redfin.com/TN/Memphis/5708-Remsen-Ave-38135/home/60604636,Memphis Area Association of Realtors(R) MLS,10139187,N,Y,35.236608,-89.8729667
MLS Listing,,Single Family Residential,8345 Enterprise Ave,Tuscaloosa,AL,35406,899900,4,4.5,Yacht Club Bay,4752,,1979,1,189,,Active,,,https://www.redfin.com/AL/Tuscaloosa/8345-NE-Enterprise-Ave-35406/home/135962339,WAMLS,154625,N,Y,33.2953796,-87.4954067
MLS Listing,,Vacant Land,216 2nd St NW,Fayette,AL,35555,450000,,,Fayette,,60983,,1,,,Active,,,https://www.redfin.com/AL/Fayette/216-2nd-St-NW-35555/home/183384448,WAMLS,154618,N,Y,33.6873899,-87.832449
MLS Listing,,Single Family Residential,15 Wellington Pl,Cabot,AR,72023,445000,4,3.5,Cabot School District,2600,,,1,171,15,Active,,,https://www.redfin.com/AR/Cabot/15-Wellington-Pl-72023/home/183384103,CARMLS,22040262,N,Y,35.0278922,-92.0563903
MLS Listing,,Vacant Land,Wallace Rd,Coldwater,MS,38618,156750,,,Coldwater,,1202256,,1,,,Active,,,https://www.redfin.com/MS/Unknown/Wallace-Rd-38618/home/183384049,MLSU,4035558,N,Y,34.738127,-89.833427
MLS Listing,,Vacant Land,000 Yocona Rd,Forrest City,AR,72335,9900,,,St. Francis County,,28749,,1,,,Active,,,https://www.redfin.com/AR/Forrest-City/0-Yocona-Rd-72335/home/183384026,CARMLS,22040260,N,Y,34.9910197,-90.8201787
MLS Listing,,Single Family Residential,7186 Devine St,Bartlett,TN,38133,220000,3,2.0,Bartlett - East,,8276,1976,1,157,,Active,,,https://www.redfin.com/TN/Bartlett/7186-Devine-St-38133/home/87739240,Memphis Area Association of Realtors(R) MLS,10139183,N,Y,35.2072704,-89.8237411
MLS Listing,,Single Family Residential,23750 Highway 64,Lawrenceburg,TN,38464,349000,3,1.0,Lawrenceburg,1322,1383901,1930,,264,,Pre On-Market,,,https://www.redfin.com/TN/Lawrenceburg/23750-Highway-64-38464/home/175267607,REALTRACS,2469311,N,Y,35.22782213,-87.17664873
MLS Listing,,Single Family Residential,601 Woodsmoke Dr,Southaven,MS,38671,204900,3,2.0,Greenbrook,1417,10454,1983,1,145,,Active,,,https://www.redfin.com/MS/Southaven/601-Woodsmoke-Dr-38671/home/94437348,MLSU,4035556,N,Y,34.9723849,-89.9791395
MLS Listing,,Mobile/Manufactured Home,194 Burton Road Rd,Holly Springs,MS,38635,120000,3,1.0,Dreamlee Farms,1200,348480,1995,1,100,,Active,,,https://www.redfin.com/MS/Holly-Springs/194-Burton-Rd-38635/home/183383709,MLSU,4035553,N,Y,34.7774218,-89.5758276
MLS Listing,,Single Family Residential,3205 N 1st,Jacksonville,AR,72076,185000,3,2.0,Jacksonville,1352,27442,1940,1,137,,Active,,,https://www.redfin.com/AR/Jacksonville/3205-N-1st-St-72076/home/95366412,CARMLS,22040251,N,Y,34.8947152,-92.102401
MLS Listing,,Single Family Residential,10306 Legacy Ln,Northport,AL,35475,490000,3,2.0,Legacy Point,2000,,2015,1,245,142,Active,,,https://www.redfin.com/AL/Northport/10306-Legacy-Ln-35475/home/135749756,WAMLS,154646,N,Y,33.3242689,-87.5420193
MLS Listing,,Single Family Residential,10403 Valley Run Ln,Unincorporated,TN,38016,360000,4,2.5,Fisherville - West,,10890,2002,1,129,,Active,,,https://www.redfin.com/TN/Cordova/10403-Valley-Run-Ln-38016/home/60572909,Memphis Area Association of Realtors(R) MLS,10139180,N,Y,35.1595887,-89.7159473
MLS Listing,,Vacant Land,25 S Church Street St,Vilonia,AR,72173,69500,,,Vilonia School District,,77101,,1,,,Active,,,https://www.redfin.com/AR/Vilonia/25-S-Church-St-72173/home/183383242,CARMLS,22040252,N,Y,35.0806728,-92.2070488
MLS Listing,,Single Family Residential,110 Maple Ave,Russellville,AL,35653,109900,2,1.5,,1250,21780,1960,1,88,,Active,,,https://www.redfin.com/AL/Russellville/110-N-Maple-Ave-35653/home/183383101,SAARMLS,508890,N,Y,34.5146504,-87.719128
MLS Listing,,Single Family Residential,8424 Herrick Ln,Little Rock,AR,72209,75000,3,1.5,Lit - Southwest Little Rock (cen,1072,8276,1965,1,70,,Active,,,https://www.redfin.com/AR/Little-Rock/8424-Herrick-Ln-72209/home/95350088,CARMLS,22040249,N,Y,34.6737661,-92.3868893
MLS Listing,,Single Family Residential,209 Deauville Pl,Little Rock,AR,72223,1249000,5,4.5,Pulaski County West,5773,18730,2007,1,216,134,Active,,,https://www.redfin.com/AR/Little-Rock/209-Deauville-Pl-72223/home/95345450,CARMLS,22040248,N,Y,34.7869968,-92.4756578
MLS Listing,,Single Family Residential,1688 Brierbrook Rd,Germantown,TN,38138,350000,3,2.0,Germantown - West,,14810,1979,1,135,25,Active,,,https://www.redfin.com/TN/Germantown/1688-Brierbrook-Rd-38138/home/87764949,Memphis Area Association of Realtors(R) MLS,10139179,N,Y,35.1031763,-89.7971274
MLS Listing,,Single Family Residential,416 Christy,Trumann,AR,72472,99900,3,1.0,Poinsett County,1056,6534,1970,1,95,,Active,,,https://www.redfin.com/AR/Trumann/416-Christy-Ave-72472/home/81549055,CARMLS,22040247,N,Y,35.6779034,-90.5218318
MLS Listing,,Single Family Residential,423 Temple Ave N,Fayette,AL,35555,349900,4,2.5,,3874,,1900,1,90,,Active,,,https://www.redfin.com/AL/Fayette/423-Temple-Ave-N-35555/home/95206640,WAMLS,154644,N,Y,33.689266,-87.8311247
MLS Listing,,Single Family Residential,4902 Lochinvar Rd,Memphis,TN,38116,159500,3,1.5,Whitehaven/Southland Mall,,13503,1958,1,160,,Active,,,https://www.redfin.com/TN/Memphis/4902-Lochinvar-Rd-38116/home/60692932,Memphis Area Association of Realtors(R) MLS,10139177,N,Y,35.0149143,-90.0094542
MLS Listing,,Single Family Residential,5070 Newcastle Ave,Memphis,TN,38117,205000,3,1.0,Sea Isle/Park,,7840,1954,1,,,Active,December-18-2022 01:00 PM,December-18-2022 03:00 PM,https://www.redfin.com/TN/Memphis/5070-New-Castle-Rd-38117/home/60618330,Memphis Area Association of Realtors(R) MLS,10139178,N,Y,35.1011488,-89.8929535
MLS Listing,,Single Family Residential,30 Copper Cir,Little Rock,AR,72223,575000,4,3.0,Pulaski County West,2946,6969,,1,195,15,Active,,,https://www.redfin.com/AR/Little-Rock/30-Copper-Cir-72223/home/177532668,CARMLS,22040245,N,Y,34.7491008,-92.4603869
MLS Listing,,Mobile/Manufactured Home,1716 Leonard,Jacksonville,AR,72076,25000,3,2.0,Jacksonville,1064,10890,1982,1,23,,Active,,,https://www.redfin.com/AR/Jacksonville/1716-Leonard-Dr-72076/home/95366970,CARMLS,22040244,N,Y,34.8798186,-92.092758
MLS Listing,,Single Family Residential,5147 Oak Meadow Ave,Memphis,TN,38134,285000,5,3.0,Covington Pike - South,,11325,1972,1,119,,Active,,,https://www.redfin.com/TN/Memphis/5147-Oak-Meadow-Ave-38134/home/60796591,Memphis Area Association of Realtors(R) MLS,10139176,N,Y,35.1969591,-89.8917846
MLS Listing,,Vacant Land,000 N Alabama Highway 24,Moulton,AL,35650,40000,,,Metes And Bounds,,87120,,1,,,Active,,,https://www.redfin.com/AL/Moulton/000-N-Alabama-Highway-24-35650/home/183382419,VMLS,1824554,N,Y,34.484634,-87.415055
MLS Listing,,Single Family Residential,1311 W 23rd St,North Little Rock,AR,72114,90000,3,1.5,North Little Rock (downtown/east,1290,5662,1940,1,70,,Active,,,https://www.redfin.com/AR/North-Little-Rock/1311-W-23rd-St-72114/home/95317001,CARMLS,22040241,N,Y,34.7771252,-92.2812133
MLS Listing,,Single Family Residential,495 Hidden Vly,Wilburn,AR,72179,199900,2,2.0,Heber Springs,1106,31363,1991,1,181,,Active,,,https://www.redfin.com/AR/Wilburn/495-Hidden-Valley-Rd-72179/home/110385255,CARMLS,22040240,N,Y,35.4541525,-91.9013686
MLS Listing,,Single Family Residential,432 Dartmoor Dr,Killen,AL,35645,372400,3,2.0,Northgate Estates,1900,19602,2022,1,196,,Active,,,https://www.redfin.com/AL/Killen/432-Dartmoor-DR-35645/home/183381905,SAARMLS,508889,N,Y,34.8832847081561,-87.4867779054382
MLS Listing,,Single Family Residential,456 Dartmoor Dr,Killen,AL,35645,372400,3,2.0,Northgate Estates,1900,19602,2022,1,196,,Active,,,https://www.redfin.com/AL/Killen/456-Dartmoor-DR-35645/home/183381904,SAARMLS,508888,N,Y,34.8830030735781,-87.4857479371765
MLS Listing,,Vacant Land,000 Pete Freeman Rd,Union,MS,39365,60000,,,Union,,762300,,1,,,Active,,,https://www.redfin.com/MS/Unknown/Pete-Freeman-Rd-39365/home/183381854,MLSU,4035545,N,Y,32.51324,-89.203506
MLS Listing,,Mobile/Manufactured Home,11805 Hwy 13 S,Linden,TN,37096,129900,3,2.0,Linden,1788,73616,1993,,73,,Pre On-Market,,,https://www.redfin.com/TN/Linden/11805-TN-13-37096/home/87404247,REALTRACS,2469220,N,Y,35.4786363,-87.8274778
MLS Listing,,Vacant Land,33 Lorraine Cir Lot 33,Searcy,AR,72143,30000,,,Searcy,,5227,,1,,75,Active,,,https://www.redfin.com/AR/Searcy/Lorraine-Cir-72143/unit-33/home/183381825,CARMLS,22040236,N,Y,35.2398376,-91.7670093
MLS Listing,,Single Family Residential,4268 Boyce Ave,Memphis,TN,38111,154900,3,1.0,Getwell/Park,,7405,1954,1,,,Active,,,https://www.redfin.com/TN/Memphis/4268-Boyce-Ave-38111/home/87680357,Memphis Area Association of Realtors(R) MLS,10139170,N,Y,35.0886586,-89.9198299
MLS Listing,,Single Family Residential,48 Oak Ridge Dr,Maumelle,AR,72113,165000,2,2.0,Maumelle,1100,,1991,1,150,,Active,,,https://www.redfin.com/AR/Maumelle/48-Oak-Ridge-Dr-72113/home/95332206,CARMLS,22040235,N,Y,34.8762381,-92.3989325
MLS Listing,,Mobile/Manufactured Home,150 Bayou Ln,Lake Village,AR,71653,140000,3,2.0,Chicot County,1200,20473,,1,117,,Active,,,https://www.redfin.com/AR/Lake-Village/150-Bayou-Dr-71653/home/118534411,CARMLS,22040231,N,Y,33.3878417,-91.2510982
MLS Listing,,Single Family Residential,1578 Rabb St,Memphis,TN,38119,189900,4,2.0,Sea Isle/Park,,7840,1959,1,106,,Active,,,https://www.redfin.com/TN/Memphis/1578-Rabb-Rd-38119/home/87614856,Memphis Area Association of Realtors(R) MLS,10139169,N,Y,35.0885426,-89.882797
MLS Listing,,Single Family Residential,37 W Point Dr,Maumelle,AR,72113,264000,3,2.0,Maumelle,1766,8712,2003,1,149,,Active,,,https://www.redfin.com/AR/Maumelle/37-W-Point-Dr-72113/home/95331885,CARMLS,22040230,N,Y,34.8781686,-92.4211608
MLS Listing,,Single Family Residential,538 Hargrove Rd,Tuscaloosa,AL,35401,309900,3,3.0,Avalon Place,1612,,1950,1,192,,Active,,,https://www.redfin.com/AL/Tuscaloosa/538-Hargrove-Rd-35401/home/135889939,WAMLS,154643,N,Y,33.1925676,-87.5446268
MLS Listing,,Single Family Residential,1234 Pea Ridge Rd,West Point,MS,39773,365000,5,3.0,Metes And Bounds,3700,248292,2002,1,99,,Active,,,https://www.redfin.com/MS/West-Point/1234-Pea-Ridge-Rd-39773/home/93958222,MLSU,4035538,N,Y,33.6414116,-88.7422958
MLS Listing,,Single Family Residential,3410 Riney St,Memphis,TN,38127,138000,4,1.5,Frayser/Whitney,,,1960,1,86,,Active,,,https://www.redfin.com/TN/Memphis/3410-Riney-St-38127/home/60696344,Memphis Area Association of Realtors(R) MLS,10139168,N,Y,35.2188607,-90.0054463
MLS Listing,,Single Family Residential,700 Bluff Dr,Rogersville,AL,35652,590000,4,2.0,Metes And Bounds,2315,47916,,1,255,,Active,,,https://www.redfin.com/AL/Rogersville/700-Bluff-Dr-35652/home/122810417,VMLS,1824537,N,Y,34.7709683,-87.2814747
MLS Listing,,Single Family Residential,1650 60th Ave. #,Tuscaloosa,AL,35453,157500,3,1.5,Norris Circle,1184,,1960,1,133,,Active,,,https://www.redfin.com/AL/Cottondale/1650-60th-Ave-E-35453/home/136050105,WAMLS,154568,N,Y,33.1929219,-87.4570106
MLS Listing,,Single Family Residential,162 Turtle Dove Dr,Monroe,LA,71203,209500,3,2.0,AUDUBON PARK,2248,28314,1977,1,93,,Active,,,https://www.redfin.com/LA/Monroe/162-Turtledove-Dr-71203/home/124070762,NELABOR,204143,N,Y,32.5805521,-91.9814054
MLS Listing,,Single Family Residential,111 Patsy Ann Dr,West Monroe,LA,71292,54900,3,1.0,,2908,30056,,1,19,,Active,,,https://www.redfin.com/LA/West-Monroe/111-Patsy-Ann-Dr-71292/home/123939364,NELABOR,204142,N,Y,32.481314,-92.178402
MLS Listing,,Single Family Residential,570 Hilly Village Rd,Batesville,AR,72501,120000,2,1.0,Batesville,960,87120,1980,1,125,,Active,,,https://www.redfin.com/AR/Batesville/570-Hilly-Village-Rd-72501/home/121915101,CARMLS,22040226,N,Y,35.8360077,-91.5472939
MLS Listing,,Single Family Residential,500 Creek Side Loop Rd,Tuscaloosa,AL,35404,334900,3,2.0,Summerfield Preserve,1635,,2022,1,205,25,Active,,,https://www.redfin.com/AL/Tuscaloosa/500-Creek-Side-Loop-Rd-35404/home/180045998,WAMLS,154642,N,Y,33.2105219,-87.4671182
MLS Listing,,Vacant Land,288 Hickory Hill Rd,Batesville,MS,38606,57500,,,Batesville,,435600,,1,,,Active,,,https://www.redfin.com/MS/Batesville/288-Hickory-Hill-Rd-38606/home/183380245,MLSU,4035533,N,Y,34.3853231,-89.7389694
MLS Listing,,Condo/Co-op,5841 Park Ave #3,Memphis,TN,38119,179900,2,1.5,Massey/Kirby/Ridgeway,,2178,1968,1,180,,Active,,,https://www.redfin.com/TN/Memphis/5841-Park-Ave-38119/unit-3/home/87724254,Memphis Area Association of Realtors(R) MLS,10139163,N,Y,35.099551,-89.868363
MLS Listing,,Single Family Residential,102 Jordan Cemetery Rd,Bon Aqua,TN,37025,685999,4,3.0,Bon Aqua,2565,87991,2023,,267,,Active,,,https://www.redfin.com/TN/Bon-Aqua/102-Jordan-Cemetery-Rd-37025/home/183379728,REALTRACS,2469146,N,Y,35.9819537,-87.2749009
MLS Listing,,Single Family Residential,116 Deauville Dr,Maumelle,AR,72113,299900,4,2.0,Maumelle,2549,10454,1995,1,118,4,Active,,,https://www.redfin.com/AR/Maumelle/116-Deauville-Dr-72113/home/95333026,CARMLS,22040222,N,Y,34.8425677,-92.4009967
MLS Listing,,Single Family Residential,647 Oak Wild Cv,Collierville,TN,38017,375000,4,2.0,Collierville - East,,13503,1973,1,188,,Active,,,https://www.redfin.com/TN/Collierville/647-Oak-Wild-Cv-38017/home/87745165,Memphis Area Association of Realtors(R) MLS,10139162,N,Y,35.0571889,-89.6698474
MLS Listing,,Single Family Residential,203 Shofner St,Mount Pleasant,TN,38474,173900,3,1.0,Mount Pleasant,916,3484,1961,,190,,Active,,,https://www.redfin.com/TN/Mt-Pleasant/203-Shofner-St-38474/home/87390498,REALTRACS,2469136,N,Y,35.5377733,-87.2030134
MLS Listing,,Single Family Residential,5118 Lynch Dr,North Little Rock,AR,72117,77500,3,2.0,North Little Rock (downtown/east,1222,,1951,1,63,,Active,,,https://www.redfin.com/AR/North-Little-Rock/5118-Lynch-Dr-72117/home/82917863,CARMLS,22040221,N,Y,34.7569678,-92.2059763
MLS Listing,,Single Family Residential,3748 Kipling Ave,Memphis,TN,38128,120000,3,2.0,Egypt Central,,9583,1964,1,75,,Active,,,https://www.redfin.com/TN/Memphis/3748-Kipling-Ave-38128/home/60635603,Memphis Area Association of Realtors(R) MLS,10139161,N,Y,35.2408648,-89.9385518
MLS Listing,,Single Family Residential,723 N Conway,Heber Springs,AR,72543,104900,3,1.0,Heber Springs,988,13939,1962,1,106,,Active,,,https://www.redfin.com/AR/Heber-Springs/723-N-Conway-St-72543/home/110422792,CARMLS,22040219,N,Y,35.497566,-92.0228231
MLS Listing,,Single Family Residential,240 Mayberry Dr,Cabot,AR,72023,349900,4,2.0,Cabot School District,2200,26136,2020,1,159,,Active,,,https://www.redfin.com/AR/CABOT/240-MAYBERRY-DR-72023/home/171029080,CARMLS,22040218,N,Y,34.9099,-91.9702
MLS Listing,,Single Family Residential,260 S Fenwick Rd,Memphis,TN,38111,569900,4,3.0,Chickasaw Gardens,,14374,1950,1,178,,Active,,,https://www.redfin.com/TN/Memphis/260-S-Fenwick-Rd-38111/home/60653459,Memphis Area Association of Realtors(R) MLS,10139160,N,Y,35.1249181,-89.9668182
MLS Listing,,Single Family Residential,7420 Appling Mist Dr,Unincorporated,TN,38016,389500,4,2.5,Macon/Appling Rd,,4356,2020,1,177,22,Active,,,https://www.redfin.com/TN/Cordova/7420-Appling-Mist-Dr-38016/home/163433513,Memphis Area Association of Realtors(R) MLS,10139159,N,Y,35.1675988,-89.8156345
MLS Listing,,Single Family Residential,18 Carlyle Pl,Munford,TN,38058,385000,4,2.5,Tipton - South,,20908,2005,1,160,,Active,,,https://www.redfin.com/TN/Munford/18-Carlyle-Pl-38058/home/60717261,Memphis Area Association of Realtors(R) MLS,10139156,N,Y,35.4358153,-89.8228812
MLS Listing,,Single Family Residential,700 Skyline Dr,Ripley,TN,38063-8258,132500,3,1.0,Lauderdale County,,,1966,1,,,Active,,,https://www.redfin.com/TN/Ripley/700-Skyline-Dr-38063/home/60733937,Memphis Area Association of Realtors(R) MLS,10139154,N,Y,35.7377372,-89.5058662
MLS Listing,,Single Family Residential,113 Cottonwood Dr,Muscle Shoals,AL,35661,354900,4,3.0,Cottonwood Estates Addition 6,2100,8712,2014,1,169,,Active,,,https://www.redfin.com/AL/Muscle-Shoals/113-Cottonwood-Dr-35661/home/80504260,SAARMLS,508885,N,Y,34.7402483,-87.6471875
MLS Listing,,Single Family Residential,4 Westbrooke,Sheridan,AR,72150,334900,4,2.0,Sheridan & Grant County,2158,21344,2019,1,155,,Active,,,https://www.redfin.com/AR/Sheridan/4-Westbrooke-Dr-72150/home/95452329,CARMLS,22040215,N,Y,34.3124037,-92.4380321
MLS Listing,,Single Family Residential,102 Lakeland Dr,West Monroe,LA,71291,249000,3,2.0,LAKELAND GARDEN,2353,13939,2001,1,106,,Active,,,https://www.redfin.com/LA/West-Monroe/102-Lakeland-Dr-71291/home/123951870,NELABOR,204140,N,Y,32.543628,-92.2128876
MLS Listing,,Single Family Residential,189 Rust Rd,Bells,TN,38006,695000,4,4.0,Bells,4281,217800,1998,,162,,Active,,,https://www.redfin.com/TN/Bells/189-Rust-Rd-38006/home/173308429,REALTRACS,2469098,N,Y,35.7470672,-89.0658977
MLS Listing,,Vacant Land,9 Cobblestone Ln,Demopolis,AL,36732,24900,,,Demopolis,,13939,,1,,,Active,,,https://www.redfin.com/AL/Demopolis/9-Cobblestone-Ln-36732/home/182017894,WAMLS,150819,N,Y,32.5002286,-87.8556181
MLS Listing,,Vacant Land,10 Cobblestone Ln,Demopolis,AL,36732,24900,,,Demopolis,,13939,,1,,,Active,,,https://www.redfin.com/AL/Demopolis/10-Cobblestone-Ln-36732/home/183361266,WAMLS,150821,N,Y,32.4998812,-87.8556095
MLS Listing,,Single Family Residential,593 Northaven Dr,Unincorporated,TN,38127,86500,3,1.0,Northaven,,8712,1978,1,,,Active,,,https://www.redfin.com/TN/Memphis/593-Northaven-Dr-38127/home/60693742,Memphis Area Association of Realtors(R) MLS,10139153,N,Y,35.2632293,-90.0441576
MLS Listing,,Vacant Land,0 Joe Joyner Rd,Munford,TN,38004,150000,,,Tipton - South,,139392,,1,,,Active,,,https://www.redfin.com/TN/Munford/0-Joe-Joyner-Rd-38058/home/183050287,Memphis Area Association of Realtors(R) MLS,10139151,N,Y,35.4011879,-89.8456732
MLS Listing,,Single Family Residential,7316 Palgrave Ln,Memphis,TN,38125,170000,3,2.0,Germantown Rd Extd/Winchester,,8712,1978,1,121,,Active,,,https://www.redfin.com/TN/Memphis/7316-Palgrave-Ln-38125/home/87758427,Memphis Area Association of Realtors(R) MLS,10139150,N,Y,35.0473083,-89.8196423
MLS Listing,,Single Family Residential,3874 Hobson Rd,Memphis,TN,38128,159900,2,1.5,Egypt Central,,,1955,1,,,Active,,,https://www.redfin.com/TN/Memphis/3874-Hobson-Rd-38128/home/60836625,Memphis Area Association of Realtors(R) MLS,10139149,N,Y,35.230896,-89.938287
MLS Listing,,Vacant Land,3059 Sardis Lake Dr,Batesville,MS,38606,35000,,,Batesville,,283140,,1,,,Active,,,https://www.redfin.com/MS/Batesville/3059-Sardis-Lake-Dr-38606/home/183377162,MLSU,4035529,N,Y,34.3831542,-89.7299227
MLS Listing,,Single Family Residential,10761 Old Greensboro Rd,Tuscaloosa,AL,35405,209900,3,2.0,,1644,,1950,1,128,,Active,,,https://www.redfin.com/AL/Tuscaloosa/10761-Old-Greensboro-Rd-35405/home/135800240,WAMLS,154630,N,Y,33.108062,-87.5582221
MLS Listing,,Single Family Residential,786 Walnut Lake Rd,Walnut,MS,38683,149000,3,2.0,Walnut Lake,1600,43560,1975,1,93,60,Active,,,https://www.redfin.com/MS/Walnut/786-Walnut-Lake-Rd-38683/home/182199724,MLSU,4035528,N,Y,34.9671752,-89.0193895
MLS Listing,,Multi-Family (5+ Unit),1265 James St,Memphis,TN,38106,250000,12,,South Memphis/Glenview,,,1965,1,,,Active,,,https://www.redfin.com/TN/Memphis/1265-James-St-38106/home/60920412,Memphis Area Association of Realtors(R) MLS,10139147,N,Y,35.1121204,-90.0234606
MLS Listing,,Vacant Land,4600 WM Price Rd,Aliceville,AL,35442,40000,,,Priceville,,222155,,1,,,Active,,,https://www.redfin.com/AL/Unknown/4600-WM-William-Price-Rd-35442/home/183376797,VMLS,1824525,N,Y,33.137793,-88.307379
MLS Listing,,Single Family Residential,3224 Douglass Ave,Memphis,TN,38111,159000,2,1.0,Pendleton/Park,,7840,1925,1,133,,Active,,,https://www.redfin.com/TN/Memphis/3224-Douglass-Ave-38111/home/60835311,Memphis Area Association of Realtors(R) MLS,10139145,N,Y,35.1099139,-89.9549671
MLS Listing,,Single Family Residential,28 Summer Breeze Rd,Conway,AR,72032,192500,3,2.0,Conway Northeast,1291,7405,2021,1,149,11,Active,,,https://www.redfin.com/AR/Conway/28-Summer-Breeze-Rd-72032/home/173972326,CARMLS,22040206,N,Y,35.116554,-92.3534939
MLS Listing,,Single Family Residential,1 Marans Dr,Little Rock,AR,72223,535000,4,3.5,Pulaski County West,4197,19166,1997,1,127,37,Active,December-18-2022 02:00 PM,December-18-2022 04:00 PM,https://www.redfin.com/AR/Little-Rock/1-Marans-Dr-72223/home/95363857,CARMLS,22040205,N,Y,34.8008752,-92.4684896
MLS Listing,,Single Family Residential,10229 Evening Hill Dr,Memphis,TN,38016,235000,3,2.0,Fisherville - West,,3920,2012,1,196,10,Active,,,https://www.redfin.com/TN/Cordova/10229-Evening-Hill-Dr-38016/home/60866210,Memphis Area Association of Realtors(R) MLS,10139143,N,Y,35.2010904,-89.7218183
MLS Listing,,Single Family Residential,14 Ranch Oak Dr,West Monroe,LA,71291,269900,3,2.0,YESTEROAKS,3655,,,1,74,,Active,,,https://www.redfin.com/LA/West-Monroe/14-Ranch-Oak-Dr-71291/home/124395529,NELABOR,204139,N,Y,32.5337473,-92.1816214
MLS Listing,,Single Family Residential,6469 Wells Grove Dr,Bartlett,TN,38135,397000,4,3.0,Bartlett/Austin Peay,,16988,2006,1,132,,Active,,,https://www.redfin.com/TN/Bartlett/6469-Wells-Grove-Dr-38135/home/87643752,Memphis Area Association of Realtors(R) MLS,10139142,N,Y,35.2524787,-89.8473926
MLS Listing,,Vacant Land,0 Lower Steel Bend Rd,Scott,AR,72142,79000,,,Scott Ar And Pcssd East,,262666,,1,,,Active,,,https://www.redfin.com/AR/SCOTT/LOWER-STEEL-BEND-RD-72142/home/95369456,CARMLS,22040203,N,Y,34.628914,-92.122634
MLS Listing,,Condo/Co-op,1258 Brookside Dr #62,Germantown,TN,38138,319950,4,3.0,Germantown - West,,240451,1976,2,145,,Active,December-17-2022 10:30 AM,December-17-2022 01:30 PM,https://www.redfin.com/TN/Germantown/1258-Brookside-Dr-38138/unit-62/home/95680819,Memphis Area Association of Realtors(R) MLS,10139141,N,Y,35.114869,-89.83265
MLS Listing,,Single Family Residential,4799 Royal Run Dr,Unincorporated,TN,38128,124900,3,2.0,Raleigh/Singleton,,5662,2002,2,104,,Active,,,https://www.redfin.com/TN/Memphis/4799-Royal-Run-Dr-38128/home/60783659,Memphis Area Association of Realtors(R) MLS,10139140,N,Y,35.2520424,-89.9030709
MLS Listing,,Single Family Residential,6259 Skyview Cir,Bartlett,TN,38135,290000,4,2.0,Bartlett - West,,17424,1981,2,161,,Active,,,https://www.redfin.com/TN/Memphis/6259-Skyview-Cir-38135/home/60813694,Memphis Area Association of Realtors(R) MLS,10139139,N,Y,35.2184303,-89.8544688
MLS Listing,,Single Family Residential,6630 Piney River Rd N,Bon Aqua,TN,37025,800000,2,3.0,Bon Aqua,2508,871200,2013,,319,,Active,,,https://www.redfin.com/TN/Bon-Aqua/6630-Piney-River-Rd-N-37025/home/183322359,REALTRACS,2468127,N,Y,35.943441,-87.4625834
MLS Listing,,Single Family Residential,11 Gene Dr,Lawrenceburg,TN,38464,284900,3,2.0,Hill S Cove II,1724,21780,1999,,165,,Active,,,https://www.redfin.com/TN/Lawrenceburg/11-Gene-Dr-38464/home/104671385,REALTRACS,2468151,N,Y,35.2528086,-87.310136
MLS Listing,,Single Family Residential,1770 Baker Ln,Lawrenceburg,TN,38464,259900,3,2.0,Lawrenceburg,1400,21780,2022,,186,,Active,,,https://www.redfin.com/TN/Lawrenceburg/1770-Baker-Ln-38464/home/183322911,REALTRACS,2468146,N,Y,35.212892,-87.296031
MLS Listing,,Single Family Residential,5540 Al-129,Winfield,AL,35594,89000,2,1.0,,1450,46173,1991,2,61,,Active,,,https://www.redfin.com/AL/Winfield/5540-AL-129-35594/home/80215847,Walker County Area MLS,22-2491,N,Y,33.9662251,-87.7735573
MLS Listing,,Single Family Residential,1427 County Road 27,Millport,AL,35576,44900,4,2.5,N/A,873,,1992,2,51,,Active,,,https://www.redfin.com/AL/Millport/1427-County-Road-27-35576/home/183372519,WAMLS,154637,N,Y,33.5418372,-88.0888424
MLS Listing,,Single Family Residential,110 Teakwood Dr,West Monroe,LA,71291,180000,3,2.0,PARKWOOD ADDN,2320,,1971,2,78,,Active,,,https://www.redfin.com/LA/West-Monroe/110-Teakwood-Dr-71291/home/124497314,NELABOR,204138,N,Y,32.5060881,-92.1534083
MLS Listing,,Single Family Residential,18423 Fawn Tree Dr,Little Rock,AR,72210,240000,3,2.0,"Lit - Otter Creek, Westfield & S",2090,11325,1978,2,115,45,Active,,,https://www.redfin.com/AR/Little-Rock/18423-Fawn-Tree-Dr-72210/home/81400637,CARMLS,22040199,N,Y,34.6605775,-92.4401173
MLS Listing,,Single Family Residential,386 Nolley Dr,Collierville,TN,38017,507500,5,4.0,Collierville - East,,15245,1994,2,195,,Active,,,https://www.redfin.com/TN/Collierville/386-E-Nolley-Dr-38017/home/60882121,Memphis Area Association of Realtors(R) MLS,10139052,N,Y,35.0670231,-89.656674
MLS Listing,,Vacant Land,406 E Wilbur D. Mls,Kensett,AR,72082,8000,,,White County (se),,6969,,2,,,Active,,,https://www.redfin.com/AR/Kensett/406-Wilbur-D-Mills-Ave-72082/home/183372346,CARMLS,22040198,N,Y,35.2302219,-91.6643089
MLS Listing,,Single Family Residential,761 Frayser Rd,Memphis,TN,38127,95000,2,1.0,Westside,,10454,1950,2,95,,Active,,,https://www.redfin.com/TN/Memphis/761-Frayser-Dr-38127/home/87691621,Memphis Area Association of Realtors(R) MLS,10139138,N,Y,35.2158497,-90.0384688
MLS Listing,,Single Family Residential,702 S Gabbert St,Monticello,AR,71655,102000,2,1.0,Monticello,924,17859,1961,2,110,,Active,,,https://www.redfin.com/AR/Monticello/702-S-Gabbert-St-71655/home/110665671,CARMLS,22040197,N,Y,33.6183095,-91.7877021
MLS Listing,,Single Family Residential,4511 Oak Meadow Dr,Northport,AL,35473,149900,3,2.0,Oak Hill,1341,20037,1990,2,112,,Active,,,https://www.redfin.com/AL/Northport/4511-Oak-Meadow-Dr-35473/home/135864556,WAMLS,154636,N,Y,33.2720563,-87.6020223
MLS Listing,,Single Family Residential,311 Lucy Ave,Memphis,TN,38106,52000,2,1.0,South Memphis/61 Hwy,,871,1923,2,,,Active,,,https://www.redfin.com/TN/Memphis/311-Lucy-Ave-38106/home/87647411,Memphis Area Association of Realtors(R) MLS,10139137,N,Y,35.1140376,-90.0519629
MLS Listing,,Single Family Residential,8750 Mary Frances Dr,Southaven,MS,38671,273990,3,2.0,Rasco Farms,1618,6534,2022,2,169,,Active,,,https://www.redfin.com/MS/Southaven/8750-Mary-Frances-Dr-38671/home/183371684,MLSU,4035523,N,Y,34.9907181,-90.0510767
MLS Listing,,Single Family Residential,8732 Mary Frances Dr,Southaven,MS,38671,266990,3,2.0,Rasco Farms,1557,6534,2022,2,171,,Active,,,https://www.redfin.com/MS/Southaven/8732-Mary-Frances-Dr-38671/home/183371493,MLSU,4035521,N,Y,34.9907181,-90.0510767
MLS Listing,,Vacant Land,914 Village St,Newport,AR,72112,3000,,,Jackson County,,11761,,2,,,Active,,,https://www.redfin.com/AR/Newport/914-Village-ST-72112/home/183371340,CARMLS,22040193,N,Y,35.6060625,-91.2641293
MLS Listing,,Single Family Residential,9593 Wolf River Blvd,Germantown,TN,38139,639900,4,3.5,Germantown/East,,32670,1997,2,178,4,Active,,,https://www.redfin.com/TN/Germantown/9593-Wolf-River-Blvd-38139/home/60670519,Memphis Area Association of Realtors(R) MLS,10139136,N,Y,35.0949275,-89.74302
MLS Listing,,Single Family Residential,7312 Debbie Dr,Little Rock,AR,72209,149900,4,2.0,Lit - Southwest Little Rock (cen,1842,8276,1966,2,81,,Active,,,https://www.redfin.com/AR/Little-Rock/7312-Debbie-Dr-72209/home/95349619,CARMLS,22040191,N,Y,34.6902707,-92.3582665
MLS Listing,,Single Family Residential,60 Crosswinds Cv,Henning,TN,38041,189000,3,2.0,Lauderdale County,,23958,1996,2,158,,Active,,,https://www.redfin.com/TN/Henning/60-Crosswinds-Cv-38041/home/183371051,Memphis Area Association of Realtors(R) MLS,10139135,N,Y,35.6927768,-89.5863454
MLS Listing,,Single Family Residential,3316 S Cherry,Pine Bluff,AR,71603,94500,3,2.0,Pine Bluff (south Central),2309,9147,1934,2,41,,Active,,,https://www.redfin.com/AR/Pine-Bluff/3316-S-Cherry-St-71603/home/111438429,CARMLS,22040189,N,Y,34.1957838,-92.0137369
MLS Listing,,Single Family Residential,9374 Hodge Rd,Mount Pleasant,TN,38474,124900,3,2.0,Hodges,1000,40510,1990,,125,,Active,,,https://www.redfin.com/TN/Mt-Pleasant/9374-Hodge-Rd-38474/home/87392752,REALTRACS,2456041,N,Y,35.4354578,-87.1973707
MLS Listing,,Vacant Land,Salem Ave,Holly Springs,MS,38635,35000,,,Metes And Bounds,,17859,,2,,,Active,,,https://www.redfin.com/MS/Holly-Springs/Salem-Ave-38635/home/179100893,MLSU,4035518,N,Y,34.772033,-89.436696
MLS Listing,,Vacant Land,Goose Lake Rd,Mayersville,MS,39113,2771595,,,Metes And Bounds,,28407218,,2,,,Active,,,https://www.redfin.com/MS/Mayersville/Goose-Lake-RD-39113/home/183370189,MLSU,4035517,N,Y,32.666919,-90.919214
MLS Listing,,Single Family Residential,927 Oakmont Ridge Cv,Collierville,TN,38017,625000,5,4.5,Collierville - West,,15681,1997,2,139,17,Active,December-18-2022 03:30 PM,December-18-2022 04:30 PM,https://www.redfin.com/TN/Collierville/927-Oakmont-Ridge-Cv-38017/home/60583239,Memphis Area Association of Realtors(R) MLS,10139133,N,Y,35.0662598,-89.6929684
MLS Listing,,Single Family Residential,7401 Crosswinds Blvd,Hernando,MS,38632,387900,4,3.0,Hernando,2241,12632,2022,2,173,33,Active,,,https://www.redfin.com/MS/Hernando/7401-Cross-Winds-Dr-38632/home/183370190,MLSU,4035514,N,Y,34.850349,-89.859026
MLS Listing,,Single Family Residential,603 Macy,Beebe,AR,72012,229500,4,2.0,Beebe,1530,,2022,2,150,,Active,,,https://www.redfin.com/AR/Beebe/603-Macy-Ln-72012/home/183370090,CARMLS,22040187,N,Y,35.0632631,-91.9091693
MLS Listing,,Townhouse,5708 Woodland Trce,Tuscaloosa,AL,35405,114900,2,2.5,Hidden Valley,1776,,1974,2,65,125,Active,,,https://www.redfin.com/AL/Tuscaloosa/5708-Woodland-Trce-35405/home/136042144,WAMLS,154634,N,Y,33.1749786,-87.4649057
MLS Listing,,Single Family Residential,308 Southard St,Bay,AR,72411,149900,3,1.5,Craighead County,1288,21780,1993,2,116,,Active,,,https://www.redfin.com/AR/Bay/308-Southard-St-72411/home/119577901,CARMLS,22040185,N,Y,35.7379389,-90.5649211
MLS Listing,,Single Family Residential,214 Haynes Dr,Pine Bluff,AR,71603,135000,3,2.5,Pine Bluff (south Central),2200,30491,1961,2,61,,Active,,,https://www.redfin.com/AR/Pine-Bluff/214-Haynes-71603/home/82896782,CARMLS,22040184,N,Y,34.1814838,-92.0051881
MLS Listing,,Single Family Residential,740 Lacey New Hope Rd,Monticello,AR,71655,185000,3,1.0,Monticello,1325,2003760,1979,2,140,,Active,,,https://www.redfin.com/AR/Monticello/740-Lacey-New-Hope-Rd-71655/home/110636372,CARMLS,22040182,N,Y,33.4880487,-91.8605838
MLS Listing,,Single Family Residential,260 Freedom Ln,Rossville,TN,38066,497900,4,3.5,Fayette - South,,6534,2022,2,192,,Active,,,https://www.redfin.com/TN/Rossville/260-Freedom-Ln-38066/home/183369896,Memphis Area Association of Realtors(R) MLS,10139131,N,Y,35.045224,-89.535728
MLS Listing,,Single Family Residential,1201 Welch St,Little Rock,AR,72202,475000,5,3.0,Little Rock (downtown),4306,22651,1870,2,110,,Active,,,https://www.redfin.com/AR/Little-Rock/1201-Welch-St-72202/home/82810132,CARMLS,22040180,N,Y,34.7358194,-92.2595591
MLS Listing,,Single Family Residential,140 Dogwood Ct,Jasper,AL,35504,699000,5,3.0,Estes Lakeview Sub,2500,,1971,2,280,,Active,,,https://www.redfin.com/AL/Jasper/140-Dogwood-Ct-35504/home/136887464,Walker County Area MLS,22-2490,N,Y,33.9650648,-87.138685
MLS Listing,,Single Family Residential,9019 N Tracy Rd N,Atoka,TN,38004,350000,4,3.5,Millington Reserve/Rosemark,,235224,1980,2,125,,Active,,,https://www.redfin.com/TN/Atoka/9019-Tracy-Rd-38004/home/87746529,Memphis Area Association of Realtors(R) MLS,10139128,N,Y,35.401993,-89.76187
MLS Listing,,Vacant Land,Praire Debutte Road Road,Bastrop,LA,71220,4530000,,,Bastrop,,,,2,,,Active,,,https://www.redfin.com/LA/Unknown/Prairie-Debutte-Rd-71220/home/183369601,GSMLS,NAB22009256,N,Y,32.880054,-91.9657
MLS Listing,,Single Family Residential,60 Plaza Ct,Cherokee,AL,35616,77500,3,1.0,Cherokee,1255,31363,1981,2,62,,Active,,,https://www.redfin.com/AL/Cherokee/60-Plaza-Ct-35616/home/80498451,VMLS,1824503,N,Y,34.7370638,-87.9038846
MLS Listing,,Condo/Co-op,5966 Austin Cv,Bartlett,TN,38134,235000,3,2.5,Bartlett - West,,2178,1987,2,168,,Active,,,https://www.redfin.com/TN/Bartlett/5966-Austin-Cv-38134/home/87740250,Memphis Area Association of Realtors(R) MLS,10139126,N,Y,35.21554,-89.864272
MLS Listing,,Single Family Residential,3456 Walnut Grove Rd,Memphis,TN,38111,275000,3,2.0,Chickasaw Gardens,,10890,1950,2,153,,Active,,,https://www.redfin.com/TN/Memphis/3456-Walnut-Grove-Rd-38111/home/60754807,Memphis Area Association of Realtors(R) MLS,10139127,N,Y,35.1324316,-89.946578
MLS Listing,,Condo/Co-op,648 Riverside Dr #209,Memphis,TN,38103,235000,1,1.0,South Bluffs/Downtown,,871,2005,2,235,,Active,,,https://www.redfin.com/TN/Memphis/648-Riverside-Dr-38103/unit-209/home/60878061,Memphis Area Association of Realtors(R) MLS,10139125,N,Y,35.129632,-90.0665269
MLS Listing,,Condo/Co-op,505 Tennessee St #325,Memphis,TN,38103,279000,1,1.0,South Bluffs/Downtown,,871,1909,2,279,,Active,,,https://www.redfin.com/TN/Memphis/505-Tennessee-St-38103/unit-325/home/60815007,Memphis Area Association of Realtors(R) MLS,10139124,N,Y,35.133308,-90.0629259
MLS Listing,,Single Family Residential,2511 Byler Rd,Moulton,AL,35650,149900,2,1.0,Coffey,960,,1954,2,156,,Active,,,https://www.redfin.com/AL/Moulton/2511-Byler-Rd-35650/home/174111505,VMLS,1824501,N,Y,34.4742406,-87.2873043
MLS Listing,,Single Family Residential,7402 Crosswinds Blvd,Hernando,MS,38632,392900,3,2.0,Cross Winds,2267,12632,2023,2,173,21,Active,,,https://www.redfin.com/MS/Hernando/7402-Cross-Winds-Dr-38632/home/183369406,MLSU,4035508,N,Y,34.857332,-89.861502
MLS Listing,,Single Family Residential,3711 California Terrace Dr #1,Memphis,TN,38122,165000,2,2.5,Kingsbury,,435,1986,2,138,,Active,,,https://www.redfin.com/TN/Memphis/3711-California-Terrace-Dr-38122/unit-1/home/101100132,Memphis Area Association of Realtors(R) MLS,10139123,N,Y,35.1484324,-89.9370962
MLS Listing,,Single Family Residential,35031 Hwy 43,Hackleburg,AL,35564,156000,2,2.0,,1584,87120,2012,2,98,,Active,,,https://www.redfin.com/AL/Hackleburg/35031-US-43-35564/home/80218197,SAARMLS,508881,N,Y,34.2807612,-87.8241762
MLS Listing,,Single Family Residential,5258 Purple Moor Cv,Lakeland,TN,38002,624900,5,3.0,Lakeland - North,,24829,2009,2,174,,Active,,,https://www.redfin.com/TN/Arlington/5258-Purple-Moor-Cv-38002/home/60851181,Memphis Area Association of Realtors(R) MLS,10139122,N,Y,35.2697742,-89.7271749
MLS Listing,,Vacant Land,5232 Cedrick Cv,Memphis,TN,38118,170000,,,Parkway Village,,8712,,2,,,Active,,,https://www.redfin.com/TN/Memphis/5232-Cedrick-Ave-38118/home/163306759,Memphis Area Association of Realtors(R) MLS,10139121,N,Y,35.054643,-89.888957
MLS Listing,,Single Family Residential,1110 Rockwell Dr,Conway,AR,72032,221900,4,2.0,Conway Northeast,1709,6098,2022,2,130,10,Active,,,https://www.redfin.com/AR/Conway/1110-Rockwell-Dr-72032/home/182905731,CARMLS,22040175,N,Y,35.1104129,-92.4156149
MLS Listing,,Single Family Residential,3088 Manhattan Ave,Memphis,TN,38112,98500,2,1.0,Midtown/Holmes,,5662,1939,2,,,Active,,,https://www.redfin.com/TN/Memphis/3088-Manhattan-Ave-38112/home/60581994,Memphis Area Association of Realtors(R) MLS,10139119,N,Y,35.1524023,-89.9580636
MLS Listing,,Single Family Residential,1746 Woodchase Glen Dr,Memphis,TN,38016,325000,3,2.5,Macon/Appling Rd,,8712,1999,2,148,58,Active,,,https://www.redfin.com/TN/Cordova/1746-Woodchase-Glen-Dr-38016/home/60720502,Memphis Area Association of Realtors(R) MLS,10139118,N,Y,35.1731731,-89.796102
MLS Listing,,Single Family Residential,1140 Rockwell Dr,Conway,AR,72032,221900,4,2.0,Conway Northeast,1709,6098,2022,2,130,10,Active,,,https://www.redfin.com/AR/Conway/1140-Rockwell-Dr-72032/home/182905736,CARMLS,22040174,N,Y,35.1104129,-92.4156149
MLS Listing,,Single Family Residential,7201 Twin Oaks Rd,Little Rock,AR,72209,29900,2,1.0,Lit - Southwest Little Rock (sou,780,9147,1965,2,38,,Active,,,https://www.redfin.com/AR/Little-Rock/7201-Twin-Oaks-Rd-72209/home/82961596,CARMLS,22040173,N,Y,34.662824,-92.3585557
MLS Listing,,Single Family Residential,9542 Morning Woods Dr S,Memphis,TN,38016,319000,5,2.5,Countrywood,,16117,1992,2,106,,Active,,,https://www.redfin.com/TN/Cordova/9542-Morning-Woods-Dr-S-38016/home/87637656,Memphis Area Association of Realtors(R) MLS,10139117,N,Y,35.1985855,-89.7445785
MLS Listing,,Single Family Residential,8507 Cross Point Dr,Olive Branch,MS,38654,239900,3,2.0,Devon Park,1386,215622000,2002,2,173,23,Active,,,https://www.redfin.com/MS/Olive-Branch/8507-Cross-Point-Dr-38654/home/94389437,MLSU,4035505,N,Y,34.9832675,-89.8148109
MLS Listing,,Vacant Land,529 S Front St,Memphis,TN,38103,395000,,,South Bluffs/Downtown,,2613,,2,,,Active,,,https://www.redfin.com/TN/Memphis/529-S-Front-St-38103/home/163261472,Memphis Area Association of Realtors(R) MLS,10139116,N,Y,35.1329893,-90.0610563
MLS Listing,,Single Family Residential,1436 Lakeshore Dr,Hensley,AR,72065,499900,8,5.5,Sheridan Schools (saline County),9000,135471,2012,2,56,,Active,,,https://www.redfin.com/AR/Hensley/1436-Lakeshore-Dr-72065/home/81485408,CARMLS,22040166,N,Y,34.5634286,-92.2661552
MLS Listing,,Single Family Residential,1783 Nelson Ave,Memphis,TN,38114,375000,4,2.5,Central Gardens,,7405,2018,2,188,,Active,December-17-2022 12:00 PM,December-17-2022 02:00 PM,https://www.redfin.com/TN/Memphis/1783-Nelson-Ave-38114/home/60611970,Memphis Area Association of Realtors(R) MLS,10139114,N,Y,35.1218497,-90.0025865
MLS Listing,,Single Family Residential,2395 Bridgegate Dr,Conway,AR,72034,459900,4,3.5,Conway Southwest,2628,13068,2022,2,175,,Active,,,https://www.redfin.com/AR/Conway/2395-Bridgegate-DR-72034/home/183367926,CARMLS,22040169,N,Y,35.0468028,-92.4703057
MLS Listing,,Single Family Residential,8411 Sherman Oaks Dr,Germantown,TN,38139,315000,4,2.5,Germantown/Central,,13503,1977,2,131,,Active,,,https://www.redfin.com/TN/Germantown/8411-Sherman-Oaks-Dr-38139/home/87767788,Memphis Area Association of Realtors(R) MLS,10139115,N,Y,35.0892432,-89.7825315
MLS Listing,,Mobile/Manufactured Home,106 Shotwell Rd,Lawrenceburg,TN,38464,190000,3,2.0,Lawrenceburg,1404,653400,2002,,135,,Active,,,https://www.redfin.com/TN/Lawrenceburg/106-Shotwell-Rd-38464/home/94559447,REALTRACS,2468921,N,Y,35.271911,-87.405973
MLS Listing,,Single Family Residential,4120 Southlawn Ave,Memphis,TN,38111,199900,3,1.0,Getwell/Park,,7840,1954,2,167,,Active,,,https://www.redfin.com/TN/Memphis/4120-Southlawn-Ave-38111/home/60835116,Memphis Area Association of Realtors(R) MLS,10139112,N,Y,35.0983042,-89.9252803
MLS Listing,,Vacant Land,Endsquick Ct,North Little Rock,AR,72116,17000,,,North Little Rock (west/crystal,,17424,,2,,,Active,,,https://www.redfin.com/AR/NORTH-LITTLE-ROCK/ENDSQUICK-CT-72116/home/81373738,CARMLS,22040165,N,Y,34.806641,-92.258758
MLS Listing,,Single Family Residential,4216 W Dickens Place Drive Dr,Southaven,MS,38672,525000,5,5.0,Dickens Place,3470,32670,2005,2,151,10,Active,,,https://www.redfin.com/MS/Southaven/4216-Dickens-Pl-Dr-W-38672/home/94412138,MLSU,4035501,N,Y,34.9215787,-89.9531618
MLS Listing,,Single Family Residential,4217 Windermere Dr,Memphis,TN,38128,149900,3,1.0,Egypt Central,,8712,1967,2,150,,Active,,,https://www.redfin.com/TN/Memphis/4217-Windermere-Rd-38128/home/60765273,Memphis Area Association of Realtors(R) MLS,10139111,N,Y,35.2409092,-89.9415071
MLS Listing,,Vacant Land,4928 Hwy 367,Bradford,AR,72020,54000,,,White County (ne),,588060,,2,,,Active,,,https://www.redfin.com/AR/Bradford/4928-AR-367-72020/home/81273619,CARMLS,22040161,N,Y,35.3959812,-91.4691316
MLS Listing,,Single Family Residential,1709 Westwood Dr,Jonesboro,AR,72401,125000,3,1.5,Jonesboro H,1080,,1994,2,116,,Active,,,https://www.redfin.com/AR/Jonesboro/1709-Westwood-Dr-72401/home/119593517,CARMLS,22040159,N,Y,35.8274471,-90.7270181
MLS Listing,,Single Family Residential,5123 W 29 St,Little Rock,AR,72204,106000,3,2.0,Little Rock (ualr),1246,6534,1916,2,85,,Active,,,https://www.redfin.com/AR/Little-Rock/5123-W-29th-St-72204/home/82800447,CARMLS,22040163,N,Y,34.7254061,-92.3317401
MLS Listing,,Single Family Residential,68 Solomon Way,Summertown,TN,38483,269900,3,2.0,Summertown,1400,57063,2022,,193,,Pre On-Market,,,https://www.redfin.com/TN/Summertown/68-Solomon-Way-38483/home/183367681,REALTRACS,2468930,N,Y,35.379793,-87.272916
MLS Listing,,Single Family Residential,4001 Dearing Downs Dr,Tuscaloosa,AL,35405,309900,4,2.0,Dearing Downs,2135,,1991,2,145,,Active,,,https://www.redfin.com/AL/Tuscaloosa/4001-Dearing-Downs-Dr-35405/home/136324938,WAMLS,154611,N,Y,33.164171,-87.4882135
MLS Listing,,Single Family Residential,92 Island Pl,Memphis,TN,38103,490000,4,3.0,Harbor Town/Downtown,,6098,1996,2,204,145,Active,,,https://www.redfin.com/TN/Memphis/92-Island-Pl-38103/home/60640142,Memphis Area Association of Realtors(R) MLS,10139110,N,Y,35.1701965,-90.0536044
MLS Listing,,Single Family Residential,485 S Reese St S,Memphis,TN,38111,230000,3,2.0,Chickasaw Gardens,,9583,1922,2,128,,Active,,,https://www.redfin.com/TN/Memphis/485-S-Reese-St-38111/home/87667476,Memphis Area Association of Realtors(R) MLS,10139109,N,Y,35.1184728,-89.9503825
MLS Listing,,Single Family Residential,14101 Co Rd 33,Killen,AL,35645,269950,3,2.0,Center Hill,1730,148975,1978,2,156,,Active,,,https://www.redfin.com/AL/Killen/14101-Co-Rd-33-35645/home/122881154,SAARMLS,508880,N,Y,34.956018,-87.4521339
MLS Listing,,Single Family Residential,8 Weatherstone Pt,Little Rock,AR,72223,699900,3,3.5,Lit - West Little Rock (northwes,4000,,2015,2,175,42,Active,,,https://www.redfin.com/AR/Little-Rock/8-Weatherstone-Pt-72211/home/95360401,CARMLS,22040160,N,Y,34.7363564,-92.4380514
MLS Listing,,Vacant Land,N Clifton Cv,Jacksonville,AR,72076,79000,,,Jacksonville,,211701,,2,,,Active,,,https://www.redfin.com/AR/JACKSONVILLE/N-CLIFTON-CV-72076/home/81420475,CARMLS,22040162,N,Y,34.922952,-92.074181
MLS Listing,,Single Family Residential,820 Alabama Ct,Sheffield,AL,35660,95000,2,1.0,River Bluff,1372,21344,1961,2,69,,Active,,,https://www.redfin.com/AL/Sheffield/820-Alabama-Ct-35660/home/80477276,SAARMLS,508879,N,Y,34.7677452,-87.7047336
MLS Listing,,Vacant Land,1522 N Olive St,North Little Rock,AR,72114,19000,,,North Little Rock (downtown/east,,7405,,2,,,Active,,,https://www.redfin.com/AR/North-Little-Rock/1522-N-Olive-St-72114/home/91221414,CARMLS,22040154,N,Y,34.7691,-92.263283
MLS Listing,,Single Family Residential,5142 Kensley Ct,Southaven,MS,38672,376000,3,2.5,Gardens of Belle Pointe,2242,11761,2019,2,168,46,Active,,,https://www.redfin.com/MS/Southaven/5142-Kensley-Ct-38672/home/174602418,MLSU,4035496,N,Y,34.9354361,-89.9257978
MLS Listing,,Single Family Residential,4134 Sierra Dr,Tuscaloosa,AL,35406,425000,3,3.0,Churchill Park,2521,,2015,2,169,15,Active,,,https://www.redfin.com/AL/Tuscaloosa/4134-Sierra-Dr-35406/home/136046514,WAMLS,154633,N,Y,33.2707849,-87.481555
MLS Listing,,Single Family Residential,1130 Rockwell Dr,Conway,AR,72032,199900,3,2.0,Conway Northeast,1407,6098,2022,2,142,10,Active,,,https://www.redfin.com/AR/Conway/1130-Rockwell-Dr-72032/home/182905735,CARMLS,22040151,N,Y,35.1104129,-92.4156149
MLS Listing,,Single Family Residential,539 Cherry Rd,Memphis,TN,38117,925000,5,3.5,Galloway Gardens,,26571,1956,2,231,,Active,,,https://www.redfin.com/TN/Memphis/539-Cherry-Rd-38117/home/87678063,Memphis Area Association of Realtors(R) MLS,10139108,N,Y,35.11648,-89.918093
MLS Listing,,Single Family Residential,2363 Cable Ave,Memphis,TN,38114,25900,4,1.0,Pendleton/Park,,4791,1900,2,22,,Active,,,https://www.redfin.com/TN/Memphis/2363-Cable-Ave-38114/home/87653947,Memphis Area Association of Realtors(R) MLS,10139107,N,Y,35.1117264,-89.98344
MLS Listing,,Single Family Residential,113 Owen St,Madison,MS,39110,319999,3,2.0,Stillhouse Creek,1791,17424,2014,2,179,37,Active,,,https://www.redfin.com/MS/Madison/113-Owen-St-39110/home/124004308,MLSU,4035495,N,Y,32.5217862,-90.1259186
MLS Listing,,Vacant Land,Varennes Ct,Little Rock,AR,72223,139000,,,Pulaski County West,,25700,,2,,125,Active,,,https://www.redfin.com/AR/Little-Rock/Varennes-Ct-72223/home/183365171,CARMLS,22040149,N,Y,34.7791394,-92.4895255
MLS Listing,,Vacant Land,1117 N 8th St,West Monroe,LA,71291,25000,,,,,15245,,2,,,Active,,,https://www.redfin.com/LA/West-Monroe/1117-N-8th-St-71291/home/124638754,NELABOR,204132,N,Y,32.5056677,-92.1391357
MLS Listing,,Single Family Residential,3899 Kerr Rd,Millington,TN,38053,750000,4,3.0,Millington Reserve - West,,348480,1990,2,221,,Active,,,https://www.redfin.com/TN/Millington/3899-Kerr-Rd-38053/home/87746125,Memphis Area Association of Realtors(R) MLS,10139105,N,Y,35.377881,-89.933497
MLS Listing,,Vacant Land,198 Mallard Rd,Marion,LA,71260,75000,,,,,914760,,2,,,Active,,,https://www.redfin.com/LA/Marion/198-Mallard-Rd-71260/home/84854289,NELABOR,204131,N,Y,32.9239067,-92.158376
MLS Listing,,Single Family Residential,168 Hickory Hills Dr,Jackson,TN,38305,195000,3,2.0,Hickory Hills,1882,26136,1983,,104,,Active,December-18-2022 03:00 PM,December-18-2022 05:00 PM,https://www.redfin.com/TN/Jackson/168-Hickory-Hills-Dr-38305/home/125343774,REALTRACS,2468876,N,Y,35.6934461,-88.7991498
MLS Listing,,Single Family Residential,3698 Johnwood Dr,Memphis,TN,38122,305000,2,1.5,Galloway Gardens,,7405,1947,2,254,,Active,,,https://www.redfin.com/TN/Memphis/3698-Johnwood-Dr-38122/home/60610263,Memphis Area Association of Realtors(R) MLS,10139103,N,Y,35.14201,-89.938041
MLS Listing,,Single Family Residential,2416 Perry Rd,Memphis,TN,38106,135000,4,1.5,South Memphis/Glenview,,8712,1959,2,113,,Active,,,https://www.redfin.com/TN/Memphis/2416-Perry-Cv-38106/home/87613048,Memphis Area Association of Realtors(R) MLS,10139102,N,Y,35.0793539,-90.010438
MLS Listing,,Vacant Land,000 Zion Hill Church Rd,Farmerville,LA,71241,48000,,,NONE/METES AND BOUNDS,,348480,,2,,,Active,,,https://www.redfin.com/LA/FARMERVILLE/ZION-HILL-CHURCH-RD-71241/home/84855090,NELABOR,204129,N,Y,32.835346,-92.475641
MLS Listing,,Vacant Land,000 W Highway 2,Farmerville,LA,71241,55000,,,NONE/METES AND BOUNDS,,190357,,2,,,Active,,,https://www.redfin.com/LA/Farmerville/West-St-71241/home/183364525,NELABOR,204127,N,Y,32.7785386,-92.4146479
MLS Listing,,Vacant Land,Lot 1 Aqua Vista Dr,Killen,AL,35645,19999,,,Killen,,31798,,2,,,Active,,,https://www.redfin.com/AL/Killen/1-Aqua-Vista-Dr-35645/home/180041476,SAARMLS,508873,N,Y,34.8327843,-87.4904865
MLS Listing,,Vacant Land,Lot 2 Aqua Vista Dr,Killen,AL,35645,19999,,,Killen,,31798,,2,,,Active,,,https://www.redfin.com/AL/Killen/2-Aqua-Vista-Dr-35645/home/180042322,SAARMLS,508874,N,Y,34.83134,-87.4893644
MLS Listing,,Vacant Land,0 Hwy 20,Florence,AL,35633,325000,,,,,1481040,,2,,,Active,,,https://www.redfin.com/AL/Florence/0-Hwy-20-35633/home/180041560,SAARMLS,508872,N,Y,34.858212,-87.759995
MLS Listing,,Single Family Residential,118 Patton Dr,West Monroe,LA,71291,96000,3,1.5,Kiroli Woods,1458,9147,,2,66,,Active,,,https://www.redfin.com/LA/West-Monroe/118-Patton-Dr-71291/home/124276462,NELABOR,204125,N,Y,32.5364688,-92.1599909
MLS Listing,,Single Family Residential,5941 Dime Rd,Haleyville,AL,35565,189900,3,2.0,N/A,1798,39204,,2,106,,Active,,,https://www.redfin.com/AL/Haleyville/5941-Dime-Rd-35565/home/95152427,Walker County Area MLS,22-2486,N,Y,34.2801814,-87.6303524
MLS Listing,,Single Family Residential,2125 22nd St E,Tuscaloosa,AL,35405,119900,3,1.0,Whitmose Drive,936,,1972,2,128,,Active,,,https://www.redfin.com/AL/Tuscaloosa/2125-22nd-St-E-35405/home/135714971,WAMLS,154627,N,Y,33.1894268,-87.5100797
MLS Listing,,Single Family Residential,51 Whispering Wind Cir,Vilonia,AR,72173,144900,2,2.0,Vilonia School District,1154,,2006,2,126,,Active,,,https://www.redfin.com/AR/Vilonia/51-Whispering-Wind-Cir-72173/home/82910660,CARMLS,22040144,N,Y,35.0854136,-92.1840597
MLS Listing,,Single Family Residential,2301 Shoshoni Dr,Jonesboro,AR,72401,239900,3,3.0,Craighead County,1992,8712,1994,2,120,,Active,,,https://www.redfin.com/AR/Jonesboro/2301-Shoshoni-Dr-72401/home/119345748,CARMLS,22040142,N,Y,35.8163138,-90.696619
MLS Listing,,Multi-Family (5+ Unit),1154 Wilson St,Memphis,TN,38106,895000,20,,South Memphis/Glenview,,,1957,2,,,Active,,,https://www.redfin.com/TN/Memphis/1154-Wilson-St-38106/home/87652921,Memphis Area Association of Realtors(R) MLS,10139101,N,Y,35.1149737,-90.0179121
MLS Listing,,Single Family Residential,609 Sherry Dr,Beebe,AR,72012,195000,3,2.0,Beebe,1496,,2003,2,130,,Active,,,https://www.redfin.com/AR/BALD-KNOB/609-SHERRY-DR-72010/home/81280085,CARMLS,22040139,N,Y,35.062754,-91.907666
MLS Listing,,Single Family Residential,8417 Garnet Cv,Sherwood,AR,72120,476000,4,3.5,Sherwood,3352,13939,2009,2,142,,Active,December-18-2022 02:00 PM,December-18-2022 04:00 PM,https://www.redfin.com/AR/Sherwood/8417-Garnet-Cv-72120/home/95358010,CARMLS,22040140,N,Y,34.8460781,-92.2009585
MLS Listing,,Single Family Residential,67 Fletcher Ridge Cir,Little Rock,AR,72223,421500,3,2.0,Pulaski County West,2055,5662,2022,2,205,33,Active,,,https://www.redfin.com/AR/Little-Rock/67-Fletcher-Ridge-Cir-72223/home/176282631,CARMLS,22040138,N,Y,34.7605374,-92.4844085
MLS Listing,,Single Family Residential,206 Fletcher Ridge Dr,Little Rock,AR,72223,557500,4,3.0,Pulaski County West,2798,5662,2022,2,199,42,Active,December-18-2022 02:00 PM,December-18-2022 04:00 PM,https://www.redfin.com/AR/Little-Rock/206-Fletcher-Ridge-Cir-72223/home/176282874,CARMLS,22040135,N,Y,34.7614653,-92.4843651
MLS Listing,,Single Family Residential,170 Hilldale Ln,Unincorporated,TN,38053,325000,3,3.0,Tipton - South,,272685,1988,2,163,,Active,,,https://www.redfin.com/TN/Millington/170-Hilldale-Ln-38053/home/87793840,Memphis Area Association of Realtors(R) MLS,10139099,N,Y,35.4000681,-89.9676435
MLS Listing,,Single Family Residential,15 Winchester Dr,Austin,AR,72007,211000,4,2.0,Cabot School District,1398,,2015,2,151,,Active,,,https://www.redfin.com/AR/Austin/15-Winchester-Dr-72007/home/82796488,CARMLS,22040133,N,Y,34.982395,-91.9695953
MLS Listing,,Single Family Residential,602 Eva St,Memphis,TN,38112,199000,2,2.0,Overton Park,,6098,1923,2,142,,Active,December-18-2022 02:00 PM,December-18-2022 04:00 PM,https://www.redfin.com/TN/Memphis/602-Eva-St-38112/home/60695156,Memphis Area Association of Realtors(R) MLS,10139098,N,Y,35.151786,-89.9756229
MLS Listing,,Vacant Land,0 Roberts Ck Rd,Waverly,TN,37185,1645600,,,Waverly,,42375168,,,,,Active,,,https://www.redfin.com/TN/Waverly/0-Roberts-Creek-Rd-37185/home/183061910,REALTRACS,2468839,N,Y,35.9083822,-87.9091931
MLS Listing,,Vacant Land,0 E 2nd St,Little Rock,AR,72201,422700,,,Little Rock (east),,28314,,2,,,Active,,,https://www.redfin.com/AR/LITTLE-ROCK/E-2ND-ST-72206/home/81385559,CARMLS,22040129,N,Y,34.70402,-92.245368
MLS Listing,,Single Family Residential,3 Zadie Ct,Searcy,AR,72143,228900,3,2.0,Searcy,1625,9583,2007,2,141,,Active,,,https://www.redfin.com/AR/Searcy/3-Zadie-Ct-72143/home/81304312,CARMLS,22040124,N,Y,35.2410152,-91.7508966
MLS Listing,,Single Family Residential,810 Lloyd'S Ln,Nesbit,MS,38651,425000,5,3.0,Rustic Ridge,2603,67953,2020,2,163,,Active,,,https://www.redfin.com/MS/Nesbit/810-Lloyd-s-Ln-38651/home/176626781,MLSU,4035486,N,Y,34.8724451,-90.0707566
MLS Listing,,Single Family Residential,2352 Mt. Tabor Rd,Cabot,AR,72023,315000,4,2.0,Cabot School District,1861,160736,2008,2,169,,Active,,,https://www.redfin.com/AR/Cabot/2352-Mt-Tabor-Rd-72023/home/82891662,CARMLS,22040120,N,Y,34.9182436,-91.9647039
MLS Listing,,Single Family Residential,4905 Randolph Rd,North Little Rock,AR,72116,256500,4,3.0,North Little Rock (central),2268,11761,1964,2,113,,Active,,,https://www.redfin.com/AR/North-Little-Rock/4905-Randolph-Rd-72116/home/81373886,CARMLS,22040121,N,Y,34.7999968,-92.2418201
MLS Listing,,Vacant Land,0 NW Iverson Blvd NW,Trinity,AL,35673,,,,Metes And Bounds,291,435600,,2,,,Active,,,https://www.redfin.com/AL/Trinity/Iverson-Blvd-35673/home/183362795,VMLS,1824472,N,Y,34.582478,-87.126537
MLS Listing,,Single Family Residential,4434 Trousdale Ln,Columbia,TN,38401,929000,3,2.5,Columbia,2446,298386,2001,,380,,Pre On-Market,,,https://www.redfin.com/TN/Columbia/4434-Trousdale-Ln-38401/home/87394273,REALTRACS,2468804,N,Y,35.534053,-87.1407115
MLS Listing,,Single Family Residential,143 Harbor Point Ave,Memphis,TN,38103,549000,4,3.0,Harbor Town/Downtown,,4791,1999,2,229,,Active,,,https://www.redfin.com/TN/Memphis/143-Harbor-Point-Ln-38103/home/60711372,Memphis Area Association of Realtors(R) MLS,10139096,N,Y,35.162594,-90.0519994
MLS Listing,,Single Family Residential,90 Whispering Creek Cv,Oakland,TN,38060,294900,3,2.0,Oakland (East)/Somerville,,8712,2014,2,211,,Active,,,https://www.redfin.com/TN/Oakland/90-Whispering-Creek-Cv-38060/home/60592732,Memphis Area Association of Realtors(R) MLS,10139095,N,Y,35.198396,-89.5135024
MLS Listing,,Vacant Land,0 Bone Camp Rd,Northport,AL,35475,85000,,,Northport,,435600,,2,,,Active,,,https://www.redfin.com/AL/NORTHPORT/BONE-CAMP-RD-35475/home/165266635,WAMLS,154624,N,Y,33.360355,-87.641777
MLS Listing,,Single Family Residential,2011 Glendale Gdns,Tuscaloosa,AL,35401,272000,3,2.0,Glendale Gardens,2166,,1940,2,126,,Active,,,https://www.redfin.com/AL/Tuscaloosa/2011-Glendale-Gdns-35401/home/136308132,WAMLS,154616,N,Y,33.1922662,-87.5460367
MLS Listing,,Vacant Land,1500 S Arch,Little Rock,AR,72206,130000,,,Little Rock (downtown),,591196320,,2,,,Active,,,https://www.redfin.com/AR/Little-Rock/1500-S-Arch-St-72202/home/160701654,CARMLS,22040117,N,Y,34.7351678,-92.2790478
MLS Listing,,Single Family Residential,8941 Fulton Ln,Memphis,TN,38016,205000,3,2.0,Countrywood,,6098,1995,2,171,,Active,,,https://www.redfin.com/TN/Cordova/8941-Fulton-Ln-38016/home/60890874,Memphis Area Association of Realtors(R) MLS,10139091,N,Y,35.1835233,-89.7643235
MLS Listing,,Single Family Residential,8434 Middle Butler Rd,Iron City,TN,38463,329000,5,3.0,Iron City,2850,1288504,1987,,115,,Active,,,https://www.redfin.com/TN/Iron-City/8434-Middle-Butler-Rd-38463/home/180128510,REALTRACS,2468785,N,Y,35.099598,-87.674487
MLS Listing,,Single Family Residential,4331 Edmonton St,Horn Lake,MS,38637,250000,4,2.0,Fairfield Meadows,1817,,2002,2,138,,Active,,,https://www.redfin.com/MS/Horn-Lake/4331-Edmonton-St-38637/home/94425003,MLSU,4035367,N,Y,34.9580726,-90.0672499
MLS Listing,,Single Family Residential,600 Milam Dr,Conway,AR,72032,285000,4,2.5,Conway Southeast,1906,22651,1976,2,150,,Active,December-18-2022 02:00 PM,December-18-2022 04:00 PM,https://www.redfin.com/AR/Conway/600-Milam-Dr-72032/home/81448815,CARMLS,22040116,N,Y,35.0866225,-92.4027715
MLS Listing,,Single Family Residential,5439 Mallard Park Blvd,Walls,MS,38680,219900,3,2.0,Mallard Park,1329,6534,2007,2,165,,Active,,,https://www.redfin.com/MS/Walls/5439-Mallard-Park-Blvd-38680/home/60811936,MLSU,4035481,N,Y,34.940338,-90.1527354
MLS Listing,,Vacant Land,503 W Foote St,Hamburg,AR,71646,12370,,,Ashley County,,91911,,2,,,Active,,,https://www.redfin.com/AR/Hamburg/503-W-Foote-St-71646/home/183372247,CARMLS,22040115,N,Y,33.2353732,-91.8038088
MLS Listing,,Vacant Land,505 W Foote St,Hamburg,AR,71646,4670,,,Ashley County,,11325,,2,,,Active,,,https://www.redfin.com/AR/Hamburg/505-W-Foote-St-71646/home/183372228,CARMLS,22040114,N,Y,33.2353748,-91.8038724
MLS Listing,,Single Family Residential,13277 Pebble Ridge Dr,Byhalia,MS,38611,665000,5,4.5,Red Banks,3800,94089,2022,2,175,,Active,,,https://www.redfin.com/MS/Byhalia/13277-Pebble-Ridge-Dr-38611/home/183358114,MLSU,4033145,N,Y,34.843932,-89.7582667
MLS Listing,,Single Family Residential,6790 Farm Cv,Olive Branch,MS,38654,555000,4,3.5,The Coves,3283,19166,2022,2,169,42,Active,,,https://www.redfin.com/MS/Olive-Branch/6790-Farm-Cv-38654/home/182615825,MLSU,4033314,N,Y,34.8809742,-89.8692778
MLS Listing,,Vacant Land,511 W Foote St,Hamburg,AR,71646,4320,,,Ashley County,,7405,,2,,,Active,,,https://www.redfin.com/AR/Hamburg/511-W-Foote-St-71646/home/114194350,CARMLS,22040113,N,Y,33.2351634,-91.8040729
MLS Listing,,Vacant Land,509 W Foote St,Hamburg,AR,71646,4320,,,Ashley County,,7405,,3,,,Active,,,https://www.redfin.com/AR/Hamburg/509-W-Foote-St-71646/home/183372187,CARMLS,22040112,N,Y,33.2351242,-91.8040092
MLS Listing,,Vacant Land,507 W Foote St,Hamburg,AR,71646,4320,,,Ashley County,,7405,,3,,,Active,,,https://www.redfin.com/AR/Hamburg/507-W-Foote-St-71646/home/183372149,CARMLS,22040110,N,Y,33.2351225,-91.8039456
MLS Listing,,Vacant Land,1003 N Pine St,Hamburg,AR,71646,3350,,,Ashley County,,4356,,3,,,Active,,,https://www.redfin.com/AR/Hamburg/1003-N-Pine-St-71646/home/183372117,CARMLS,22040109,N,Y,33.2337788,-91.803699
MLS Listing,,Vacant Land,1005 N Pine St,Hamburg,AR,71646,7900,,,Ashley County,,33105,,3,,,Active,,,https://www.redfin.com/AR/Hamburg/1005-N-Pine-St-71646/home/183372110,CARMLS,22040108,N,Y,33.233784,-91.8036986
MLS Listing,,Vacant Land,1007 N Pine St,Hamburg,AR,71646,3350,,,Ashley County,,6098,,3,,,Active,,,https://www.redfin.com/AR/Hamburg/1007-N-Pine-St-71646/home/183372089,CARMLS,22040107,N,Y,33.2337891,-91.8036982
MLS Listing,,Single Family Residential,2025 Crown Cv,Memphis,TN,38016,325000,4,2.0,Countrywood,,10890,1986,3,148,,Active,,,https://www.redfin.com/TN/Cordova/2025-Crown-Cv-38016/home/60610437,Memphis Area Association of Realtors(R) MLS,10138887,N,Y,35.180852,-89.7785749
MLS Listing,,Condo/Co-op,1829 Appling Oaks Cir #93,Cordova,TN,38016,235000,2,2.0,Macon/Appling Rd,,6969,2004,3,196,,Active,,,https://www.redfin.com/TN/Cordova/1829-Appling-Oaks-Cir-38016/unit-93/home/146527573,Memphis Area Association of Realtors(R) MLS,10139035,N,Y,35.175376,-89.816697
MLS Listing,,Single Family Residential,198 Fantasy Dr,Lyles,TN,37098,349500,3,2.0,Country Valley Est.,1311,38332,2022,,267,,Active,,,https://www.redfin.com/TN/Lyles/198-Fantasy-Dr-37098/home/182894941,REALTRACS,2459953,N,Y,35.8786951,-87.3424724
MLS Listing,,Single Family Residential,7777 Ferndale Dr,Olive Branch,MS,38654,263900,3,2.0,Allendale,1717,4791,2022,3,154,8,Active,,,https://www.redfin.com/MS/Olive-Branch/7777-Ferndale-DR-38654/home/183357341,MLSU,4035480,N,Y,34.956415,-89.840292
MLS Listing,,Single Family Residential,24 Talladega Loop,Cabot,AR,72023,340000,4,2.0,Cabot School District,2641,,2006,3,129,,Active,,,https://www.redfin.com/AR/Cabot/24-Talladega-Loop-72023/home/81461047,CARMLS,22040104,N,Y,34.9453932,-92.0174094
MLS Listing,,Condo/Co-op,3228 S Mendenhall Rd Unit 4B,Memphis,TN,38115,35000,1,1.0,Fox Meadows,,871,1969,3,,,Active,,,https://www.redfin.com/TN/Memphis/3228-S-Mendenhall-Rd-38115/unit-4B/home/87709983,Memphis Area Association of Realtors(R) MLS,10139089,N,Y,35.060163,-89.8853912
MLS Listing,,Condo/Co-op,3224 S Mendenhall Rd #1,Memphis,TN,38115,55000,2,2.0,Fox Meadows,,,1966,3,55,,Active,,,https://www.redfin.com/TN/Memphis/3224-S-Mendenhall-Rd-38115/unit-1/home/183357099,Memphis Area Association of Realtors(R) MLS,10139088,N,Y,35.0604858,-89.8856287
MLS Listing,,Single Family Residential,150 French Br,Madison,MS,39110,315000,3,2.0,Lake Caroline,2001,10890,2004,3,157,,Active,,,https://www.redfin.com/MS/Madison/150-French-Br-39110/home/123345593,MLSU,4035477,N,Y,32.5443705,-90.1645319
MLS Listing,,Single Family Residential,210 Academy St,Farmerville,LA,71241,179000,3,2.5,,2522,,,3,71,,Active,,,https://www.redfin.com/LA/Farmerville/210-Academy-St-71241/home/84853867,NELABOR,204122,N,Y,32.7747396,-92.406722
MLS Listing,,Single Family Residential,50 Lewis Loop,Greenbrier,AR,72058,269900,3,2.0,Greenbrier School District,1619,8712,2022,3,167,,Active,,,https://www.redfin.com/AR/Greenbrier/50-Lewis-LOOP-72058/home/183357058,CARMLS,22040103,N,Y,35.2340491,-92.3878973
MLS Listing,,Single Family Residential,667 Glankler St,Memphis,TN,38112,79000,2,1.0,Midtown/Holmes,,2613,1931,3,,,Active,,,https://www.redfin.com/TN/Memphis/667-Glankler-St-38112/home/87610818,Memphis Area Association of Realtors(R) MLS,10139087,N,Y,35.1506455,-89.9625978
MLS Listing,,Vacant Land,County Road 208 #1,Eutaw,AL,35462,2300000,,,Greene County,,1263240,,3,,,Active,,,https://www.redfin.com/AL/Unknown/County-Road-208-35462/unit-1/home/183356860,Greater Alabama MLS,1340938,N,Y,33.0005515,-87.9205723
MLS Listing,,Single Family Residential,150 Whisper Lake Blvd,Madison,MS,39110,345000,4,2.5,Annandale Estates,2536,14374,1998,3,136,308,Active,,,https://www.redfin.com/MS/Madison/150-Whisper-Lake-Blvd-39110/home/123337479,MLSU,4035473,N,Y,32.5004859,-90.1910278
MLS Listing,,Single Family Residential,50043 Ashley Rd,Amory,MS,38821,183500,4,2.0,Metes And Bounds,1800,392040,1997,3,102,,Active,,,https://www.redfin.com/MS/Amory/50043-Ashley-Rd-38821/home/94245233,MLSU,4035472,N,Y,33.8969053,-88.4696238
MLS Listing,,Vacant Land,N Ms-Hwy 45,Meridian,MS,39301,535000,,,Metes And Bounds,,4486680,,3,,,Active,,,https://www.redfin.com/MS/Meridian/Highway-45-N-39301/home/122441198,MLSU,4035470,N,Y,33.574638,-88.42521
MLS Listing,,Single Family Residential,41 Greenway Dr,Little Rock,AR,72209,90000,3,1.5,Lit - Southwest Little Rock (cen,1008,8712,1955,3,89,,Active,,,https://www.redfin.com/AR/Little-Rock/41-Greenway-Dr-72209/home/95349324,CARMLS,22040099,N,Y,34.6961337,-92.3508468
MLS Listing,,Mobile/Manufactured Home,2938 Woods Prong Rd,Linden,TN,37096,349000,3,2.0,Linden,1250,3702600,1994,,279,,Active,,,https://www.redfin.com/TN/Linden/2938-Woods-Prong-Rd-37096/home/183356518,REALTRACS,2468756,N,Y,35.518288,-87.8848526
MLS Listing,,Single Family Residential,727 Skyline Dr,North Little Rock,AR,72116,165000,2,1.0,North Little Rock (central),1078,8712,1955,3,153,,Active,,,https://www.redfin.com/AR/North-Little-Rock/727-Skyline-Dr-72116/home/81372623,CARMLS,22040097,N,Y,34.7828172,-92.2548659
MLS Listing,,Single Family Residential,15 Barbara Cir,Little Rock,AR,72204,155000,3,1.0,Lit - West Little Rock (central),1510,14374,1953,3,103,,Active,,,https://www.redfin.com/AR/Little-Rock/15-Barbara-Cir-72204/home/95346600,CARMLS,22040098,N,Y,34.7354464,-92.3489584
MLS Listing,,Single Family Residential,145 Dutch Ave,Hamilton,AL,35570,40000,3,2.0,Metes And Bounds,1500,87120,1993,3,27,,Active,,,https://www.redfin.com/AL/Hamilton/145-Dutch-Ave-35570/home/80225164,VMLS,1824463,N,Y,34.1839615,-88.03948
MLS Listing,,Vacant Land,Hearst Rd,Starkville,MS,39759,97000,,,Metes And Bounds,,849420,,3,,,Active,,,https://www.redfin.com/MS/Unknown/Unknown-Unknown/home/166373180,MLSU,4035468,N,Y,33.452923,-88.740597
MLS Listing,,Vacant Land,276 Battery Loop,Hamilton,AL,35570,15000,,,Metes And Bounds,,60983,,3,,,Active,,,https://www.redfin.com/AL/Hamilton/276-Battery-Loop-35570/home/80222637,VMLS,1824462,N,Y,34.1572944,-87.9870855
MLS Listing,,Single Family Residential,2898 Beaver Rd,Munford,TN,38058,369000,5,3.0,Tipton/Brighton,,152460,1975,3,154,,Active,,,https://www.redfin.com/TN/Munford/2898-Beaver-Rd-38058/home/60843975,Memphis Area Association of Realtors(R) MLS,10139084,N,Y,35.489191,-89.8102352
MLS Listing,,Single Family Residential,609 Battery Loop,Hamilton,AL,35570,10000,2,1.0,Metes And Bounds,952,169884,1900,3,11,,Active,,,https://www.redfin.com/AL/Hamilton/609-Battery-Loop-35570/home/80225724,VMLS,1824461,N,Y,34.1615107,-87.9892372
MLS Listing,,Single Family Residential,3864 Hobson Rd,Memphis,TN,38128,200000,3,2.0,Egypt Central,,16988,1978,3,91,,Active,,,https://www.redfin.com/TN/Memphis/3864-Hobson-Rd-38128/home/87733748,Memphis Area Association of Realtors(R) MLS,10139083,N,Y,35.2303279,-89.9384971
MLS Listing,,Single Family Residential,299 Twin Mountain Loop,Russellville,AL,35654,175000,3,2.0,Country Hills Estates,1540,40075,1986,3,114,,Active,,,https://www.redfin.com/AL/Russellville/299-Twin-Mountain-Loop-35654/home/120091642,VMLS,1824457,N,Y,34.5378632,-87.6977843
MLS Listing,,Vacant Land,3670 Sardis Lake Dr,Batesville,MS,38606,136000,,,Batesville,,1110780,,3,,,Active,,,https://www.redfin.com/MS/Batesville/3670-Sardis-Lake-Dr-38606/home/183354795,MLSU,4035464,N,Y,34.3916962,-89.7250748
MLS Listing,,Single Family Residential,4708 Francis St,North Little Rock,AR,72118,140000,3,2.0,North Little Rock (west/crystal,1320,6534,1940,3,106,,Active,,,https://www.redfin.com/AR/North-Little-Rock/4708-Francis-St-72118/home/81374172,CARMLS,22040092,N,Y,34.798592,-92.2809105
MLS Listing,,Single Family Residential,7414 Crosswinds Blvd,Hernando,MS,38632,381900,3,2.5,Hernando,2208,12196,2023,3,173,21,Active,,,https://www.redfin.com/MS/Hernando/7414-Cross-Winds-Dr-38632/home/183354731,MLSU,4035461,N,Y,34.857774,-89.861416
MLS Listing,,Single Family Residential,205 Birch Ln,Canton,MS,39046,334000,3,2.0,Wild Oak of Oakfield,1831,21780,2022,3,182,650,Active,,,https://www.redfin.com/MS/Canton/205-Birch-LN-39046/home/183354730,MLSU,4035462,N,Y,32.507911,-90.062479
MLS Listing,,Single Family Residential,851 Freeman St,Memphis,TN,38122,120000,3,1.0,Kingsbury,,7405,1947,3,120,,Active,,,https://www.redfin.com/TN/Memphis/851-Freeman-St-38122/home/87660560,Memphis Area Association of Realtors(R) MLS,10139082,N,Y,35.1551144,-89.938187
MLS Listing,,Single Family Residential,2501 S Maple St,Little Rock,AR,72204,75000,3,1.0,Little Rock (ualr),1200,6969,1930,3,63,,Active,,,https://www.redfin.com/AR/Little-Rock/2501-S-Maple-St-72204/home/81381100,CARMLS,22040087,N,Y,34.7284796,-92.3148832
MLS Listing,,Single Family Residential,230 Green Dr,Somerville,TN,38068,159900,7,4.0,Somerville/ East,,438649,1992,3,36,,Active,,,https://www.redfin.com/TN/Somerville/230-Green-Dr-38068/home/87359615,Memphis Area Association of Realtors(R) MLS,10139081,N,Y,35.2033301,-89.3087759
MLS Listing,,Single Family Residential,230 Rosebud Dr,Adamsville,TN,38310,75000,3,1.0,McNairy County,,13068,1978,3,75,,Active,,,https://www.redfin.com/TN/Adamsville/230-Rosebud-Dr-38310/home/60794916,Memphis Area Association of Realtors(R) MLS,10139080,N,Y,35.2425736,-88.3865014
MLS Listing,,Single Family Residential,3683 Northwood Dr,Memphis,TN,38111,405000,3,2.0,Galloway Gardens,,16988,1948,3,253,,Active,December-18-2022 01:00 PM,December-18-2022 02:30 PM,https://www.redfin.com/TN/Memphis/3683-Northwood-Dr-38111/home/60848539,Memphis Area Association of Realtors(R) MLS,10139079,N,Y,35.134136,-89.9386887
MLS Listing,,Multi-Family (2-4 Unit),1405 S Cumberland St,Little Rock,AR,72202,290000,4,4.0,Little Rock (downtown),2946,6969,1920,3,98,,Active,,,https://www.redfin.com/AR/Little-Rock/1405-Cumberland-St-72202/home/81378738,CARMLS,22040085,N,Y,34.7346766,-92.2702299
MLS Listing,,Mobile/Manufactured Home,3431 Sardis Lake Dr,Batesville,MS,38606,295000,4,2.0,Metes And Bounds,2500,457380,2022,3,118,,Active,,,https://www.redfin.com/MS/Batesville/3431-Sardis-Lake-Dr-38606/home/182586581,MLSU,4035458,N,Y,34.388287,-89.727224
MLS Listing,,Vacant Land,716 Greene 728,Paragould,AR,72450,80000,,,Paragould (southwest),,189050,,3,,,Active,,,https://www.redfin.com/AR/Paragould/716-Nixon-Rd-72450/home/183354541,CARMLS,22040082,N,Y,35.9704977,-90.5676593
MLS Listing,,Single Family Residential,4072 Leroy Ave,Memphis,TN,38108,95000,2,1.0,Kingsbury,,6098,1951,3,,,Active,,,https://www.redfin.com/TN/Memphis/4072-Leroy-Ave-38108/home/60879424,Memphis Area Association of Realtors(R) MLS,10139077,N,Y,35.1762411,-89.9244291
MLS Listing,,Single Family Residential,200 Misty Meadows Dr,Oakland,TN,38060,429306,4,3.0,Oakland (East)/Somerville,,8712,2022,3,179,,Active,,,https://www.redfin.com/TN/Oakland/200-Misty-Meadows-Dr-38060/home/183354073,Memphis Area Association of Realtors(R) MLS,10139075,N,Y,35.1944382,-89.5115609
MLS Listing,,Mobile/Manufactured Home,8 Cr 466 Rd,Iuka,MS,38852,375000,4,2.0,Other Mississippi Counties,,,1973,3,313,,Active,,,https://www.redfin.com/MS/IUKA/8-ROAD-466-38852/home/94516815,Memphis Area Association of Realtors(R) MLS,10139074,N,Y,34.882136,-88.107722
MLS Listing,,Single Family Residential,4289 Truman Ave,Memphis,TN,38108,82500,2,1.0,Kingsbury,,7840,1946,3,,,Active,,,https://www.redfin.com/TN/Memphis/4289-Truman-Ave-38108/home/87674905,Memphis Area Association of Realtors(R) MLS,10139072,N,Y,35.1740463,-89.9177126
MLS Listing,,Vacant Land,000 Everett Ridge Rd. Rd,Prim,AR,72130,649000,,,Drasco,,7710120,,3,,,Active,,,https://www.redfin.com/AR/PRIM/EVERETT-RIDGE-RD-72130/home/110437865,CARMLS,22040078,N,Y,35.674194,-92.024323
MLS Listing,,Single Family Residential,3617 Allandale Ln,Memphis,TN,38111,155000,4,2.0,Getwell/Park,,8712,1945,3,129,,Active,,,https://www.redfin.com/TN/Memphis/3617-Allandale-Ln-38111/home/60879517,Memphis Area Association of Realtors(R) MLS,10139073,N,Y,35.1030736,-89.9422368
MLS Listing,,Single Family Residential,704 Park St,Florence,AL,35630,149000,3,1.0,,1290,9583,1940,3,116,,Active,,,https://www.redfin.com/AL/Florence/704-Park-St-35630/home/122885103,SAARMLS,508871,N,Y,34.7972908,-87.6639119
MLS Listing,,Single Family Residential,13846 Margaret Way,Northport,AL,35475,434000,4,3.0,Bristol Park,2390,,2022,3,182,,Active,,,https://www.redfin.com/AL/Northport/13846-Margaret-Way-35475/home/178186036,WAMLS,154617,N,Y,33.3047704,-87.5771989
MLS Listing,,Single Family Residential,128 Rosewood Dr,Trumann,AR,72472,99900,4,2.0,Poinsett County,1480,8276,1970,3,68,,Active,,,https://www.redfin.com/AR/Trumann/128-Rosewood-Dr-72472/home/81548819,CARMLS,22040069,N,Y,35.669867,-90.5194137
MLS Listing,,Single Family Residential,2901 S Arch St,Little Rock,AR,72206,165000,3,2.0,Little Rock (downtown),1678,7405,1940,3,98,,Active,,,https://www.redfin.com/AR/Little-Rock/2901-S-Arch-St-72206/home/81384084,CARMLS,22040060,N,Y,34.7203086,-92.2800254
MLS Listing,,Single Family Residential,469 E Peace St,Canton,MS,39046,165000,3,2.0,Canton Historic Dist,1600,16117,1925,3,103,,Active,,,https://www.redfin.com/MS/Canton/469-E-Peace-St-39046/home/123476070,MLSU,4035449,N,Y,32.6128837,-90.0235578
MLS Listing,,Vacant Land,482 Center Ridge Dr,Linden,TN,37096,90000,,,Woodlands At Buffalo River,,261360,,,,,Active,,,https://www.redfin.com/TN/Linden/482-Center-Ridge-DR-37096/home/183352712,REALTRACS,2468658,N,Y,35.59427077,-87.81935949
MLS Listing,,Single Family Residential,1404 W 31st,Pine Bluff,AR,71603,42000,2,1.0,Pine Bluff (central),1060,,1954,3,40,,Active,,,https://www.redfin.com/AR/Pine-Bluff/1404-W-31st-Ave-71603/home/82917877,CARMLS,22004574,N,Y,34.1978803,-92.0169695
MLS Listing,,Vacant Land,0 Us 51 Hwy,Millington,TN,38053,55000,,,Millington/Lucy,,76230,,3,,,Active,,,https://www.redfin.com/TN/MILLINGTON/HWY-51-N-38053/home/163351051,Memphis Area Association of Realtors(R) MLS,10139071,N,Y,35.311575,-89.940088
MLS Listing,,Single Family Residential,2281 York Ave,Memphis,TN,38104,300000,3,2.0,Central Gardens,,6534,1978,3,167,,Active,,,https://www.redfin.com/TN/Memphis/2281-York-Ave-38104/home/60851612,Memphis Area Association of Realtors(R) MLS,10139069,N,Y,35.1245995,-89.9859728
MLS Listing,,Single Family Residential,220 Johnsborough Dr,Atoka,TN,38004,479900,4,3.0,Tipton - South,,,2022,3,,,Active,,,https://www.redfin.com/TN/Atoka/220-Johnsborough-Dr-38004/home/183352624,Memphis Area Association of Realtors(R) MLS,10139070,N,Y,35.4329279,-89.7815719
MLS Listing,,Single Family Residential,1270 River Bank Dr,Collierville,TN,38017,420000,4,3.5,Collierville - East,,11761,1999,3,162,,Active,December-17-2022 01:00 PM,December-17-2022 03:00 PM,https://www.redfin.com/TN/Collierville/1270-River-Bank-Dr-38017/home/60818750,Memphis Area Association of Realtors(R) MLS,10139068,N,Y,35.0747457,-89.6578316
MLS Listing,,Vacant Land,521 Pearce Rd,Yazoo City,MS,39194,483504,,,Yazoo City,,5009400,,3,,,Active,,,https://www.redfin.com/MS/Yazoo-City/521-Eden-Midway-Rd-39194/home/183352567,MLSU,4035443,N,Y,32.98172,-90.3092702
MLS Listing,,Single Family Residential,801 Chatwood St,Memphis,TN,38122,260000,3,2.5,Kingsbury,,7405,1950,3,163,,Active,,,https://www.redfin.com/TN/Memphis/801-Chatwood-St-38122/home/87661126,Memphis Area Association of Realtors(R) MLS,10139067,N,Y,35.1534777,-89.9304875
MLS Listing,,Single Family Residential,120 Dee Rd,Somerville,TN,38068,165000,3,1.0,Somerville/ East,,,1974,3,165,,Active,,,https://www.redfin.com/TN/Somerville/120-Dee-Rd-38068/home/87363460,Memphis Area Association of Realtors(R) MLS,10139066,N,Y,35.2534942,-89.3375363
MLS Listing,,Single Family Residential,118 Mallard Cv,Bay,AR,72411,299900,3,2.0,Craighead County,2095,33976,,3,143,,Active,,,https://www.redfin.com/AR/Bay/118-Mallard-Cv-72411/home/119616282,CARMLS,22040051,N,Y,35.7371708,-90.564995
MLS Listing,,Single Family Residential,90 Bobbie Ann Dr,Savannah,TN,38372,239000,3,2.5,Hardin County,,13939,1973,3,149,,Active,,,https://www.redfin.com/TN/Savannah/90-Bobbie-Ann-Dr-38372/home/87332423,Memphis Area Association of Realtors(R) MLS,10139065,N,Y,35.2373718,-88.2227436
MLS Listing,,Vacant Land,00 Burr Flat Rd,Mayflower,AR,72106,630000,,,Mayflower School District Includ,,2613600,,3,,,Active,,,https://www.redfin.com/AR/Mayflower/0-Burr-Flat-Rd-72106/home/183351839,CARMLS,22040044,N,Y,34.9584898,-92.4636111
MLS Listing,,Vacant Land,00 Riverair Way,Mayflower,AR,72106,60000,,,Mayflower School District Includ,,130680,,3,,,Active,,,https://www.redfin.com/AR/Mayflower/0-Riverair-Way-72106/home/183351803,CARMLS,22040041,N,Y,34.955992,-92.482817
MLS Listing,,Single Family Residential,6176 Vera Ln,Olive Branch,MS,38654,385000,4,2.5,Olive Branch,3246,13503,2010,3,119,,Active,,,https://www.redfin.com/MS/Olive-Branch/6176-Vera-Ln-38654/home/60848424,MLSU,4035433,N,Y,34.9836937,-89.8801661
MLS Listing,,Vacant Land,00 Windsong Way,Mayflower,AR,72106,70000,,,Mayflower School District Includ,,163350,,3,,,Active,,,https://www.redfin.com/AR/Mayflower/0-Windsong-Way-72106/home/183351395,CARMLS,22040039,N,Y,34.9562943,-92.4852866
