SALE TYPE,SOLD DATE,PROPERTY TYPE,ADDRESS,CITY,STATE OR PROVINCE,ZIP OR POSTAL CODE,PRICE,BEDS,BATHS,LOCATION,SQUARE FEET,LOT SIZE,YEAR BUILT,DAYS ON MARKET,$/SQUARE FEET,HOA/MONTH,STATUS,NEXT OPEN HOUSE START TIME,NEXT OPEN HOUSE END TIME,URL (SEE https://www.redfin.com/buy-a-home/comparative-market-analysis FOR INFO ON PRICING),SOURCE,MLS#,FAVORITE,INTERESTED,LATITUDE,LONGITUDE
MLS Listing,,Single Family Residential,111 Jefferson St,Fincastle,VA,24090,329900,3,2.5,Fincastle,2347,10890,1994,1,141,,Active,,,https://www.redfin.com/VA/Fincastle/111-N-Jefferson-St-24090/home/122759974,MLSRV,893361,N,Y,37.5003197,-79.8741118
MLS Listing,,Single Family Residential,19705 Main St,Buchanan,VA,24066,649000,5,3.0,Buchanan,4044,14374,1924,1,160,,Active,,,https://www.redfin.com/VA/Buchanan/19705-Main-St-24066/home/122692246,MLSRV,890772,N,Y,37.527436,-79.6804263
MLS Listing,,Single Family Residential,363 Lowe St,Buchanan,VA,24066,399995,5,2.0,Buchanan,1980,25700,1820,1,202,,Active,,,https://www.redfin.com/VA/Buchanan/363-Lowe-St-24066/home/122692265,MLSRV,890356,N,Y,37.5267563,-79.6830325
MLS Listing,,Vacant Land,0 Reservior Rd,Roanoke,VA,24019,52000,,,Roanoke,,108028,,1,,,Active,,,https://www.redfin.com/VA/ROANOKE/RESERVOIR-RD-24019/home/164902603,MLSRV,886153,N,Y,37.357287,-79.932038
MLS Listing,,Vacant Land,Lot 1 Coltons Mill Rd,Bedford,VA,24523,65000,,,Bedford Lake Estates,,61419,,1,,83,Active,,,https://www.redfin.com/VA/Unknown/Lot-1-Coltons-Mill-Rd-24523/home/179033920,MLSRV,892805,N,Y,37.465586,-79.469339
MLS Listing,,Vacant Land,Lot 13 Vista Cir,Bedford,VA,24523,43900,,,North Hills Estates,,33105,,1,,,Active,,,https://www.redfin.com/VA/Bedford/Lot-13-Vista-Cir-24523/home/179034057,MLSRV,885936,N,Y,37.356681,-79.510178
MLS Listing,,Single Family Residential,2770 W Lynchburg Salem Tpke,Bedford,VA,24523,214900,2,2.0,Bedford,4080,44866,1950,1,53,,Active,,,https://www.redfin.com/VA/Bedford/2770-W-Lynchburg-Salem-Tpke-24523/home/182531759,MLSRV,894003,N,Y,37.3489022,-79.5857902
MLS Listing,,Vacant Land,Lot 188 Mockingbird Cir,Bedford,VA,24523,75000,,,North Hills,,43560,,1,,,Active,,,https://www.redfin.com/VA/Bedford/188-Mockingbird-Cir-24523/home/179034039,MLSRV,885572,N,Y,37.3595871,-79.5166302
MLS Listing,,Vacant Land,0 Peaks St,Bedford,VA,24523,49500,,,Bedford,,36590,,1,,,Active,,,https://www.redfin.com/VA/BEDFORD/PEAKS-ST-24523/home/68443990,MLSRV,889208,N,Y,37.348189,-79.526853
MLS Listing,,Vacant Land,0 Mountain View Church Rd,Blue Ridge,VA,24064,130000,,,Blue Ridge,,1386514,,1,,,Active,,,https://www.redfin.com/VA/Unknown/Mountain-View-Church-Rd-24064/home/179039981,MLSRV,890751,N,Y,37.367635,-79.762138
MLS Listing,,Vacant Land,0 Pin Oak Dr,Blue Ridge,VA,24064,39000,,,White Oak Estates,,,,1,,,Active,,,https://www.redfin.com/VA/BLUE-RIDGE/PIN-OAK-DR-24064/home/122768686,MLSRV,891899,N,Y,37.388655,-79.821985
MLS Listing,,Vacant Land,0 Goose Creek Valley Rd SW,Montvale,VA,24122,1800000,,,Montvale,,18335710,,1,,,Active,,,https://www.redfin.com/VA/Montvale/Goose-Creek-Valley-Rd-24122/home/179022927,MLSRV,891142,N,Y,37.418487,-79.695635
MLS Listing,,Vacant Land,0 Chenault St,Buchanan,VA,24066,22500,,,Jefferson Hills,,12632,,1,,,Active,,,https://www.redfin.com/VA/BUCHANAN/CHENAULT-ST-24066/home/122842766,MLSRV,893275,N,Y,37.517,-79.690065
MLS Listing,,Vacant Land,Lot 68 Glades End Rd,Blue Ridge,VA,24064,54950,,,Blue Ridge,,54450,,1,,4,Active,,,https://www.redfin.com/VA/Blue-Ridge/Lot-68-Glades-End-RD-Unknown/home/179034047,MLSRV,885985,N,Y,37.395008,-79.813342
MLS Listing,,Single Family Residential,50 Chesney Pl,Blue Ridge,VA,24064,585000,4,3.0,Cobblestone,3668,46173,2001,1,159,10,Active,,,https://www.redfin.com/VA/Blue-Ridge/50-Chesney-Pl-24064/home/122701054,MLSRV,893900,N,Y,37.3827352,-79.8325412
MLS Listing,,Single Family Residential,12790 Lee Hwy,Buchanan,VA,24066,230000,3,2.0,Mill Creek,2363,71874,1951,1,97,,Active,,,https://www.redfin.com/VA/Buchanan/12790-Lee-Hwy-24066/home/122663456,MLSRV,892726,N,Y,37.4853793,-79.7830686
MLS Listing,,Single Family Residential,84 Poplar Dr,Blue Ridge,VA,24064,219950,3,1.0,Blue Ridge Heights,1616,39204,1964,1,136,,Active,,,https://www.redfin.com/VA/Blue-Ridge/84-Poplar-Dr-24064/home/122676059,MLSRV,894054,N,Y,37.3858966,-79.7989641
MLS Listing,,Vacant Land,0 Curry Creek Rd,Fincastle,VA,24090,125000,,,Back Creek,,431679,,1,,,Active,,,https://www.redfin.com/VA/FINCASTLE/CURRY-CREEK-RD-24090/home/122713650,MLSRV,894224,N,Y,37.43872,-79.79743
MLS Listing,,Single Family Residential,61 Old Sawmill Rd,Blue Ridge,VA,24064,399950,4,3.0,Blue Ridge,5400,134600,2000,1,74,,Active,,,https://www.redfin.com/VA/Blue-Ridge/61-Old-Sawmill-Rd-24064/home/122785279,MLSRV,890113,N,Y,37.3503189,-79.7967091
MLS Listing,,Vacant Land,0 Chenault St,Buchanan,VA,24066,22500,,,Jefferson Hills,,11761,,1,,,Active,,,https://www.redfin.com/VA/BUCHANAN/CHENAULT-ST-24066/home/122820711,MLSRV,893271,N,Y,37.517192,-79.689777
MLS Listing,,Vacant Land,0 Newtown Rd,Buchanan,VA,24066,500000,,,Buchanan,,4413499,,1,,,Active,,,https://www.redfin.com/VA/BUCHANAN/NEWTOWN-RD-24066/home/122679883,MLSRV,891358,N,Y,37.516217,-79.694665
MLS Listing,,Vacant Land,305 County Line Rd,Buchanan,VA,24066,1074112,,,Buchanan,,7318080,,1,,,Active,,,https://www.redfin.com/VA/Buchanan/305-County-Line-Rd-24066/home/182777853,MLSRV,894342,N,Y,37.6236219,-79.619307
MLS Listing,,Vacant Land,0 Narrow Passage Rd,Eagle Rock,VA,24085,85900,,,Eagle Rock,,179467,,1,,,Active,,,https://www.redfin.com/VA/EAGLE-ROCK/NARROW-PASSAGE-RD-24085/home/122794134,MLSRV,888856,N,Y,37.642838,-79.76782
MLS Listing,,Vacant Land,0 Archway Rd,Blue Ridge,VA,24064,79888,,,Glade Creek,,871200,,1,,,Active,,,https://www.redfin.com/VA/BLUE-RIDGE/ARCHWAY-RD-24064/home/122804110,MLSRV,891865,N,Y,37.348327,-79.795011
MLS Listing,,Single Family Residential,7369 Botetourt Rd,Fincastle,VA,24090,1100000,1,1.5,Fincastle,1064,14662731,2012,1,1034,,Active,,,https://www.redfin.com/VA/Fincastle/7369-Botetourt-Rd-24090/home/179016092,MLSRV,882028,N,Y,37.5903278,-79.8373734
MLS Listing,,Single Family Residential,68 Ivy Mountain Rd,Buchanan,VA,24066,559000,4,3.0,Buchanan,2641,218235,2005,1,212,,Active,,,https://www.redfin.com/VA/Buchanan/68-Ivy-Mountain-Rd-24066/home/122696737,MLSRV,893511,N,Y,37.4987409,-79.687855
MLS Listing,,Single Family Residential,3774 Springwood Rd,Fincastle,VA,24090,289000,3,2.0,Fincastle,1250,55756,1969,1,231,,Active,,,https://www.redfin.com/VA/Fincastle/3774-Springwood-Rd-24090/home/122836368,MLSRV,894448,N,Y,37.5163508,-79.8196722
MLS Listing,,Mobile/Manufactured Home,236 Walnut Springs Ln,Buchanan,VA,24066,185000,3,2.0,Buchanan,1352,130680,2005,1,137,,Active,,,https://www.redfin.com/VA/Buchanan/236-Walnut-Springs-Ln-24066/home/122794989,MLSRV,894586,N,Y,37.4646941,-79.7459242
MLS Listing,,Vacant Land,0 Laymantown Rd,Troutville,VA,24175,35000,,,Rainbow Forest,,65340,,1,,,Active,,,https://www.redfin.com/VA/TROUTVILLE/LAYMANTOWN-RD-24175/home/122822797,MLSRV,891797,N,Y,37.357077,-79.84887
MLS Listing,,Single Family Residential,99 Gillie Ln,Blue Ridge,VA,24064,759950,4,3.5,Cobblestone,4784,52272,2004,1,159,10,Active,,,https://www.redfin.com/VA/Blue-Ridge/99-Gillie-Ln-24064/home/122670467,MLSRV,893326,N,Y,37.3860362,-79.8332196
MLS Listing,,Vacant Land,0 Big Otter DR Dr,Blue Ridge,VA,24064,950000,,,Blue Ridge,,3568435,,1,,,Active,,,https://www.redfin.com/VA/Unknown/Big-Otter-Dr-24064/home/179615010,MLSRV,894540,N,Y,37.356203,-79.755127
MLS Listing,,Vacant Land,Lot 8 Park Vista Dr,Buchanan,VA,24066,45000,,,Buchanan,,81021,,1,,,Active,,,https://www.redfin.com/VA/Buchanan/8-Park-Vista-Dr-24066/home/179033619,MLSRV,873431,N,Y,37.5335414,-79.7342412
MLS Listing,,Single Family Residential,1329 Sunset Hill Rd,Big Island,VA,24526,138900,2,1.0,Big Island,800,13503,1952,1,174,,Active,,,https://www.redfin.com/VA/Big-Island/1329-Sunset-Hill-Rd-24526/home/122056264,MLSRV,893700,N,Y,37.534383,-79.3621978
MLS Listing,,Single Family Residential,280 Summit Ridge Rd,Daleville,VA,24083,585000,4,3.5,Ashley Plantation,3607,15681,2005,1,162,125,Active,,,https://www.redfin.com/VA/Daleville/280-Summit-Ridge-Rd-24083/home/122717432,MLSRV,894218,N,Y,37.4249309,-79.8999632
MLS Listing,,Single Family Residential,105 Tara Ct,Daleville,VA,24083,1320000,6,4.5,Ashley Plantation,7637,55756,2006,1,173,13,Active,,,https://www.redfin.com/VA/Daleville/105-Tara-Ct-24083/home/122710720,MLSRV,889526,N,Y,37.4317199,-79.898498
MLS Listing,,Single Family Residential,264 Stonecreek Way,Roanoke,VA,24019,617450,4,2.5,Stonegate,3376,12632,2006,1,183,95,Active,,,https://www.redfin.com/VA/Roanoke/264-Stonecreek-Way-24019/home/130293001,MLSRV,893759,N,Y,37.3489902,-79.9142535
MLS Listing,,Vacant Land,8478 Reservoir Rd,Roanoke,VA,24019,35000,,,Roanoke,,51400,,1,,,Active,,,https://www.redfin.com/VA/Roanoke/8478-Reservoir-Rd-24019/home/122670513,MLSRV,894393,N,Y,37.3600964,-79.9358759
MLS Listing,,Single Family Residential,1219 Kira Ln,Bedford,VA,24523,1050000,2,1.0,Bedford,656,7885666,1810,1,1601,,Active,,,https://www.redfin.com/VA/Bedford/1219-Kira-Ln-24523/home/180721742,MLSRV,891732,N,Y,37.4357254,-79.5725259
MLS Listing,,Single Family Residential,Lot 15 Wild Fox Ct,Lynchburg,VA,24503,510950,4,2.5,Lynchburg,2910,16117,2023,1,176,15,Active,,,https://www.redfin.com/VA/Lynchburg/Lot-15-Wild-Fox-CT-24503/home/179944051,MLSRV,890468,N,Y,37.427515,-79.266342
MLS Listing,,Vacant Land,0 Lee Hwy,Troutville,VA,24175,39950,,,Mill Creek,,130680,,1,,,Active,,,https://www.redfin.com/VA/TROUTVILLE/LEE-HWY-24175/home/122700298,MLSRV,887467,N,Y,37.429288,-79.865123
MLS Listing,,Single Family Residential,Lot 19 Wild Fox Ct,Lynchburg,VA,24503,485950,3,2.5,Lynchburg,2575,13503,2022,1,189,15,Active,,,https://www.redfin.com/VA/Lynchburg/Lot-19-Wild-Fox-CT-24503/home/179031406,MLSRV,888527,N,Y,37.428076,-79.265358
MLS Listing,,Vacant Land,Tract 3 Stoney Battery Rd,Troutville,VA,24175,69950,,,Troutville,,190792,,1,,,Active,,,https://www.redfin.com/VA/Troutville/3-Stoney-Battery-Rd-24175/home/122770296,MLSRV,887575,N,Y,37.416721,-79.855868
MLS Listing,,Vacant Land,1283 Aviary Ln,Bedford,VA,24523,695000,,,Bedford,,2345270,,1,,,Active,,,https://www.redfin.com/VA/Bedford/1283-Aviary-Ln-24523/home/180455052,MLSRV,891222,N,Y,37.3481528,-79.5681303
MLS Listing,,Single Family Residential,Lot 8 Boonsboro Meadows Dr,Lynchburg,VA,24503,475950,4,2.5,Lynchburg,3033,14810,2022,1,157,15,Active,,,https://www.redfin.com/VA/Lynchburg/Lot-8-Boonsboro-Meadows-Dr-24503/home/182726819,MLSRV,888529,N,Y,37.42555,-79.264542
MLS Listing,,Vacant Land,Lot 1 Medallion Ct,Daleville,VA,24083,70000,,,Medallion Hills,,,,1,,240,Active,,,https://www.redfin.com/VA/Daleville/1-Medallion-Ct-24083/home/179034948,MLSRV,893644,N,Y,37.4114033,-79.9202393
MLS Listing,,Single Family Residential,Lot 20 Wild Fox Ct,Lynchburg,VA,24503,470950,4,3.0,Lynchburg,2346,13068,2022,1,201,15,Active,,,https://www.redfin.com/VA/Lynchburg/Lot-20-Wild-Fox-CT-24503/home/179031369,MLSRV,888528,N,Y,37.427824,-79.265274
MLS Listing,,Vacant Land,Lot 5 Goode Station Rd,Goode,VA,24556,80000,,,Goode,,29620,,1,,,Active,,,https://www.redfin.com/VA/Goode/Lot-5-Goode-Station-Rd-24556/home/179033509,MLSRV,894014,N,Y,37.362507,-79.39353
MLS Listing,,Vacant Land,0 Laymantown Rd,Troutville,VA,24175,35000,,,Rainbow Forest,,65340,,1,,,Active,,,https://www.redfin.com/VA/TROUTVILLE/LAYMANTOWN-RD-24175/home/122793278,MLSRV,891802,N,Y,37.357938,-79.848922
MLS Listing,,Single Family Residential,378 High St,Eagle Rock,VA,24085,249950,2,1.0,Eagle Rock,910,1742400,1925,1,275,,Active,,,https://www.redfin.com/VA/Eagle-Rock/378-High-St-24085/home/179034311,MLSRV,887890,N,Y,37.6453036,-79.7975849
MLS Listing,,Vacant Land,Lot 90 E Glade Trl,Blue Ridge,VA,24064,119000,,,Thornblade,,63597,,1,,4,Active,,,https://www.redfin.com/VA/Blue-Ridge/Lot-90-E-Glade-TRL-Unknown/home/179034284,MLSRV,893094,N,Y,37.393617,-79.810669
MLS Listing,,Vacant Land,0 Lee Hwy,Buchanan,VA,24066,188000,,,Buchanan,,2051676,,1,,,Active,,,https://www.redfin.com/VA/BUCHANAN/LEE-HWY-24066/home/122651460,MLSRV,892378,N,Y,37.480695,-79.788544
MLS Listing,,Single Family Residential,1048 Ash Tree Dr,Thaxton,VA,24174,289900,3,2.0,Thaxton,1832,33541,1960,1,158,,Active,,,https://www.redfin.com/VA/Thaxton/1048-Ash-Tree-Dr-24174/home/122259453,MLSRV,894086,N,Y,37.3520097,-79.6092595
MLS Listing,,Single Family Residential,2238 Houston Mines Rd,Troutville,VA,24175,124900,3,1.5,Troutville,1863,54450,1920,1,67,,Active,,,https://www.redfin.com/VA/Troutville/2238-Houston-Mines-Rd-24175/home/122697685,MLSRV,894497,N,Y,37.4383685,-79.8232179
MLS Listing,,Townhouse,18 Midland Ave,Lynchburg,VA,24501,135000,2,2.0,Lynchburg,1170,871,1974,1,115,75,Active,,,https://www.redfin.com/VA/Lynchburg/18-Midland-Ave-24501/home/128920917,MLSRV,893508,N,Y,37.4087926,-79.2066892
MLS Listing,,Single Family Residential,Lot 17 Wild Fox Ct,Lynchburg,VA,24503,470950,4,3.0,Lynchburg,2346,13068,2023,1,201,15,Active,,,https://www.redfin.com/VA/Lynchburg/Lot-17-Wild-Fox-CT-24503/home/179943399,MLSRV,890470,N,Y,37.427805,-79.266751
MLS Listing,,Vacant Land,0 Murray Hollow Rd,Thaxton,VA,24174,275000,,,Thaxton,,4454445,,1,,,Active,,,https://www.redfin.com/VA/Thaxton/Murray-Hollow-Rd-24174/home/179022197,MLSRV,894147,N,Y,37.400341,-79.672255
MLS Listing,,Vacant Land,Lot 6 Goode Station Rd,Goode,VA,24556,125000,,,Goode,,133293,,1,,,Active,,,https://www.redfin.com/VA/Goode/Lot-6-Goode-Station-Rd-24556/home/179033510,MLSRV,894015,N,Y,37.362247,-79.395377
MLS Listing,,Vacant Land,Lot 2 Goode Station Rd,Goode,VA,24556,70000,,,Goode,,31798,,1,,,Active,,,https://www.redfin.com/VA/Goode/Lot-2-Goode-Station-Rd-24556/home/179033506,MLSRV,894009,N,Y,37.362826,-79.393852
MLS Listing,,Single Family Residential,1077 Dawn Dairy Rd,Bedford,VA,24523,379900,3,2.0,Bedford,1488,122403,1989,1,255,,Active,,,https://www.redfin.com/VA/Bedford/1077-Dawn-Dairy-Rd-24523/home/122235418,MLSRV,886240,N,Y,37.3675784,-79.5522218
MLS Listing,,Vacant Land,New lot 2 Hollymeade Ln,Daleville,VA,24083,112950,,,Hollymeade,,40510,,1,,,Active,,,https://www.redfin.com/VA/Daleville/2-Hollymeade-Ln-24083/home/182138725,MLSRV,893461,N,Y,37.4196347,-79.9208367
MLS Listing,,Single Family Residential,96 Westridge Dr,Daleville,VA,24083,359000,4,3.0,Applewood Estates,2492,20473,1976,1,144,,Active,,,https://www.redfin.com/VA/Daleville/96-Westridge-Dr-24083/home/122649467,MLSRV,893264,N,Y,37.4248305,-79.9098468
MLS Listing,,Single Family Residential,98 Ashley Links Dr,Daleville,VA,24083,635000,4,4.0,Ashley Plantation,4595,29620,2013,1,138,13,Active,,,https://www.redfin.com/VA/Daleville/98-Ashley-Links-Dr-24083/home/122791707,MLSRV,894485,N,Y,37.424165,-79.8987386
MLS Listing,,Single Family Residential,5900 Carolina Trl,Roanoke,VA,24019,290000,3,2.0,Roanoke,1538,13068,1998,1,189,24,Active,,,https://www.redfin.com/VA/Hollins/5900-Carolina-Trl-24019/home/130197619,MLSRV,894289,N,Y,37.3474793,-79.9230961
MLS Listing,,Townhouse,190 Cypress Ct,Roanoke,VA,24019,249900,2,2.0,Cypress Court,1286,4356,2006,1,194,141,Active,,,https://www.redfin.com/VA/Roanoke/190-Cypress-Ct-24019/home/122804034,MLSRV,894210,N,Y,37.3588531,-79.9150081
MLS Listing,,Vacant Land,1976 River Rd,Glasgow,VA,24555,599000,,,Glasgow,,2459833,,1,,,Active,,,https://www.redfin.com/VA/Glasgow/1976-River-RD-24555/home/179846939,MLSRV,890345,N,Y,37.674435,-79.426048
MLS Listing,,Single Family Residential,1481 Little Timber Rdg,Buchanan,VA,24066,2999950,8,7.0,Buchanan,8349,3237814,1969,1,359,,Active,,,https://www.redfin.com/VA/Buchanan/1481-Little-Timber-Rdg-24066/home/179034173,MLSRV,886933,N,Y,37.5263009,-79.785152
MLS Listing,,Single Family Residential,177 E Arrowhead Ct,Troutville,VA,24175,614950,5,4.0,Troutville,3130,195584,1988,1,196,,Active,,,https://www.redfin.com/VA/Troutville/177-E-Arrowhead-Ct-24175/home/122721786,MLSRV,892732,N,Y,37.4570236,-79.9189422
MLS Listing,,Vacant Land,0 Villa Ct,Troutville,VA,24175,70000,,,Troutville Townhomes,,,,1,,70,Active,,,https://www.redfin.com/VA/TROUTVILLE/VILLA-CT-24175/home/122802636,MLSRV,891453,N,Y,37.415994,-79.882094
MLS Listing,,Single Family Residential,843 Healing Springs Rd,Blue Ridge,VA,24064,79000,4,1.0,Blue Ridge,1584,44431,1900,1,50,,Active,,,https://www.redfin.com/VA/Blue-Ridge/843-Healing-Springs-Rd-24064/home/122659533,MLSRV,892890,N,Y,37.374391,-79.7982198
MLS Listing,,Single Family Residential,Lot 21 Wild Fox Ct,Lynchburg,VA,24503,460950,3,2.0,Lynchburg,2049,13068,2022,1,225,15,Active,,,https://www.redfin.com/VA/Lynchburg/Lot-21-Wild-Fox-CT-24503/home/179031371,MLSRV,888525,N,Y,37.428112,-79.265115
MLS Listing,,Single Family Residential,1254 Hurricane Reef Dr,Bedford,VA,24523,675000,4,3.5,Bedford,4220,1306364,1985,1,160,,Active,,,https://www.redfin.com/VA/Bedford/1254-Hurricane-Reef-Dr-24523/home/122384445,MLSRV,890883,N,Y,37.4696252,-79.4489188
MLS Listing,,Vacant Land,0 Marjorie Ln,Fincastle,VA,24090,25950,,,Blue Ridge Estates,,100188,,1,,,Active,,,https://www.redfin.com/VA/FINCASTLE/MARJORIE-LN-24090/home/122833423,MLSRV,879515,N,Y,37.473108,-79.860096
MLS Listing,,Vacant Land,Lot 3 Ezra Dr,Buchanan,VA,24066,34950,,,Buchanan,,179031,,1,,,Active,,,https://www.redfin.com/VA/Unknown/Lot-3-Ezra-Dr-24066/home/179033740,MLSRV,878814,N,Y,37.564034,-79.624926
MLS Listing,,Single Family Residential,2659 Cedar Ln,Buchanan,VA,24066,187500,3,1.0,Buchanan,906,47916,1900,1,207,,Active,,,https://www.redfin.com/VA/Buchanan/2659-Cedar-Ln-24066/home/122842510,MLSRV,893334,N,Y,37.5490113,-79.7503052
MLS Listing,,Vacant Land,Lot 9 Ezra Dr,Buchanan,VA,24066,34950,,,Buchanan,,105415,,1,,,Active,,,https://www.redfin.com/VA/Unknown/Lot-9-Ezra-Dr-24066/home/179033742,MLSRV,878817,N,Y,37.563558,-79.625183
MLS Listing,,Single Family Residential,4745 Read Mountain Rd,Cloverdale,VA,24077,325000,3,2.0,Cloverdale,732,61419,1971,1,444,,Active,,,https://www.redfin.com/VA/Cloverdale/4745-Read-Mountain-Rd-24077/home/181997052,MLSRV,893273,N,Y,37.3673893,-79.9075728
MLS Listing,,Vacant Land,0 Maier Farm Rd,Buchanan,VA,24066,115000,,,Buchanan,,341946,,1,,,Active,,,https://www.redfin.com/VA/BUCHANAN/MAIER-FARM-RD-24066/home/122817254,MLSRV,875570,N,Y,37.455058,-79.770686
MLS Listing,,Single Family Residential,5646 Jopling Rd,Bedford,VA,24523,499900,4,3.0,Bedford,1666,453024,1960,1,300,,Active,,,https://www.redfin.com/VA/Bedford/5646-Jopling-Rd-24523/home/122295132,MLSRV,892122,N,Y,37.4033058,-79.5550097
MLS Listing,,Vacant Land,0 Huff Rd,Fincastle,VA,24090,95000,,,Fincastle,,230432,,1,,,Active,,,https://www.redfin.com/VA/FINCASTLE/HUFF-RD-24090/home/122669311,MLSRV,893110,N,Y,37.47835,-79.913136
MLS Listing,,Single Family Residential,890 Blain Rd,Buchanan,VA,24066,995000,3,2.5,Buchanan,2716,1476684,2016,1,366,29,Active,,,https://www.redfin.com/VA/Buchanan/890-Blain-Rd-24066/home/180760186,MLSRV,891770,N,Y,37.5595058,-79.7045565
MLS Listing,,Single Family Residential,481 1st St,Buchanan,VA,24066,299950,5,2.0,Buchanan,2056,12632,1890,1,146,,Active,,,https://www.redfin.com/VA/Buchanan/481-1st-St-24066/home/122773166,MLSRV,894452,N,Y,37.5312996,-79.6812788
MLS Listing,,Vacant Land,0 Pine Hills Dr,Fincastle,VA,24090,79950,,,Pine Hills,,100623,,1,,,Active,,,https://www.redfin.com/VA/FINCASTLE/PINE-HILLS-DR-24090/home/122778291,MLSRV,886630,N,Y,37.506155,-79.869527
MLS Listing,,Multi-Family (5+ Unit),579 Botetourt Rd,Fincastle,VA,24090,399900,,,Fincastle,,88426,1902,1,,,Active,,,https://www.redfin.com/VA/Fincastle/579-Botetourt-Rd-24090/home/122677581,MLSRV,890806,N,Y,37.5049291,-79.8775897
MLS Listing,,Single Family Residential,2457 Gravel Hill Rd,Troutville,VA,24175,400000,6,2.0,Troutville,3360,444312,1919,1,119,,Active,,,https://www.redfin.com/VA/Troutville/2457-Gravel-Hill-Rd-24175/home/122748200,MLSRV,891736,N,Y,37.4617539,-79.8816585
MLS Listing,,Vacant Land,0 Walkers Dr,Buchanan,VA,24066,69950,,,Buchanan,,601999,,1,,,Active,,,https://www.redfin.com/VA/BUCHANAN/WALKERS-DR-24066/home/122717278,MLSRV,891961,N,Y,37.461945,-79.768742
MLS Listing,,Vacant Land,Lot 2 Coltons Mill Rd,Bedford,VA,24523,65000,,,Bedford Lake Estates,,54450,,1,,83,Active,,,https://www.redfin.com/VA/Unknown/Lot-2-Coltons-Mill-Rd-24523/home/179033921,MLSRV,892804,N,Y,37.465807,-79.469812
MLS Listing,,Single Family Residential,2216 Indian Hill Rd,Lynchburg,VA,24503,379900,3,2.0,Lynchburg,2952,36590,1970,1,129,,Active,,,https://www.redfin.com/VA/Lynchburg/2216-Indian-Hill-Rd-24503/home/128644054,MLSRV,893156,N,Y,37.432055,-79.2121362
MLS Listing,,Vacant Land,Lot 78 Scarlet Dr,Daleville,VA,24083,129950,,,Ashley Plantation,,65775,,1,,13,Active,,,https://www.redfin.com/VA/Daleville/78-Scarlet-Dr-24083/home/179034371,MLSRV,888374,N,Y,37.4395779,-79.8995726
MLS Listing,,Vacant Land,0 Laymantown Rd,Troutville,VA,24175,35000,,,Rainbow Forest,,65340,,1,,,Active,,,https://www.redfin.com/VA/TROUTVILLE/LAYMANTOWN-RD-24175/home/122809737,MLSRV,891800,N,Y,37.35737,-79.848856
MLS Listing,,Single Family Residential,9 Daleview Dr,Daleville,VA,24083,410000,4,3.0,Tinkerview Gardens,2298,34848,1973,1,178,,Active,,,https://www.redfin.com/VA/Daleville/9-Daleview-Dr-24083/home/122827624,MLSRV,893604,N,Y,37.4064176,-79.9223965
MLS Listing,,Vacant Land,New lot 4 Hollymeade Ln,Daleville,VA,24083,89950,,,Hollymeade,,49222,,1,,,Active,,,https://www.redfin.com/VA/Daleville/4-Hollymeade-Ln-24083/home/182138755,MLSRV,893463,N,Y,37.4196602,-79.9208559
MLS Listing,,Vacant Land,New Lot 1 Hollymeade Ln,Daleville,VA,24083,117950,,,Hollymeade,,40946,,1,,,Active,,,https://www.redfin.com/VA/Daleville/1-Hollymeade-Ln-24083/home/182138687,MLSRV,893460,N,Y,37.4196347,-79.9208367
MLS Listing,,Single Family Residential,Lot 18 Wild Fox Ct,Lynchburg,VA,24503,460950,3,2.0,Lynchburg,2049,13068,2023,1,225,15,Active,,,https://www.redfin.com/VA/Lynchburg/Lot-18-Wild-Fox-CT-24503/home/179943929,MLSRV,890471,N,Y,37.427947,-79.266602
MLS Listing,,Vacant Land,Lot 6 Prescott Trl,Lexington,VA,24450,34900,,,The Meadows,,91476,,1,,,Active,,,https://www.redfin.com/VA/Lexington/6-Prescott-Trl-24450/home/179033828,MLSRV,881372,N,Y,37.7193479,-79.4369599
MLS Listing,,Single Family Residential,3316 Dorchester Ct,Lynchburg,VA,24503,899900,4,3.5,Dorchester Court,4786,90604,1989,1,188,,Active,,,https://www.redfin.com/VA/Lynchburg/3316-Dorchester-Ct-24503/home/128809220,MLSRV,893771,N,Y,37.4258908,-79.1877197
MLS Listing,,Single Family Residential,8533 Summer View Dr,Roanoke,VA,24019,160000,2,1.0,Roanoke,1163,36590,1940,1,138,,Active,,,https://www.redfin.com/VA/Hollins/8533-Summer-View-Dr-24019/home/130327409,MLSRV,891215,N,Y,37.3548685,-79.92878
MLS Listing,,Single Family Residential,14A Carrington Ct,Roanoke,VA,24019,284950,2,2.0,The Cottages of Steeplechase,1570,7840,2022,1,181,118,Active,,,https://www.redfin.com/VA/Roanoke/14-Carrington-Ct-24019/home/143771049,MLSRV,877392,N,Y,37.351855,-79.887529
MLS Listing,,Single Family Residential,884 Orchard Lake Dr,Daleville,VA,24083,649000,4,4.0,Orchard Lake,3831,151153,1984,1,169,,Active,,,https://www.redfin.com/VA/Daleville/884-Orchard-Lake-Dr-24083/home/122696226,MLSRV,893505,N,Y,37.430528,-79.9204289
MLS Listing,,Vacant Land,Lot 20 Roanoke Rd,Daleville,VA,24083,189000,,,Daleville Farms,,,,1,,,Active,,,https://www.redfin.com/VA/Daleville/Lot-20-Roanoke-Rd-24083/home/182593064,MLSRV,894111,N,Y,37.403342,-79.912385
MLS Listing,,Single Family Residential,399 Merion Cir,Daleville,VA,24083,549950,3,2.0,Daleville,2012,12196,2022,1,273,200,Active,,,https://www.redfin.com/VA/Daleville/399-Merion-CIR-24083/home/181193458,MLSRV,892336,N,Y,37.437311,-79.887365
MLS Listing,,Vacant Land,0 Old Tram Rd,Blue Ridge,VA,24064,50000,,,Glade Creek,,182952,,1,,,Active,,,https://www.redfin.com/VA/Blue-Ridge/0-Old-Tram-Rd-24064/home/183002110,MLSRV,892025,N,Y,37.3786563,-79.8067516
MLS Listing,,Single Family Residential,25 Manassas Cir,Daleville,VA,24083,599950,6,4.5,Ashley Plantation,5004,39204,2004,1,120,13,Active,,,https://www.redfin.com/VA/Daleville/25-Manassas-Cir-24083/home/122806368,MLSRV,894001,N,Y,37.4444786,-79.8992634
MLS Listing,,Single Family Residential,378 Archway Rd,Blue Ridge,VA,24064,229950,3,2.0,Blue Ridge,1328,59241,1955,1,173,,Active,,,https://www.redfin.com/VA/Blue-Ridge/378-Archway-Rd-24064/home/122815390,MLSRV,894453,N,Y,37.3519231,-79.8130619
MLS Listing,,Vacant Land,Lot 2 Springview Ct,Troutville,VA,24175,37500,,,Rainbow Forest,,16117,,1,,,Active,,,https://www.redfin.com/VA/Troutville/2-Springview-Ct-24175/home/182719667,MLSRV,894257,N,Y,37.3599565,-79.8479188
MLS Listing,,Vacant Land,Lot 8 Pin Oak Dr,Blue Ridge,VA,24064,30000,,,White Oak Estates,,31363,,1,,,Active,,,https://www.redfin.com/VA/Blue-Ridge/8-Pin-Oak-Dr-24064/home/180942658,MLSRV,892027,N,Y,37.3872035,-79.8191248
MLS Listing,,Vacant Land,Lot 40 Settlers Rd,Fincastle,VA,24090,62000,,,Santillane,,50965,,1,,,Active,,,https://www.redfin.com/VA/Fincastle/40-Settlers-Rd-24090/home/179037640,MLSRV,889937,N,Y,37.4866199,-79.8830605
MLS Listing,,Single Family Residential,3719 S Lee Hwy,Glasgow,VA,24555,1195000,4,3.0,Glasgow,4413,977922,1792,1,271,,Active,,,https://www.redfin.com/VA/Glasgow/3719-S-Lee-Hwy-24555/home/68551474,MLSRV,886291,N,Y,37.689529,-79.486094
MLS Listing,,Single Family Residential,2290 Trebark Rd,Buchanan,VA,24066,450000,4,4.0,Buchanan,2516,547549,1908,1,179,,Active,,,https://www.redfin.com/VA/Buchanan/2290-Trebark-Rd-24066/home/179034032,MLSRV,889602,N,Y,37.5735516,-79.7624396
MLS Listing,,Single Family Residential,18 Carol Dr,Fincastle,VA,24090,249000,4,3.0,Griffith Park,1477,43560,1973,1,169,,Active,,,https://www.redfin.com/VA/Fincastle/18-Carol-Dr-24090/home/122668448,MLSRV,893676,N,Y,37.5531942,-79.8410319
MLS Listing,,Vacant Land,Lot 8 Ezra Dr,Buchanan,VA,24066,34950,,,Buchanan,,158558,,1,,,Active,,,https://www.redfin.com/VA/Unknown/Lot-8-Ezra-Dr-24066/home/179033741,MLSRV,878815,N,Y,37.563507,-79.625527
MLS Listing,,Single Family Residential,0 Brown Town Rd,Amherst,VA,24521,480000,3,1.0,Amherst,,4432230,1913,1,,,Active,,,https://www.redfin.com/VA/AMHERST/BROWN-TOWN-RD-24521/home/101406146,MLSRV,888488,N,Y,37.628527,-79.171225
MLS Listing,,Vacant Land,0 Blue Sky Ct,Monroe,VA,24574,27500,,,Monroe,,89298,,1,,,Active,,,https://www.redfin.com/VA/Unknown/Blue-Sky-Ct-24574/home/179022085,MLSRV,891907,N,Y,37.543874,-79.304476
MLS Listing,,Single Family Residential,391 Woodland Ave,Lynchburg,VA,24503,230000,3,2.0,Lynchburg,1552,42253,1956,1,148,,Active,,,https://www.redfin.com/VA/Lynchburg/391-Woodland-Ave-24503/home/128872992,MLSRV,893954,N,Y,37.4285486,-79.1722909
MLS Listing,,Vacant Land,0 Windsor Dr,Bedford,VA,24523,29900,,,Bedford,,47916,,1,,,Active,,,https://www.redfin.com/VA/BEDFORD/WINDSOR-DR-24523/home/68444209,MLSRV,886591,N,Y,37.347542,-79.5221
MLS Listing,,Single Family Residential,415 Rural Valley Rd,Natural Bridge,VA,24578,157900,3,1.0,Natural Bridge,900,80586,1961,1,175,,Active,,,https://www.redfin.com/VA/Natural-Bridge/415-Rural-Valley-Rd-24578/home/68537462,MLSRV,894591,N,Y,37.6552511,-79.5627805
MLS Listing,,Vacant Land,0 Derek Dr,Troutville,VA,24175,69950,,,Troutville,,110206,,1,,,Active,,,https://www.redfin.com/VA/Troutville/0-Derek-Dr-24175/home/183049770,MLSRV,894569,N,Y,37.380717,-79.8782871
MLS Listing,,Single Family Residential,288 Emerald Lake Dr,Troutville,VA,24175,359000,4,2.5,Lake Forest,3018,61855,2005,1,119,,Active,,,https://www.redfin.com/VA/Troutville/288-Emerald-Lake-Dr-24175/home/122758268,MLSRV,893705,N,Y,37.3763166,-79.8555387
MLS Listing,,Vacant Land,0 Laymantown Rd,Troutville,VA,24175,35000,,,Rainbow Forest,,65340,,1,,,Active,,,https://www.redfin.com/VA/TROUTVILLE/LAYMANTOWN-RD-24175/home/122775998,MLSRV,891803,N,Y,37.358229,-79.848934
MLS Listing,,Single Family Residential,3234 Read Mountain Rd,Roanoke,VA,24019,300000,4,1.0,Roanoke,1260,101930,1963,1,238,,Active,,,https://www.redfin.com/VA/Roanoke/3234-Read-Mountain-Rd-24019/home/122828322,MLSRV,866397,N,Y,37.3540374,-79.8876894
MLS Listing,,Vacant Land,1819 Vista Cir,Bedford,VA,24523,40000,,,North Hills Estates,,30056,,1,,,Active,,,https://www.redfin.com/VA/Bedford/1819-Vista-Cir-24523/home/179033623,MLSRV,873618,N,Y,37.3601962,-79.5102907
MLS Listing,,Vacant Land,0 Rainbow Forest Dr,Troutville,VA,24175,55000,,,Rainbow Forest,,84942,,1,,,Active,,,https://www.redfin.com/VA/TROUTVILLE/RAINBOW-FOREST-DR-24175/home/122704536,MLSRV,887007,N,Y,37.359115,-79.855463
MLS Listing,,Vacant Land,Lot 15 S Oakwood Rd,Troutville,VA,24175,39950,,,Lake Forest,,31363,,1,,,Active,,,https://www.redfin.com/VA/Troutville/15-S-Oakwood-Rd-24175/home/180447037,MLSRV,891193,N,Y,37.3730544,-79.8543302
MLS Listing,,Single Family Residential,32 Autumn Ln,Troutville,VA,24175,524900,4,3.0,Clearview Estates,3469,43560,1996,1,151,,Active,,,https://www.redfin.com/VA/Troutville/32-Autumn-Ln-24175/home/122804834,MLSRV,893959,N,Y,37.3626946,-79.8420385
MLS Listing,,Single Family Residential,82 Dakota Ln,Troutville,VA,24175,369950,3,1.0,Troutville,1296,300564,1953,1,285,,Active,,,https://www.redfin.com/VA/Troutville/82-Dakota-Ln-24175/home/122840719,MLSRV,891310,N,Y,37.3874511,-79.8747242
MLS Listing,,Single Family Residential,3465 Webster Rd,Blue Ridge,VA,24064,155000,3,1.5,Blue Ridge,1008,31798,1990,1,154,,Active,,,https://www.redfin.com/VA/Blue-Ridge/3465-Webster-Rd-24064/home/122715033,MLSRV,894361,N,Y,37.3647317,-79.8178336
MLS Listing,,Vacant Land,0 Bore Auger Rd,Blue Ridge,VA,24064,325000,,,Bore Auger,,2685474,,1,,,Active,,,https://www.redfin.com/VA/BLUE-RIDGE/BORE-AUGER-RD-24064/home/145105646,MLSRV,893941,N,Y,37.349954,-79.788779
MLS Listing,,Vacant Land,0 Blue Ridge Blvd,Blue Ridge,VA,24064,14900,,,Blue Ridge,,21780,,1,,,Active,,,https://www.redfin.com/VA/BLUE-RIDGE/BLUE-RIDGE-BLVD-24064/home/122739148,MLSRV,883885,N,Y,37.384985,-79.799075
MLS Listing,,Vacant Land,Lot 40 Hundley Ln,Madison Heights,VA,24572,67500,,,Madison Heights,,217800,,1,,10,Active,,,https://www.redfin.com/VA/Unknown/Lot-40-Hundley-Ln-24572/home/180385443,MLSRV,891096,N,Y,37.468534,-79.159067
MLS Listing,,Vacant Land,0 Spruce Ln,Blue Ridge,VA,24064,17500,,,Stratford Place,,18295,,1,,,Active,,,https://www.redfin.com/VA/BLUE-RIDGE/SPRUCE-LN-24064/home/122806467,MLSRV,874600,N,Y,37.376301,-79.821129
MLS Listing,,Single Family Residential,2612 Webster Rd,Roanoke,VA,24012,199000,3,1.0,Roanoke,1425,42253,1985,1,140,,Active,,,https://www.redfin.com/VA/ROANOKE/2612-WEBSTER-RD-24012/home/122804076,MLSRV,893578,N,Y,37.353705,-79.820142
MLS Listing,,Single Family Residential,477 Sherwood Dr,Blue Ridge,VA,24064,315000,3,3.0,White Oak Estates,2288,28749,1971,1,138,,Active,,,https://www.redfin.com/VA/Blue-Ridge/477-Sherwood-Dr-24064/home/122768657,MLSRV,893804,N,Y,37.3873342,-79.8222111
MLS Listing,,Single Family Residential,2265 Pico Rd,Buchanan,VA,24066,315000,2,1.0,Little Mountain,1008,940896,1945,1,313,,Active,,,https://www.redfin.com/VA/Buchanan/2265-Pico-Rd-24066/home/182325275,MLSRV,893693,N,Y,37.506532,-79.681546
MLS Listing,,Single Family Residential,2066 Lazenbury Rd,Bedford,VA,24523,749900,3,2.5,Bedford,1845,264409,2005,1,406,,Active,,,https://www.redfin.com/VA/Bedford/2066-Lazenbury-Rd-24523/home/179022478,MLSRV,893302,N,Y,37.4078275,-79.4532703
MLS Listing,,Townhouse,80 Colony Ave,Daleville,VA,24083,375000,4,3.5,Daleville Town Center,2070,2178,2022,1,181,146,Active,,,https://www.redfin.com/VA/Daleville/80-Colony-Ave-24083/home/179257616,MLSRV,893276,N,Y,37.4154918,-79.9158399
MLS Listing,,Single Family Residential,93 Boxwood Ln,Daleville,VA,24083,410000,2,2.0,Daleville Town Center,1632,6969,2021,1,251,166,Active,,,https://www.redfin.com/VA/Daleville/93-Boxwood-Ln-24083/home/174779690,MLSRV,892798,N,Y,37.413863,-79.914652
MLS Listing,,Single Family Residential,35 Deerfield Rd,Troutville,VA,24175,859950,4,4.5,Troutville,4780,176418,2000,1,180,,Active,,,https://www.redfin.com/VA/Troutville/35-Deerfield-Rd-24175/home/122666211,MLSRV,894375,N,Y,37.4628196,-79.9165154
MLS Listing,,Vacant Land,0 Valley Rd,Troutville,VA,24175,114950,,,Troutville,,572378,,1,,,Active,,,https://www.redfin.com/VA/TROUTVILLE/VALLEY-RD-24175/home/122714273,MLSRV,893896,N,Y,37.407117,-79.888627
MLS Listing,,Ranch,408 Wendover Rd,Daleville,VA,24083,1675000,7,5.5,Daleville,7115,2439795,1966,1,235,,Active,,,https://www.redfin.com/VA/Daleville/408-Wendover-Rd-24083/home/179033617,MLSRV,886372,N,Y,37.4055604,-79.9056927
MLS Listing,,Vacant Land,New lot 3 Hollymeade Ln,Daleville,VA,24083,112950,,,Hollymeade,,40946,,1,,,Active,,,https://www.redfin.com/VA/Daleville/3-Hollymeade-Ln-24083/home/182138726,MLSRV,893462,N,Y,37.4196414,-79.9208417
MLS Listing,,Vacant Land,0 Gorge Rd,Buchanan,VA,24066,600000,,,Buchanan,,4481888,,1,,,Active,,,https://www.redfin.com/VA/BUCHANAN/GORGE-RD-24066/home/122673592,MLSRV,891361,N,Y,37.516107,-79.685003
MLS Listing,,Townhouse,131 Villa Oak Cir,Bedford,VA,24523,364900,1,2.0,Bedford,1550,3049,2022,1,235,250,Active,,,https://www.redfin.com/VA/Bedford/131-Villa-Oak-Cir-24523/home/181752659,MLSRV,892957,N,Y,37.3542819,-79.5173062
MLS Listing,,Single Family Residential,365 Pullen Rd,Lexington,VA,24450,259000,3,2.0,Lexington,1296,131115,2014,1,200,,Active,,,https://www.redfin.com/VA/Lexington/365-Pullen-Rd-24450/home/68558497,MLSRV,893467,N,Y,37.7225581,-79.6425259
MLS Listing,,Single Family Residential,85 Dillon Dr,Fincastle,VA,24090,399900,4,3.5,Fincastle,2543,110206,1977,1,157,,Active,,,https://www.redfin.com/VA/Fincastle/85-Dillon-Dr-24090/home/122811627,MLSRV,894504,N,Y,37.4745875,-79.8787271
MLS Listing,,Single Family Residential,432 Arch Mill Rd,Buchanan,VA,24066,299000,4,3.0,Buchanan,2350,365904,1988,1,127,,Active,,,https://www.redfin.com/VA/Buchanan/432-Arch-Mill-Rd-24066/home/122791425,MLSRV,894436,N,Y,37.4783781,-79.7822365
MLS Listing,,Vacant Land,Lot 3 Goode Station Rd,Goode,VA,24556,70000,,,Goode,,28749,,1,,,Active,,,https://www.redfin.com/VA/Goode/Lot-3-Goode-Station-Rd-24556/home/179033507,MLSRV,894010,N,Y,37.362254,-79.393562
MLS Listing,,Vacant Land,Lot 4 Goode Station Rd,Goode,VA,24556,80000,,,Goode,,28749,,1,,,Active,,,https://www.redfin.com/VA/Goode/Lot-4-Goode-Station-Rd-24556/home/179033508,MLSRV,894012,N,Y,37.362073,-79.393655
MLS Listing,,Townhouse,16 Hillside Pl,Daleville,VA,24083,449950,3,2.5,Medallion Hills,2344,,2004,1,192,240,Active,,,https://www.redfin.com/VA/Daleville/16-Hillside-Pl-24083/home/122788064,MLSRV,894299,N,Y,37.4130478,-79.9183301
MLS Listing,,Single Family Residential,524 Azalea Rd,Daleville,VA,24083,380000,5,3.0,Tinkerview Gardens,2651,22651,1961,1,143,,Active,,,https://www.redfin.com/VA/Daleville/524-Azalea-Rd-24083/home/122719278,MLSRV,894343,N,Y,37.4109716,-79.9206038
MLS Listing,,Single Family Residential,144 Manassas Cir,Daleville,VA,24083,579900,6,3.5,Ashley Plantation,4514,23522,2004,1,128,13,Active,,,https://www.redfin.com/VA/Daleville/144-Manassas-Cir-24083/home/122653670,MLSRV,892296,N,Y,37.4459232,-79.8992634
MLS Listing,,Vacant Land,Lot 39 Hundley Ln,Madison Heights,VA,24572,72500,,,Madison Heights,,246549,,1,,10,Active,,,https://www.redfin.com/VA/Unknown/Lot-39-Hundley-Ln-24572/home/180385408,MLSRV,891095,N,Y,37.468534,-79.159067
MLS Listing,,Vacant Land,Lot 45 Island Green Rd,Daleville,VA,24083,85000,,,The Orchards of Ashley Plantation,,20037,,1,,,Active,,,https://www.redfin.com/VA/Daleville/Lot-45-Island-Green-RD-24083/home/179031399,MLSRV,888547,N,Y,37.436598,-79.890917
MLS Listing,,Ranch,0 Shawnee Trl,Troutville,VA,24175,1225000,0,,Troutville,,4617360,,1,,,Active,,,https://www.redfin.com/VA/TROUTVILLE/SHAWNEE-TRL-24175/home/122710014,MLSRV,884045,N,Y,37.452376,-79.915969
MLS Listing,,Vacant Land,Lot 41 Hundley Ln,Madison Heights,VA,24572,67500,,,Madison Heights,,219978,,1,,10,Active,,,https://www.redfin.com/VA/Unknown/Lot-41-Hundley-Ln-24572/home/180385710,MLSRV,891098,N,Y,37.468534,-79.159067
MLS Listing,,Vacant Land,0 Teresa Ln,Cloverdale,VA,24077,45000,,,Mountain Crest,,87120,,1,,10,Active,,,https://www.redfin.com/VA/Cloverdale/Teresa-Ln-24019/home/179108553,MLSRV,873236,N,Y,37.348082,-79.886739
MLS Listing,,Vacant Land,0 Gravel Hill Rd,Troutville,VA,24175,25000,,,Troutville,,40946,,1,,,Active,,,https://www.redfin.com/VA/TROUTVILLE/GRAVEL-HILL-RD-24175/home/122754818,MLSRV,891251,N,Y,37.452235,-79.861492
MLS Listing,,Vacant Land,Lot 25 Frontier Way,Fincastle,VA,24090,45000,,,Santillane,,55321,,1,,,Active,,,https://www.redfin.com/VA/Fincastle/25-Frontier-Way-24090/home/179034315,MLSRV,887966,N,Y,37.4840012,-79.8791541
MLS Listing,,Single Family Residential,190 Touchstone Ln,Fincastle,VA,24090,595000,3,3.0,Touchstone Farm,2798,192535,2008,1,213,33,Active,,,https://www.redfin.com/VA/Fincastle/190-Touchstone-Ln-24090/home/122696121,MLSRV,893694,N,Y,37.4800212,-79.9157502
MLS Listing,,Vacant Land,0 Old Fincastle Rd,Fincastle,VA,24090,89900,,,Fincastle,,624214,,1,,,Active,,,https://www.redfin.com/VA/FINCASTLE/OLD-FINCASTLE-RD-24090/home/122733791,MLSRV,890645,N,Y,37.549544,-79.87838
MLS Listing,,Single Family Residential,206 Gun Powder Trl,Monroe,VA,24574,310000,3,3.0,Monroe,2530,625914,1991,1,123,17,Active,,,https://www.redfin.com/VA/Monroe/206-Gun-Powder-Trl-24574/home/101408045,LMLS,341591,N,Y,37.5877983,-79.2153972
MLS Listing,,Single Family Residential,1044 Gilliam Ct,Forest,VA,24551,364900,3,2.0,Cobbs Corner,2327,20038,2012,1,157,,Active,,,https://www.redfin.com/VA/Forest/1044-Gilliam-Ct-24551/home/122229567,LMLS,341578,N,Y,37.401008,-79.3026952
MLS Listing,,Single Family Residential,1504 Brookville Cir,Lynchburg,VA,24502,244900,3,1.5,Lakeland,1118,68781,1967,1,219,9,Active,,,https://www.redfin.com/VA/Lynchburg/1504-Brookville-Cir-24502/home/128860746,LMLS,341582,N,Y,37.3477513,-79.2144277
MLS Listing,,Single Family Residential,150 Terrapin Station Ln,Monroe,VA,24574,419000,3,3.5,Monroe,1890,876863,1989,1,222,,Active,,,https://www.redfin.com/VA/Monroe/150-Terrapin-Station-Ln-24574/home/101400852,LMLS,341586,N,Y,37.540315,-79.1875984
MLS Listing,,Single Family Residential,2115 Early St,Lynchburg,VA,24503,72800,2,1.0,Lynchburg,797,8359,1930,1,91,,Active,,,https://www.redfin.com/VA/Lynchburg/2115-Early-St-24503/home/128752179,LMLS,341579,N,Y,37.4339049,-79.163341
MLS Listing,,Single Family Residential,4917 Locksview Rd,Lynchburg,VA,24503,675000,6,4.5,Regency Woods,3572,29229,2016,3,189,,Active,,,https://www.redfin.com/VA/Lynchburg/4917-Locksview-Rd-24503/home/128669025,LMLS,341561,N,Y,37.4580445,-79.2150887
MLS Listing,,Single Family Residential,1707 Danbury Dr,Lynchburg,VA,24502,339900,4,3.0,Heritage Hills,1300,15002,1975,5,261,,Active,,,https://www.redfin.com/VA/Lynchburg/1707-Danbury-Dr-24502/home/128693849,LMLS,341448,N,Y,37.3528584,-79.2494099
MLS Listing,,Townhouse,241 Walnut Ridge Drive Dr,Forest,VA,24551,215000,2,3.5,Walnut Ridge,1292,3485,1987,6,166,290,Active,,,https://www.redfin.com/VA/Forest/241-Walnut-Ridge-Dr-24551/home/183013328,LMLS,341562,N,Y,37.3948753,-79.2575707
MLS Listing,,Single Family Residential,111 Red Maple Ct,Lynchburg,VA,24501,344900,3,3.0,Legacy Oaks,1805,6447,2016,6,191,153,Active,,,https://www.redfin.com/VA/Lynchburg/111-Red-Maple-Ct-24501/home/128857070,LMLS,341557,N,Y,37.409303,-79.20213
MLS Listing,,Single Family Residential,405 Newberne St,Lynchburg,VA,24501,149500,3,2.0,Lynchburg,1300,15246,1928,6,115,,Active,,,https://www.redfin.com/VA/Lynchburg/405-Newberne-St-24501/home/128801080,LMLS,341563,N,Y,37.3955007,-79.1800938
MLS Listing,,Single Family Residential,1107 Highland Dr,Lynchburg,VA,24502,219900,2,2.0,Chestnut Hill,1492,7579,1946,6,147,,Active,,,https://www.redfin.com/VA/Lynchburg/1107-Highland-Dr-24502/home/128764334,LMLS,341531,N,Y,37.3769789,-79.1876757
MLS Listing,,Single Family Residential,3081 Fort Ave,Lynchburg,VA,24501,109900,2,1.5,Commercial Misc,1144,3132,1920,8,96,,Active,,,https://www.redfin.com/VA/Lynchburg/3081-Fort-Ave-24501/home/128869284,LMLS,341460,N,Y,37.395179,-79.1672209
MLS Listing,,Townhouse,332 Bayberry Cove Dr,Forest,VA,24551,339000,3,3.5,Bayberry Cove,2400,3049,1988,9,141,340,Active,,,https://www.redfin.com/VA/Forest/332-Bayberry-Cv-24551/home/122249143,LMLS,341546,N,Y,37.39387,-79.259158
MLS Listing,,Single Family Residential,205 Hunting Ln,Goode,VA,24556,550000,4,3.0,Foxwood,2600,70567,1998,11,212,17,Active,,,https://www.redfin.com/VA/Goode/205-Hunting-Ln-24556/home/122082186,LMLS,341408,N,Y,37.3800567,-79.4001153
MLS Listing,,Mobile/Manufactured Home,1094 Short Rd,Bedford,VA,24523,119900,3,2.0,Elk Garden,1000,60984,1996,12,120,,Active,,,https://www.redfin.com/VA/Bedford/1094-Short-Rd-24523/home/122233790,LMLS,341509,N,Y,37.4194462,-79.5026935
MLS Listing,,Townhouse,1481 Ashbourne Dr,Lynchburg,VA,24501,149900,3,1.0,Woodbine Village West,1130,1742,1982,12,133,92,Active,,,https://www.redfin.com/VA/Lynchburg/1481-Ashbourne-Dr-24501/home/128672894,LMLS,341415,N,Y,37.4147178,-79.2264561
MLS Listing,,Townhouse,222 Robina Rd,Lynchburg,VA,24501,272875,4,2.5,Locust Thicket,1660,4792,,12,164,100,Active,,,https://www.redfin.com/VA/Lynchburg/222-Robina-Rd-24501/home/182886456,LMLS,341511,N,Y,37.4118421,-79.2035182
MLS Listing,,Townhouse,101 Confederate Ave,Lynchburg,VA,24501,298980,4,2.5,Locust Thicket,1660,4792,,12,180,100,Active,,,https://www.redfin.com/VA/Lynchburg/101-Confederate-Ave-24501/home/182595998,LMLS,341512,N,Y,37.414245,-79.2048159
MLS Listing,,Townhouse,223 Robina Rd,Lynchburg,VA,24501,264990,4,2.5,Locust Thicket,1660,4792,,12,160,100,Active,,,https://www.redfin.com/VA/Lynchburg/223-Robina-Rd-24501/home/181996959,LMLS,341510,N,Y,37.411721,-79.203443
MLS Listing,,Vacant Land,809 Old Forest Rd,Lynchburg,VA,24501,25000,,,Lynchburg,,7710,,12,,,Active,,,https://www.redfin.com/VA/Lynchburg/809-Old-Forest-Rd-24501/home/179875707,LMLS,341508,N,Y,37.4039391,-79.1854083
MLS Listing,,Vacant Land,807 SW Old Forest Rd,Lynchburg,VA,24501,25000,,,Lynchburg,,6011,,12,,,Active,,,https://www.redfin.com/VA/Lynchburg/807-Old-Forest-Rd-24501/home/179875674,LMLS,341503,N,Y,37.4037555,-79.1851513
MLS Listing,,Single Family Residential,39 N Princeton Cir,Lynchburg,VA,24503,399000,3,2.0,Randolph College Area,3365,60505,1920,13,119,,Active,,,https://www.redfin.com/VA/Lynchburg/39-N-Princeton-Cir-24503/home/128909081,LMLS,341497,N,Y,37.4413157,-79.1739661
MLS Listing,,Single Family Residential,1151 Mount Horeb Rd,Amherst,VA,24521,489900,2,3.0,Amherst,2520,429458,2008,13,194,,Active,,,https://www.redfin.com/VA/Amherst/1151-Mt-Horeb-Rd-24521/home/101399459,LMLS,341443,N,Y,37.7198507,-79.2449132
MLS Listing,,Single Family Residential,621 Hood St,Lynchburg,VA,24502,154900,2,1.0,Lynchburg,775,6490,1956,13,200,,Active,,,https://www.redfin.com/VA/Lynchburg/621-Hood-St-24501/home/128815359,LMLS,341447,N,Y,37.4034376,-79.1811958
MLS Listing,,Condo/Co-op,1321 Twin Springs Ct,Forest,VA,24551,169900,2,2.0,Lake Vista,1060,,1988,14,160,435,Active,,,https://www.redfin.com/VA/Forest/1321-Twin-Springs-Ct-24551/home/122238687,LMLS,341485,N,Y,37.393953,-79.254296
MLS Listing,,Single Family Residential,2 Brewington Dr,Forest,VA,24551,479900,4,2.5,Forest,2114,8276,2023,14,227,40,Active,,,https://www.redfin.com/VA/Forest/2-Brewington-Dr-24551/home/182860255,LMLS,341465,N,Y,37.3831799,-79.3070966
MLS Listing,,Single Family Residential,632 Thomas Rd,Lynchburg,VA,24502,174900,2,1.0,Stuart Heights,,7436,1947,14,,,Active,,,https://www.redfin.com/VA/Lynchburg/632-Thomas-Rd-24502/home/128610262,LMLS,341470,N,Y,37.3932262,-79.1876316
MLS Listing,,Single Family Residential,135 Waughs Landing Dr,Lynchburg,VA,24503,479900,3,2.0,Blackwater Run,1944,9322,2022,14,247,13,Active,,,https://www.redfin.com/VA/Lynchburg/135-Waughs-Landing-Dr-24503/home/182406920,LMLS,341479,N,Y,37.425333,-79.163761
MLS Listing,,Vacant Land,0 Evans Rd,Powhatan,VA,23139,174950,,,,,817621,,17,,,Active,,,https://www.redfin.com/VA/Unknown/Evans-Rd-24523/home/179682062,CVRMLS,2230463,N,Y,37.3668983,-79.6254495
MLS Listing,,Single Family Residential,909 Old Trents Ferry Rd,Lynchburg,VA,24503,379900,4,3.0,Trents Ferry Rd Area,1938,22956,1962,17,196,,Active,,,https://www.redfin.com/VA/Lynchburg/909-Old-Trents-Ferry-Rd-24503/home/128589901,LMLS,341423,N,Y,37.4535597,-79.2021765
MLS Listing,,Single Family Residential,711 Elmwood Ave,Lynchburg,VA,24503,479950,3,2.0,Blackwater Run,2018,8102,,17,238,13,Active,,,https://www.redfin.com/VA/Lynchburg/711-Elmwood-Ave-24503/home/176728407,LMLS,341434,N,Y,37.425297,-79.165028
MLS Listing,,Single Family Residential,103 Goodyear Dr,Lynchburg,VA,24503,539950,3,2.5,Blackwater Run,2879,7710,,17,188,13,Active,,,https://www.redfin.com/VA/LYNCHBURG/103-GOODYEAR-DR-24503/home/176728414,LMLS,341436,N,Y,37.424323,-79.164251
MLS Listing,,Single Family Residential,707 Elmwood Ave,Lynchburg,VA,24503,509950,3,2.5,Blackwater Run,2575,8102,,17,198,13,Active,,,https://www.redfin.com/VA/Lynchburg/707-Elmwood-Ave-24503/home/176728405,LMLS,341422,N,Y,37.425453,-79.165098
MLS Listing,,Single Family Residential,219 Pleasant St,Lynchburg,VA,24501,169900,3,2.0,Dearington Park,1483,3075,1905,17,115,,Active,,,https://www.redfin.com/VA/Lynchburg/219-Pleasant-St-24501/home/128619266,LMLS,341425,N,Y,37.4111195,-79.1607837
MLS Listing,,Single Family Residential,1077 Camden Hill Ln,Big Island,VA,24526,249900,3,1.0,Big Island,1108,85813,1956,18,226,,Active,,,https://www.redfin.com/VA/Big-Island/10256-Big-Island-Hwy-24526/home/122282230,BRIGHT MLS,VABV2000028,N,Y,37.4745781,-79.4507099
MLS Listing,,Vacant Land,4352 Blue Ridge Tpke,Fincastle,VA,24090,1100000,,,Fincastle,,5793480,,18,,,Active,,,https://www.redfin.com/VA/Fincastle/4352-Blue-Ridge-Tpke-24090/home/182776086,CAAR,636537,N,Y,37.4869893,-79.8364451
MLS Listing,,Single Family Residential,261 Oak Spring Ln,Madison Heights,VA,24572,372000,5,3.5,Elon Forest,2228,117176,2014,18,167,,Active,,,https://www.redfin.com/VA/Madison-Heights/261-Oak-Spring-Ln-24572/home/101408817,LMLS,341396,N,Y,37.4846712,-79.1700866
MLS Listing,,Single Family Residential,1005 Williamsburg Pl,Lynchburg,VA,24503,350000,4,3.0,Lynchburg,1340,15664,1963,18,261,,Active,,,https://www.redfin.com/VA/Lynchburg/1005-Williamsburg-Pl-24503/home/128916372,LMLS,341412,N,Y,37.4533854,-79.1987168
MLS Listing,,Condo/Co-op,1301 Stoney Ridge Blvd #306,Forest,VA,24551,270000,2,2.0,Farmington at Forest,1364,,2021,19,198,150,Active,,,https://www.redfin.com/VA/Forest/1301-Stoney-Ridge-Blvd-24551/unit-306/home/179022541,LMLS,341358,N,Y,37.3848776,-79.3039346
MLS Listing,,Single Family Residential,311 Towne Crier Rd,Lynchburg,VA,24502,264500,4,2.0,Turtle Creek & New Towne,864,13504,2005,19,306,2,Active,,,https://www.redfin.com/VA/Lynchburg/311-Towne-Crier-Rd-24502/home/128776529,LMLS,341261,N,Y,37.3879108,-79.2109905
MLS Listing,,Single Family Residential,224 Berg Dr,Madison Heights,VA,24572,549900,3,3.5,Hans Hill,3406,150151,1986,20,161,42,Active,,,https://www.redfin.com/VA/Madison-Heights/224-Berg-Dr-24572/home/101408593,LMLS,341366,N,Y,37.4775815,-79.160894
MLS Listing,,Vacant Land,0 Centerville Rd,Bedford,VA,24523,236000,,,Bedford,,680799,,22,,,Active,,,https://www.redfin.com/VA/Unknown/Centerville-Rd-24523/home/179022118,LMLS,341365,N,Y,37.362636,-79.462544
MLS Listing,,Single Family Residential,3546 Trents Ferry Rd,Lynchburg,VA,24503,299900,3,2.0,Lynchburg,1400,27443,2003,22,214,,Active,,,https://www.redfin.com/VA/Lynchburg/3546-Trents-Ferry-Rd-24503/home/122286786,LMLS,341342,N,Y,37.4748174,-79.245181
MLS Listing,,Single Family Residential,736 Grady St,Lynchburg,VA,24501,149900,2,1.0,Lynchburg,860,14070,1933,22,174,,Active,,,https://www.redfin.com/VA/Lynchburg/736-Grady-St-24501/home/128714565,LMLS,341350,N,Y,37.3971555,-79.1591523
MLS Listing,,Townhouse,1236 Lindenshire Dr,Forest,VA,24551,339900,3,2.5,Farmington At Forest,1747,2614,,25,195,120,Active,,,https://www.redfin.com/VA/Forest/1236-Lindenshire-Dr-24551/home/182639201,LMLS,341327,N,Y,37.3835017,-79.3055025
MLS Listing,,Single Family Residential,5404 Boonsboro Rd,Lynchburg,VA,24503,429900,3,2.0,Lynchburg,1712,27269,2022,25,251,,Active,,,https://www.redfin.com/VA/Lynchburg/5404-Boonsboro-Rd-24503/home/128792090,LMLS,341155,N,Y,37.446783,-79.251303
MLS Listing,,Townhouse,1177 Fleming Way,Lynchburg,VA,24503,599000,3,2.0,Boonsboro Commons,2400,15246,2022,25,250,325,Active,,,https://www.redfin.com/VA/Lynchburg/1177-Fleming-Way-24503/home/182637165,LMLS,341245,N,Y,37.4536042,-79.2635747
MLS Listing,,Single Family Residential,2315 Link,Lynchburg,VA,24503,649000,4,3.0,Lynchburg,3083,81022,1937,25,211,,Active,,,https://www.redfin.com/VA/Lynchburg/2315-Link-Rd-24503/home/128633963,LMLS,341330,N,Y,37.431698,-79.2001932
MLS Listing,,Townhouse,409 Clays Crossing Dr,Forest,VA,24551,269900,2,2.0,Clays Crossing,1702,1742,1989,26,159,308,Active,,,https://www.redfin.com/VA/Forest/409-Clays-Crossing-Dr-24551/home/122121152,LMLS,341316,N,Y,37.388333,-79.249673
MLS Listing,,Vacant Land,0 Murray Hollow Rd,Montvale,VA,24122,275000,,,Montvale,,4454446,,26,,,Active,,,https://www.redfin.com/VA/Montvale/Murray-Hollow-Rd-24122/home/182614974,LMLS,341303,N,Y,37.400341,-79.672255
MLS Listing,,Vacant Land,0 Thomas Randolph Pl,Lynchburg,VA,24503,72900,,,Landfall,,71569,,27,,,Active,,,https://www.redfin.com/VA/Unknown/Thomas-Randolph-Pl-24503/home/179022070,LMLS,341288,N,Y,37.42735689,-79.1717199
MLS Listing,,Single Family Residential,3636 White Rd,Forest,VA,24551,362000,4,2.5,Saddle Creek,1996,61855,2002,27,181,,Active,,,https://www.redfin.com/VA/FOREST/3636-WHITE-RD-24551/home/122055636,LMLS,341287,N,Y,37.414693,-79.354115
MLS Listing,,Vacant Land,0 Eyrie View Dr,Lynchburg,VA,24503,76900,,,Landfall,,102802,,27,,,Active,,,https://www.redfin.com/VA/Lynchburg/Eyrie-View-Dr-24503/home/179022101,LMLS,341282,N,Y,37.472645,-79.256828
MLS Listing,,Vacant Land,0 Val Terrace Ct,Forest,VA,24551,49900,,,Gilfield Village Sec 2,,60113,,27,,,Active,,,https://www.redfin.com/VA/Forest/Val-Terrace-Ct-24551/home/179628809,LMLS,341078,N,Y,37.413152,-79.304036
MLS Listing,,Vacant Land,0 Gilfield Dr,Forest,VA,24551,55000,,,Gilfield Village Sec 2,,46609,,27,,,Active,,,https://www.redfin.com/VA/Forest/Gilfield-Dr-24551/home/179026574,LMLS,341081,N,Y,37.4130749,-79.31108294
MLS Listing,,Single Family Residential,3814 Fort Ave,Lynchburg,VA,24502,399900,5,3.0,Lynchburg,2342,20038,1920,27,171,,Active,,,https://www.redfin.com/VA/Lynchburg/3814-Fort-Ave-24502/home/128850863,LMLS,341218,N,Y,37.3889566,-79.1730844
MLS Listing,,Single Family Residential,1205 Maple Ave,Buena Vista,VA,24416,52000,2,1.0,Buena Vista,1098,3049,1895,28,47,,Active,,,https://www.redfin.com/VA/Buena-Vista/1205-Maple-Ave-24416/home/68353492,GAAR,636268,N,Y,37.722678,-79.3546631
MLS Listing,,Single Family Residential,14 Two Creek Dr,Lynchburg,VA,24502,834900,5,4.5,Bethel Estates,3471,36678,,28,241,,Active,,,https://www.redfin.com/VA/Lynchburg/14-Two-Creek-Dr-24502/home/182575502,LMLS,341262,N,Y,37.4325175,-79.2558857
MLS Listing,,Single Family Residential,2812 Link Rd,Lynchburg,VA,24503,699900,4,4.5,Lynchburg,5324,390733,1880,28,131,,Active,,,https://www.redfin.com/VA/Lynchburg/2812-Link-Rd-24503/home/128915419,CAAR,636263,N,Y,37.4236322,-79.2059446
MLS Listing,,Multi-Family (2-4 Unit),598 Leesville Rd,Lynchburg,VA,24502,369900,,,Lynchburg,2464,33106,2016,28,150,,Active,,,https://www.redfin.com/VA/Lynchburg/598-Leesville-Rd-24502/home/128779960,LMLS,341258,N,Y,37.352647,-79.2066277
MLS Listing,,Single Family Residential,1229 Boone Hill Dr,Lynchburg,VA,24503,2100000,5,5.0,Lynchburg,8300,102366,2003,28,253,,Active,,,https://www.redfin.com/VA/Lynchburg/1229-Boone-Hill-Dr-24503/home/122137443,CAAR,636254,N,Y,37.4404378,-79.2707277
MLS Listing,,Single Family Residential,1109 Ashley Dr,Lynchburg,VA,24501,224900,3,1.5,Blue Ridge Farms,1223,20517,1962,29,184,,Active,,,https://www.redfin.com/VA/Lynchburg/1109-Ashley-Dr-24501/home/128813755,LMLS,341230,N,Y,37.4151355,-79.2195833
MLS Listing,,Condo/Co-op,1356 Jefferson Way,Forest,VA,24551,325000,2,2.0,Jefferson Villas,1570,4,2007,30,207,344,Active,,,https://www.redfin.com/VA/Forest/1356-Jefferson-Way-24551/home/121999822,LMLS,341058,N,Y,37.356845,-79.2812084
MLS Listing,,Single Family Residential,2831 Gunstock Creek Rd,Bedford,VA,24523,85000,2,1.5,Stone Mtn,780,141134,1960,32,109,,Active,,,https://www.redfin.com/VA/Bedford/2831-Gunstock-Creek-Rd-24523/home/121997223,LMLS,341212,N,Y,37.4921793,-79.4655324
MLS Listing,,Multi-Family (2-4 Unit),2202 Memorial Ave,Lynchburg,VA,24501,169000,,,Lynchburg,2100,3920,1908,32,80,,Active,,,https://www.redfin.com/VA/Lynchburg/2202-Memorial-Ave-24501/home/128867856,LMLS,341199,N,Y,37.406978,-79.164419
MLS Listing,,Vacant Land,0 Goode Station Rd,Goode,VA,24556,70000,,,Murray Farm Subdivision,,28619,,32,,,Active,,,https://www.redfin.com/VA/Goode/Goode-Station-Rd-24556/home/179019697,LMLS,341197,N,Y,37.364155,-79.395576
MLS Listing,,Single Family Residential,1717 Rainbow Forest Dr,Lynchburg,VA,24502,264900,3,1.0,Lynchburg,1325,14810,1962,32,200,,Active,,,https://www.redfin.com/VA/Lynchburg/1717-Rainbow-Forest-Dr-24502/home/123410690,LMLS,341158,N,Y,37.3502766,-79.2505111
MLS Listing,,Single Family Residential,423 Laxton Rd,Lynchburg,VA,24502,249900,3,1.0,Lynchburg,1272,20473,1955,33,196,,Active,,,https://www.redfin.com/VA/Lynchburg/423-Laxton-Rd-24502/home/182520735,LMLS,341166,N,Y,37.34806,-79.2407317
MLS Listing,,Townhouse,542 Leesville Rd #121,Lynchburg,VA,24502,130000,2,1.5,Heritage Court,1120,1324,1989,33,116,200,Active,,,https://www.redfin.com/VA/Lynchburg/542-Leesville-Rd-24502/unit-121/home/128936752,LMLS,340120,N,Y,37.3575314,-79.2087478
MLS Listing,,Single Family Residential,130 Waughs Landing Dr,Lynchburg,VA,24503,529000,3,2.5,Blackwater Run,2126,8712,2022,34,249,13,Active,,,https://www.redfin.com/VA/LYNCHBURG/130-WAUGHS-LANDING-DR-24503/home/176728442,LMLS,341157,N,Y,37.425716,-79.163211
MLS Listing,,Vacant Land,5 Founding Way,Goode,VA,24523,79900,,,Goode,,81457,,34,,,Active,,,https://www.redfin.com/VA/Bedford/5-Founding-Way-Rd-24523/home/179023198,LMLS,341172,N,Y,37.355524,-79.452224
MLS Listing,,Mobile/Manufactured Home,1801 Centerville Rd,Bedford,VA,24523,119900,2,2.0,Bedford,1200,68389,1986,36,100,,Active,,,https://www.redfin.com/VA/Bedford/1801-Centerville-Rd-24523/home/122333821,LMLS,341122,N,Y,37.3704171,-79.4863059
MLS Listing,,Vacant Land,220 Kettering Ln,Lynchburg,VA,24501,225000,,,Old Forest Rd Commercial Corri,,82328,,36,,,Active,,,https://www.redfin.com/VA/Lynchburg/220-Kettering-Ln-24501/home/128927177,LMLS,341113,N,Y,37.4156819,-79.210279
MLS Listing,,Townhouse,2633 Confederate Ave,Lynchburg,VA,24501,290000,4,2.5,Locust Thicket,1660,4792,,36,175,100,Active,,,https://www.redfin.com/VA/Lynchburg/2633-Confederate-Ave-24501/home/180776254,LMLS,341111,N,Y,37.412092,-79.202594
MLS Listing,,Single Family Residential,55 Two Creek Dr,Lynchburg,VA,24502,649900,4,2.5,Bethel Estates,2705,59982,,37,240,,Active,,,https://www.redfin.com/VA/Lynchburg/55-Two-Creek-Dr-24502/home/182455067,LMLS,341068,N,Y,37.4324022,-79.2568244
MLS Listing,,Single Family Residential,154 Marguerite Dr,Lynchburg,VA,24502,479900,5,3.5,Boxwood,2970,15115,2004,39,162,30,Active,,,https://www.redfin.com/VA/Lynchburg/154-Marguerite-Dr-24502/home/128890615,LMLS,341101,N,Y,37.426697,-79.2444762
MLS Listing,,Vacant Land,Wheats Valley Rd,Bedford,VA,24523,139000,,,Bedford,,905612,,39,,,Active,,,https://www.redfin.com/VA/Unknown/Wheats-Valley-Rd-24523/home/179022393,BRIGHT MLS,VABV2000026,N,Y,37.45492,-79.53545
MLS Listing,,Single Family Residential,54 Two Creek Dr,Lynchburg,VA,24502,794900,5,3.5,Bethel Estates,3307,42035,,40,240,,Active,,,https://www.redfin.com/VA/Lynchburg/54-Two-Creek-Dr-24502/home/182400417,LMLS,341057,N,Y,37.4325175,-79.2558857
MLS Listing,,Single Family Residential,314 Euclid Ave,Lynchburg,VA,24501,110000,3,1.5,Miller Park - South,1584,4417,1924,40,69,,Active,,,https://www.redfin.com/VA/Lynchburg/314-Euclid-Ave-24501/home/128590949,LMLS,341061,N,Y,37.4009238,-79.1669122
MLS Listing,,Single Family Residential,12 Whispering Springs Ct,Forest,VA,24551,679900,4,3.5,Farmington At Forest Sec 5,2954,23958,,40,230,,Active,,,https://www.redfin.com/VA/Forest/12-Whispering-Springs-Ct-24551/home/182392174,LMLS,341051,N,Y,37.387072,-79.31292
MLS Listing,,Single Family Residential,3116 Hill St,Lynchburg,VA,24501,188000,4,1.5,Broadway,2150,29677,1900,40,87,,Active,,,https://www.redfin.com/VA/Lynchburg/3116-Hill-St-24501/home/128850217,LMLS,340999,N,Y,37.4067687,-79.1878079
MLS Listing,,Single Family Residential,2016 Pansy St,Lynchburg,VA,24503,229900,4,1.5,Bedford Ave,1820,2701,1908,40,126,,Active,,,https://www.redfin.com/VA/Lynchburg/2016-Pansy-St-24503/home/128718367,LMLS,341045,N,Y,37.4329049,-79.161886
MLS Listing,,Single Family Residential,138 Waughs Landing Dr,Lynchburg,VA,24503,529900,3,2.5,Blackwater Run,2100,12197,2022,41,252,13,Active,,,https://www.redfin.com/VA/LYNCHBURG/138-WAUGHS-LANDING-DR-24503/home/176728440,LMLS,341034,N,Y,37.425403,-79.163082
MLS Listing,,Single Family Residential,3708 Manton Dr,Lynchburg,VA,24503,390000,4,3.0,Peakland,1458,27195,1969,41,267,,Active,,,https://www.redfin.com/VA/Lynchburg/3708-Manton-Dr-24503/home/128702166,LMLS,341019,N,Y,37.4324701,-79.196491
MLS Listing,,Mobile/Manufactured Home,157 White Pine Dr,Monroe,VA,24574,129900,2,1.0,Monroe,868,327833,1981,42,150,,Active,,,https://www.redfin.com/VA/Monroe/157-White-Pine-Dr-24574/home/101405254,LMLS,341013,N,Y,37.6390454,-79.2786302
MLS Listing,,Vacant Land,0 Wycliffe St,Bedford,VA,24523,48500,,,Bedford,,89298,,42,,,Active,,,https://www.redfin.com/VA/Unknown/Wycliffe-St-24523/home/179022224,LMLS,341024,N,Y,37.36091713,-79.51730164
MLS Listing,,Vacant Land,228 Heffernan St,Lynchburg,VA,24501,9100,,,Dearington Park,,8102,,43,,,Active,,,https://www.redfin.com/VA/Lynchburg/228-Heffernan-St-24501/home/128635174,LMLS,340959,N,Y,37.4128025,-79.1602861
MLS Listing,,Vacant Land,1422 1st St,Lynchburg,VA,24501,5200,,,Dearington Park,,2431,,43,,,Active,,,https://www.redfin.com/VA/Lynchburg/1422-1st-St-24501/home/128905470,LMLS,340949,N,Y,37.4145777,-79.1608102
MLS Listing,,Single Family Residential,109 Averill Ct,Lynchburg,VA,24501,269000,3,2.0,Turtle Creek & New Towne,1420,10542,2000,43,189,2,Active,,,https://www.redfin.com/VA/Lynchburg/109-Averill-Ct-24501/home/128615345,LMLS,341003,N,Y,37.3880967,-79.2063963
MLS Listing,,Single Family Residential,1118 Carnegie Pl,Forest,VA,24551,899900,4,3.5,Burnbrae,3115,44431,2022,44,289,5,Active,,,https://www.redfin.com/VA/Forest/1118-Carnegie-Pl-24551/home/182337291,LMLS,340996,N,Y,37.3853861,-79.2636098
MLS Listing,,Vacant Land,0 Abert Rd,Lynchburg,VA,24503,99500,,,Lynchburg,,283401,,46,,93,Active,,,https://www.redfin.com/VA/Unknown/Abert-Rd-24503/home/179023834,LMLS,340981,N,Y,37.49372033,-79.24241861
MLS Listing,,Single Family Residential,503 Sweeney Cir,Forest,VA,24551,259900,3,2.0,Forest,1008,24394,1980,47,258,,Active,,,https://www.redfin.com/VA/Forest/503-Sweeney-Cir-24551/home/122082358,LMLS,340702,N,Y,37.3598242,-79.2618186
MLS Listing,,Single Family Residential,1309 Cherokee Ave,Lynchburg,VA,24502,224900,3,2.0,Fort Hill - East,1574,9727,1952,47,143,,Active,,,https://www.redfin.com/VA/Lynchburg/1309-Cherokee-Ave-24502/home/128718655,LMLS,340973,N,Y,37.3840194,-79.1763467
MLS Listing,,Mobile/Manufactured Home,173 Crab Creek Rd,Monroe,VA,24574,189900,3,2.0,Monroe,1144,56323,1996,47,166,,Active,,,https://www.redfin.com/VA/Monroe/173-Crab-Creek-Rd-24574/home/101416258,LMLS,340946,N,Y,37.514563,-79.2258843
MLS Listing,,Single Family Residential,1408 Tilden Ave,Lynchburg,VA,24501,110000,3,1.0,Lynchburg,1010,5663,1937,48,109,,Active,,,https://www.redfin.com/VA/Lynchburg/1408-Tilden-Ave-24501/home/128619715,LMLS,340643,N,Y,37.3997019,-79.1572564
MLS Listing,,Single Family Residential,10 Whispering Springs Ct,Forest,VA,24551,729900,4,3.5,Farmington At Forest Sec 5,3226,21344,,49,226,,Active,,,https://www.redfin.com/VA/Forest/10-Whispering-Springs-Ct-24551/home/182267726,LMLS,340926,N,Y,37.38685,-79.31365
MLS Listing,,Single Family Residential,5600 White Oak Dr,Lynchburg,VA,24502,299900,5,3.0,Lynchburg,1280,15551,1958,49,234,,Active,,,https://www.redfin.com/VA/Lynchburg/5600-White-Oak-Dr-24502/home/128644198,LMLS,340739,N,Y,37.3733424,-79.1862651
MLS Listing,,Single Family Residential,84 Clopton Ct,Lynchburg,VA,24503,469000,3,2.5,The Preserve At Oakwood,2500,7405,2022,49,188,350,Active,,,https://www.redfin.com/VA/Lynchburg/84-Clopton-Ct-24503/home/173372547,LMLS,340895,N,Y,37.4347844,-79.191871
MLS Listing,,Single Family Residential,203 St Paul Dr,Lynchburg,VA,24503,270000,2,2.0,Lynchburg,1940,5663,1985,50,139,250,Active,,,https://www.redfin.com/VA/Lynchburg/203-St-Paul-Dr-24503/home/122067893,LMLS,340893,N,Y,37.4478053,-79.2555076
MLS Listing,,Vacant Land,0 Big Maple Dr,Forest,VA,24551,125000,,,Meadow Wood,,157687,,53,,63,Active,,,https://www.redfin.com/VA/Forest/Big-Maple-Dr-24551/home/179665900,LMLS,340868,N,Y,37.3579845,-79.3109237
MLS Listing,,Single Family Residential,1025 S Macfarlane Ct,Forest,VA,24551,510000,4,4.5,Burnbrae,2972,34848,2002,53,172,5,Active,,,https://www.redfin.com/VA/Forest/1025-S-MacFarlane-Ct-24551/home/121998007,LMLS,340714,N,Y,37.3886219,-79.2648536
MLS Listing,,Single Family Residential,304 Two Creek Dr,Lynchburg,VA,24503,775000,5,4.0,Bethel Estates,3100,31363,2022,53,250,,Active,,,https://www.redfin.com/VA/Lynchburg/304-Two-Creek-Dr-24502/home/128846510,LMLS,340857,N,Y,37.43691,-79.262341
MLS Listing,,Single Family Residential,340 Clan Alpine Way,Glasgow,VA,24555,255000,4,2.0,Clan Alpine Heights,2306,403801,2000,54,111,,Active,,,https://www.redfin.com/VA/Glasgow/340-Clan-Alpine-Way-24555/home/68530582,GAAR,635463,N,Y,37.6511051,-79.4423723
MLS Listing,,Single Family Residential,2690 Trents Ferry Rd,Lynchburg,VA,24503,995000,4,4.5,Lynchburg,2863,733550,1995,54,348,,Active,,,https://www.redfin.com/VA/Lynchburg/2690-Trents-Ferry-Rd-24503/home/122398568,LMLS,340807,N,Y,37.4666318,-79.2327575
MLS Listing,,Mobile/Manufactured Home,2607 River Rd,Madison Heights,VA,24572,179000,3,2.0,Madison Heights,1848,97531,1990,54,97,,Active,,,https://www.redfin.com/VA/Madison-Heights/2607-River-Rd-24572/home/101408888,LMLS,340282,N,Y,37.491222,-79.1794766
MLS Listing,,Vacant Land,0 Walnut Hollow Rd,Lynchburg,VA,24503,25000,,,Lynchburg,,48787,,55,,,Active,,,https://www.redfin.com/VA/Lynchburg/Walnut-Hollow-Rd-24503/home/179022353,LMLS,340824,N,Y,37.452377,-79.279106
MLS Listing,,Vacant Land,0 Hollymeade Ln,Daleville,VA,24083,89950,,,Hollymeade,,49049,,55,,,Active,,,https://www.redfin.com/VA/DALEVILLE/HOLLYMEADE-LN-24083/home/122811820,LMLS,340828,N,Y,37.424109,-79.924981
MLS Listing,,Single Family Residential,31 Rainbow Cir,Lynchburg,VA,24501,294900,3,2.5,Stonehaven,1354,5358,2022,55,218,25,Active,,,https://www.redfin.com/VA/Lynchburg/31-Rainbow-Cir-24501/home/182134250,LMLS,340820,N,Y,37.4191307,-79.2052817
MLS Listing,,Single Family Residential,29 Rainbow Cir,Lynchburg,VA,24501,279900,3,2.5,Stonehaven,1354,4487,2022,55,207,25,Active,,,https://www.redfin.com/VA/Lynchburg/29-Rainbow-Cir-24501/home/182134148,LMLS,340819,N,Y,37.4191307,-79.2052817
MLS Listing,,Single Family Residential,415 Meadowridge Dr,Lynchburg,VA,24503,389900,5,4.0,Lynchburg,1888,57499,1987,55,207,,Active,,,https://www.redfin.com/VA/Lynchburg/415-Meadowridge-Dr-24503/home/121992245,LMLS,340759,N,Y,37.4643958,-79.2690541
MLS Listing,,Single Family Residential,21 Wild Fox Ct,Lynchburg,VA,24503,449950,3,2.0,Boonsboro Meadows,2049,13068,2022,57,220,15,Active,,,https://www.redfin.com/VA/Lynchburg/21-Wild-Fox-CT-24503/home/179020068,LMLS,340779,N,Y,37.427979,-79.2649
MLS Listing,,Vacant Land,111 Two Creek Dr,Lynchburg,VA,24502,64900,,,Bethel Estates,,21388,,57,,,Active,,,https://www.redfin.com/VA/Lynchburg/111-Two-Creek-Dr-24502/home/128740910,LMLS,340773,N,Y,37.433942,-79.258078
MLS Listing,,Single Family Residential,5 Cottontown Rd,Forest,VA,24551,419900,3,2.5,Forest,1783,98881,2022,57,236,,Active,,,https://www.redfin.com/VA/Forest/5-Cottontown-Rd-Unknown/home/181614874,LMLS,340766,N,Y,37.396414,-79.269554
MLS Listing,,Single Family Residential,1082 Jefferson Meadows Dr,Forest,VA,24551,494950,3,3.0,Jefferson Meadows,2346,77972,,60,211,,Active,,,https://www.redfin.com/VA/Forest/1082-Jefferson-Meadows-Dr-24551/home/182043617,LMLS,340744,N,Y,37.3491686,-79.3474129
MLS Listing,,Townhouse,1810 Broadway St #201,Lynchburg,VA,24501,194900,3,2.5,Terrace Brook Townhomes,1280,2614,2008,60,152,140,Active,,,https://www.redfin.com/VA/Lynchburg/1810-Broadway-St-24501/unit-201/home/128619514,LMLS,339670,N,Y,37.409551,-79.183424
MLS Listing,,Single Family Residential,26 Elk Creek Rd,Forest,VA,24551,514950,3,3.5,Jefferson Meadows,2575,101930,,61,200,,Active,,,https://www.redfin.com/VA/Unknown/26-Elk-Creek-Rd-24551/home/182028182,LMLS,340736,N,Y,37.3483809,-79.3492574
MLS Listing,,Single Family Residential,1095 Jefferson Meadows Dr,Forest,VA,24551,564950,4,2.5,Jefferson Meadows,2879,33106,,61,196,,Active,,,https://www.redfin.com/VA/Forest/1095-Jefferson-Meadows-Dr-24551/home/182023450,LMLS,340735,N,Y,37.3500363,-79.3472983
MLS Listing,,Vacant Land,1192 Elon Rd,Madison Heights,VA,24572,150000,,,Madison Heights,,217800,,64,,,Active,,,https://www.redfin.com/VA/Madison-Heights/1192-Elon-Rd-24572/home/101399609,LMLS,340681,N,Y,37.4838266,-79.1597069
MLS Listing,,Vacant Land,1168 Elon Rd,Madison Heights,VA,24572,175000,,,Madison Heights,,338026,,64,,,Active,,,https://www.redfin.com/VA/Madison-Heights/1168-Elon-Rd-24572/home/101405679,LMLS,340620,N,Y,37.4825604,-79.1597255
MLS Listing,,Single Family Residential,3 Brewington Dr,Forest,VA,24551,479900,4,2.5,Forest,2114,8276,2022,67,227,40,Active,,,https://www.redfin.com/VA/Forest/3-Brewington-Dr-24551/home/179808921,LMLS,340644,N,Y,37.38380102,-79.30810338
MLS Listing,,Single Family Residential,260 Mountain Crest Ln,Monroe,VA,24574,345000,3,2.0,Cloudcroft Farms Revised,1721,435600,1998,69,200,,Active,,,https://www.redfin.com/VA/Monroe/260-Mountain-Crest-Ln-24574/home/101404651,LMLS,340563,N,Y,37.5249316,-79.2294969
MLS Listing,,Single Family Residential,1199 Harborough Dr,Forest,VA,24551,529900,4,3.0,Farmington At Forest Sec 9,2540,8276,2022,71,209,52,Active,,,https://www.redfin.com/VA/Forest/1199-Harborough-Dr-24551/home/181857832,LMLS,340469,N,Y,37.3828283,-79.308792
MLS Listing,,Single Family Residential,1011 Wolf Pt,Big Island,VA,24526,219000,2,2.0,Big Island,1164,49223,1983,71,188,,Active,,,https://www.redfin.com/VA/Big-Island/1011-Wolf-Point-Dr-24526/home/122258567,LMLS,340530,N,Y,37.5223245,-79.3886361
MLS Listing,,Single Family Residential,108 Waterview Cir,Forest,VA,24551,479900,5,4.0,Forest,1855,12197,1994,71,259,80,Active,,,https://www.redfin.com/VA/Forest/108-Waterview-Cir-24551/home/122046680,LMLS,340503,N,Y,37.3891966,-79.2573826
MLS Listing,,Single Family Residential,1061 Bradford Crossing Pl,Goode,VA,24556,429900,3,2.0,Bradford Crossing,1850,20909,2022,74,232,,Active,,,https://www.redfin.com/VA/Goode/1061-Bradford-Crossing-Pl-24556/home/181813834,LMLS,340547,N,Y,37.3677897,-79.394002
MLS Listing,,Single Family Residential,1940 N Coffee Rd,Lynchburg,VA,24503,1300000,3,3.0,Lynchburg,2940,4858247,2009,74,442,,Active,,,https://www.redfin.com/VA/Lynchburg/1940-Coffee-Rd-24503/home/179022571,LMLS,340468,N,Y,37.4324832,-79.2829259
MLS Listing,,Single Family Residential,1189 Farmington Dr,Forest,VA,24551,540000,7,3.0,Farmington at Forest,2168,23522,2012,74,249,,Active,,,https://www.redfin.com/VA/Forest/1189-Farmington-Dr-24551/home/122238422,LMLS,340522,N,Y,37.3851243,-79.3126443
MLS Listing,,Single Family Residential,1589 Deer Hollow Rd,Forest,VA,24551,1449900,4,5.5,Brookstone Estates,4458,149411,2015,75,325,25,Active,,,https://www.redfin.com/VA/Forest/1589-Deer-Hollow-Rd-24551/home/122104969,LMLS,340457,N,Y,37.3566053,-79.3225383
MLS Listing,,Single Family Residential,1066 Greyledge Rd,Buchanan,VA,24066,6950000,7,7.0,Buchanan,12474,32205214,1842,75,557,,Active,,,https://www.redfin.com/VA/Buchanan/1066-Greyledge-Rd-24066/home/181788320,CAAR,634509,N,Y,37.5726936,-79.6667217
MLS Listing,,Single Family Residential,6 Elliots Way,Bedford,VA,24523,349900,3,2.0,Bedford,1472,45738,2022,76,238,,Active,,,https://www.redfin.com/VA/Unknown/6-Elliots-Way-24523/home/181765621,LMLS,340502,N,Y,37.3697666,-79.4712094
MLS Listing,,Single Family Residential,106 Two Creek Dr,Lynchburg,VA,24502,1100000,4,3.0,Bethel Estates,4188,729151,1983,77,263,,Active,,,https://www.redfin.com/VA/Lynchburg/106-Two-Creek-Dr-24502/home/128740899,LMLS,339863,N,Y,37.433999,-79.2566779
MLS Listing,,Single Family Residential,16 Wild Fox Ct,Lynchburg,VA,24503,510950,4,2.5,Boonsboro Meadows,2910,16117,2023,78,176,15,Active,,,https://www.redfin.com/VA/Lynchburg/16-Wild-Fox-CT-24503/home/179892496,LMLS,340317,N,Y,37.427801,-79.266468
MLS Listing,,Single Family Residential,4656 Hartford St,Lynchburg,VA,24502,295000,4,2.5,Fort Hill - East,1634,27007,,78,181,,Active,,,https://www.redfin.com/VA/Lynchburg/4656-Hartford-St-24502/home/128817497,LMLS,340446,N,Y,37.379074,-79.174558
MLS Listing,,Townhouse,31 North Westyn Loop,Forest,VA,24551,379900,3,2.5,Westyn Village,2168,2178,,81,175,150,Active,,,https://www.redfin.com/VA/Forest/31-North-Westyn-LOOP-Unknown/home/181645000,LMLS,340436,N,Y,37.3637534,-79.289749
MLS Listing,,Townhouse,32 North Westyn Loop,Forest,VA,24551,439900,4,3.5,Westyn Village,2448,3920,,81,180,150,Active,,,https://www.redfin.com/VA/Forest/32-North-Westyn-LOOP-Unknown/home/181644896,LMLS,340435,N,Y,37.3637534,-79.289749
MLS Listing,,Vacant Land,127 Courtney Springs Dr,Lynchburg,VA,24503,95000,,,Blackwater Run,,9975,,81,,13,Active,,,https://www.redfin.com/VA/LYNCHBURG/127-COURTNEY-SPRINGS-DR-24503/home/176728467,LMLS,340432,N,Y,37.424057,-79.167236
MLS Listing,,Vacant Land,110 Courtney Springs Dr,Lynchburg,VA,24503,95000,,,Blackwater Run,,8625,,81,,13,Active,,,https://www.redfin.com/VA/LYNCHBURG/110-COURTNEY-SPRINGS-DR-24503/home/176728457,LMLS,340419,N,Y,37.424322,-79.16604
MLS Listing,,Vacant Land,921 Elmwood Ave,Lynchburg,VA,24503,95000,,,Blackwater Run,,10106,,81,,13,Active,,,https://www.redfin.com/VA/Lynchburg/921-Elmwood-Ave-24503/home/176728481,LMLS,340420,N,Y,37.4231871,-79.1663653
MLS Listing,,Vacant Land,110 Runway Ct,Lynchburg,VA,24503,85000,,,Blackwater Run,,6926,,81,,13,Active,,,https://www.redfin.com/VA/LYNCHBURG/110-RUNWAY-CT-24503/home/176728396,LMLS,340418,N,Y,37.425581,-79.166046
MLS Listing,,Vacant Land,603 Elmwood Ave,Lynchburg,VA,24503,90000,,,Blackwater Run,,16727,,81,,13,Active,,,https://www.redfin.com/VA/Lynchburg/603-Elmwood-Ave-24503/home/176728392,LMLS,340417,N,Y,37.426181,-79.165426
MLS Listing,,Single Family Residential,316 Atlanta Ave,Lynchburg,VA,24502,249900,3,1.0,Lynchburg,865,18165,1959,81,289,,Active,,,https://www.redfin.com/VA/Lynchburg/316-Atlanta-Ave-24502/home/128598613,LMLS,340405,N,Y,37.3506831,-79.1911137
MLS Listing,,Vacant Land,3817 Cambria St,Lynchburg,VA,24502,69000,,,Fort Hill - North,,13809,,83,,,Active,,,https://www.redfin.com/VA/Lynchburg/3817-Cambria-St-24502/home/128724501,LMLS,340391,N,Y,37.386911,-79.170929
MLS Listing,,Vacant Land,1029 Lindsay St,Lynchburg,VA,24502,25000,,,Lynchburg,,16814,,83,,,Active,,,https://www.redfin.com/VA/Lynchburg/1029-Lindsay-St-24502/home/181487741,LMLS,340325,N,Y,37.379664,-79.1880736
MLS Listing,,Vacant Land,1033 Lindsay St,Lynchburg,VA,24502,25000,,,Lynchburg,,15943,,83,,,Active,,,https://www.redfin.com/VA/Lynchburg/1033-Lindsay-St-24502/home/181487740,LMLS,340326,N,Y,37.3796325,-79.1880549
MLS Listing,,Vacant Land,1037 Lindsay St,Lynchburg,VA,24502,22000,,,Lynchburg,,17424,,83,,,Active,,,https://www.redfin.com/VA/Lynchburg/1037-Lindsay-St-24502/home/181487739,LMLS,340327,N,Y,37.3796018,-79.1880365
MLS Listing,,Vacant Land,11 Lot 11 Ashwood Park,Forest,VA,24551,650000,,,Wood,,80586,,84,,,Active,,,https://www.redfin.com/VA/Forest/11-Ashwood-Park-Rd-24551/home/179164116,LMLS,337612,N,Y,37.37098244,-79.30883245
MLS Listing,,Single Family Residential,3892 Otterville Rd,Bedford,VA,24523,396900,3,3.0,Bedford,1448,174240,2007,88,274,,Active,,,https://www.redfin.com/VA/Bedford/3892-Otterville-Rd-24523/home/181417546,LMLS,340239,N,Y,37.4214933,-79.4430961
MLS Listing,,Single Family Residential,1588 Patterson Mill Road Rd,Bedford,VA,24523,849900,2,1.0,Bedford,1235,2424985,1969,89,688,,Active,,,https://www.redfin.com/VA/Bedford/1588-Patterson-Mill-Rd-24523/home/180454915,BRIGHT MLS,VABV2000018,N,Y,37.348784,-79.5711989
MLS Listing,,Vacant Land,0 Chestnut Grove Dr,Forest,VA,24551,350000,,,Forest,,435600,,89,,,Active,,,https://www.redfin.com/VA/Forest/Chestnut-Grove-Dr-24551/home/180695750,LMLS,339616,N,Y,37.389791,-79.330247
MLS Listing,,Vacant Land,2400 L St,Lynchburg,VA,24503,45000,,,Randolph College Area,,42157,,91,,,Active,,,https://www.redfin.com/VA/Lynchburg/2400-L-St-24503/home/128625053,LMLS,340247,N,Y,37.430924,-79.173591
MLS Listing,,Single Family Residential,414 Norfolk Ave,Lynchburg,VA,24503,329900,3,3.0,Randolph College Area,1680,29621,1929,91,196,,Active,,,https://www.redfin.com/VA/Lynchburg/414-Norfolk-Ave-24503/home/128703372,LMLS,340246,N,Y,37.4317489,-79.1743629
MLS Listing,,Single Family Residential,2770 Elon Rd,Monroe,VA,24574,1450000,4,4.5,Monroe,13090,766656,1942,91,111,,Active,,,https://www.redfin.com/VA/Monroe/2770-Elon-Rd-24574/home/101414656,BRIGHT MLS,VAAH2000010,N,Y,37.5266688,-79.2028596
MLS Listing,,Single Family Residential,4507 Oakdale Dr,Lynchburg,VA,24502,235000,5,2.0,Perrymont,1241,9714,1956,93,189,,Active,,,https://www.redfin.com/VA/Lynchburg/4507-Oakdale-Dr-24502/home/128858755,LMLS,340040,N,Y,37.3905542,-79.1893397
MLS Listing,,Townhouse,1064 Brownstone Ln,Forest,VA,24551,324500,3,2.5,Farmington At Forest Sec 1,1565,2614,2022,94,207,156,Active,,,https://www.redfin.com/VA/Forest/1064-Brownstone-LN-Unknown/home/179024687,LMLS,337487,N,Y,37.36326212,-79.25345352
MLS Listing,,Single Family Residential,1609 Lexington Dr,Lynchburg,VA,24503,559500,3,3.0,Lynchburg,1778,28750,2021,95,315,,Active,,,https://www.redfin.com/VA/Lynchburg/1609-Lexington-Dr-24503/home/128824372,LMLS,338350,N,Y,37.451036,-79.214459
MLS Listing,,Single Family Residential,1126 Anderson St,Glasgow,VA,24555,199950,4,2.0,,1000,7492,1969,96,200,,Active,,,https://www.redfin.com/VA/Glasgow/1126-Anderson-St-24555/home/68533948,CVRMLS,2223946,N,Y,37.6316674,-79.4564788
MLS Listing,,Single Family Residential,10630 Lee Jackson Hwy,Big Island,VA,24526,229900,5,3.0,Big Island,2112,65340,1880,98,109,,Active,,,https://www.redfin.com/VA/Big-Island/10630-Lee-Jackson-Hwy-24526/home/181230982,LMLS,340152,N,Y,37.5321682,-79.359118
MLS Listing,,Single Family Residential,3038 Fulton St,Lynchburg,VA,24501,294900,3,2.5,Lynchburg,1546,4051,2022,98,191,25,Active,,,https://www.redfin.com/VA/Lynchburg/3038-Fulton-St-24501/home/128737665,LMLS,340148,N,Y,37.4180525,-79.2054673
MLS Listing,,Ranch,16620 Lee Hwy,Buchanan,VA,24066,1300000,5,6.0,Buchanan,6118,1655280,1986,102,212,,Active,,,https://www.redfin.com/VA/Buchanan/16620-Lee-Hwy-24066/home/122743390,CAAR,633915,N,Y,37.5021468,-79.7248045
MLS Listing,,Single Family Residential,4657 Alabama Ave,Lynchburg,VA,24502,126000,3,2.0,Perrymont,1413,9017,1955,103,89,,Active,,,https://www.redfin.com/VA/Lynchburg/4657-Alabama-Ave-24502/home/128752600,LMLS,340070,N,Y,37.3863373,-79.1912019
MLS Listing,,Single Family Residential,316 Longhill Rd,Goode,VA,24556,578000,5,4.0,Goode,2819,110642,1998,108,205,,Active,,,https://www.redfin.com/VA/Goode/316-Longhill-Rd-24556/home/122086879,LMLS,339989,N,Y,37.3732224,-79.4080751
MLS Listing,,Vacant Land,0 Perennial Ln,Goode,VA,24556,34900,,,Goode,,87556,,109,,,Active,,,https://www.redfin.com/VA/Unknown/Perennial-Ln-24556/home/179022142,LMLS,336786,N,Y,37.35729009,-79.40012149
MLS Listing,,Single Family Residential,143 Sailview Dr,Forest,VA,24551,428900,4,3.5,IVY HILL,2540,30928,1990,111,169,21,Active,,,https://www.redfin.com/VA/Forest/143-Sailview-Dr-24551/home/122160855,LMLS,339693,N,Y,37.3998761,-79.3065693
MLS Listing,,Vacant Land,0 Wares Gap Rd,Monroe,VA,24574,49900,,,Grants Hollow,,348219,,111,,,Active,,,https://www.redfin.com/VA/Monroe/Wares-Gap-Rd-24574/home/179024104,LMLS,339919,N,Y,37.605715,-79.168188
MLS Listing,,Single Family Residential,411 Hood St,Lynchburg,VA,24501,100000,3,1.0,Lynchburg,1208,27007,1915,116,83,,Active,,,https://www.redfin.com/VA/Lynchburg/411-Hood-St-24501/home/128796668,LMLS,339812,N,Y,37.4020513,-79.1786831
MLS Listing,,Townhouse,41 Grandset Dr,Forest,VA,24551,429900,3,3.0,"Ivalace, LLC",2140,5663,2022,118,201,225,Active,,,https://www.redfin.com/VA/Forest/41-Grandset-Dr-24551/home/179019717,LMLS,339821,N,Y,37.392796,-79.324188
MLS Listing,,Vacant Land,9 Gilliam Ct,Forest,VA,24551,45900,,,Cobbs Corner,,21780,,122,,10,Active,,,https://www.redfin.com/VA/Forest/9-Gilliam-Ct-24551/home/180756192,LMLS,339722,N,Y,37.401324,-79.302385
MLS Listing,,Vacant Land,0 Kitsmont,Forest,VA,24551,100000,,,Kitsmont,,56889,,124,,42,Active,,,https://www.redfin.com/VA/Forest/Kitsmont-Unknown/home/180703955,LMLS,339683,N,Y,37.3637534,-79.289749
MLS Listing,,Multi-Family (5+ Unit),2107 Park Ave. & 812 Stuart St,Lynchburg,VA,24501,250000,,,Commercial Misc,2800,11935,1908,125,89,,Active,,,https://www.redfin.com/VA/Lynchburg/2107-Park-Ave-24501/home/128805093,LMLS,339656,N,Y,37.4047801,-79.16183
MLS Listing,,Vacant Land,1 Bellevue Terrace Ln,Forest,VA,24551,64500,,,Bellevue Terrace,,69260,,130,,,Active,,,https://www.redfin.com/VA/Forest/1-Bellevue-Rd-Unknown/home/179020169,LMLS,339564,N,Y,37.368552,-79.375807
MLS Listing,,Single Family Residential,6030 Edgewood Ave,Lynchburg,VA,24502,220800,3,1.5,,1803,12606,1965,131,122,,Active,,,https://www.redfin.com/VA/Lynchburg/6030-Edgewood-Ave-24502/home/128770369,CVRMLS,2220652,N,Y,37.3694641,-79.1947721
MLS Listing,,Single Family Residential,788 Bunker Hill Mill Rd,Lexington,VA,24450,456000,4,3.0,Lexington,3482,130680,1995,132,131,,Active,,,https://www.redfin.com/VA/Lexington/788-Bunker-Hill-Mill-Rd-24450/home/68541070,GAAR,632933,N,Y,37.7190219,-79.4400783
MLS Listing,,Vacant Land,914 Elmwood Avenue Ave,Lynchburg,VA,24503,105000,,,Blackwater Run,,10106,,141,,,Active,,,https://www.redfin.com/VA/Lynchburg/914-Elmwood-Ave-24503/home/176728497,LMLS,339365,N,Y,37.4231125,-79.1654588
MLS Listing,,Vacant Land,Blue Ridge Ln,Monroe,VA,24574,34900,,,Otter Creek,,217800,,146,,,Active,,,https://www.redfin.com/VA/MONROE/BLUE-RIDGE-LN-24574/home/101402298,SCAR,49007,N,Y,37.56167,-79.302887
MLS Listing,,Single Family Residential,311 St. Augustine St,Lynchburg,VA,24501,210000,3,2.0,Miller Park - South,1560,6024,1925,153,135,,Active,,,https://www.redfin.com/VA/Lynchburg/311-St-Augustine-St-24501/home/128660502,LMLS,339175,N,Y,37.3992393,-79.1651928
MLS Listing,,Vacant Land,11 Snowfield Cir,Lynchburg,VA,24503,119900,,,BOONSBORO MEADOWS,,11587,,153,,15,Active,,,https://www.redfin.com/VA/Lynchburg/11-Snowfield-CIR-24503/home/180252621,LMLS,339132,N,Y,37.427434,-79.262924
MLS Listing,,Vacant Land,10 Snowfield Cir,Lynchburg,VA,24503,119900,,,BOONSBORO MEADOWS,,11456,,153,,15,Active,,,https://www.redfin.com/VA/Lynchburg/10-Snowfield-CIR-24503/home/180252620,LMLS,339131,N,Y,37.426922,-79.26198
MLS Listing,,Vacant Land,9 Snowfield Cir,Lynchburg,VA,24503,119900,,,BOONSBORO MEADOWS,,11195,,153,,15,Active,,,https://www.redfin.com/VA/Lynchburg/9-Snowfield-CIR-24503/home/180252619,LMLS,339130,N,Y,37.427911,-79.265585
MLS Listing,,Vacant Land,11 Boonsboro Meadows Dr,Lynchburg,VA,24503,119900,,,BOONSBORO MEADOWS,,14593,,153,,15,Active,,,https://www.redfin.com/VA/Lynchburg/11-Boonsboro-Meadows-Dr-24503/home/182589358,LMLS,339135,N,Y,37.428177,-79.262238
MLS Listing,,Vacant Land,12 Snowfield Cir,Lynchburg,VA,24503,119900,,,BOONSBORO MEADOWS,,10019,,153,,15,Active,,,https://www.redfin.com/VA/Lynchburg/12-Snowfield-CIR-24503/home/180252549,LMLS,339133,N,Y,37.427706,-79.263267
MLS Listing,,Vacant Land,13 Snowfield Cir,Lynchburg,VA,24503,119900,,,BOONSBORO MEADOWS,,10019,,153,,15,Active,,,https://www.redfin.com/Unknown/Troy/13-13th-ST-Unknown/home/147994597,LMLS,339134,N,Y,37.427979,-79.263954
MLS Listing,,Vacant Land,535 Old Trents Ferry Rd,Lynchburg,VA,24503,90000,,,Oak Grove Place,,66211,,155,,,Active,,,https://www.redfin.com/VA/Lynchburg/535-Old-Trents-Ferry-Rd-24503/home/180188076,LMLS,339127,N,Y,37.4628546,-79.1938275
MLS Listing,,Single Family Residential,902 Old Graves Ml,Lynchburg,VA,24502,325000,4,2.0,Lynchburg,1708,66647,1925,160,190,,Active,,,https://www.redfin.com/VA/Lynchburg/902-Old-Graves-Mill-Rd-24502/home/128618571,LMLS,339037,N,Y,37.366865,-79.2261927
MLS Listing,,Vacant Land,0 Coffee Rd,Lynchburg,VA,24503,277000,,,Coffee Road Estates,,1586455,,160,,,Active,,,https://www.redfin.com/VA/Lynchburg/Coffee-Rd-24503/home/179022508,LMLS,339033,N,Y,37.435169,-79.276016
MLS Listing,,Single Family Residential,2301 Rivermont Ave,Lynchburg,VA,24503,979000,4,3.0,Lynchburg,3940,27399,1912,165,248,,Active,,,https://www.redfin.com/VA/Lynchburg/2301-Rivermont-Ave-24503/home/173372343,LMLS,338929,N,Y,37.4365022,-79.1664714
MLS Listing,,Single Family Residential,1077 N Fork Rd,Amherst,VA,24521,649900,1,,Amherst,600,3315482,1900,166,1083,,Active,,,https://www.redfin.com/VA/Amherst/1077-N-Fork-Rd-24521/home/101413920,LMLS,338914,N,Y,37.7018806,-79.2041963
MLS Listing,,Single Family Residential,17 Wild Fox Ct,Lynchburg,VA,24503,470950,4,3.0,BOONSBORO MEADOWS,2346,13068,2023,168,201,15,Active,,,https://www.redfin.com/VA/Lynchburg/17-Wild-Fox-CT-24503/home/179892890,LMLS,338812,N,Y,37.427818,-79.266414
MLS Listing,,Single Family Residential,18 Wild Fox Ct,Lynchburg,VA,24503,460950,3,2.0,Boonsboro Meadows,2049,13068,2023,168,225,15,Active,,,https://www.redfin.com/VA/Lynchburg/18-Wild-Fox-CT-24503/home/179892887,LMLS,338811,N,Y,37.427908,-79.26654
MLS Listing,,Single Family Residential,15 Wild Fox Ct,Lynchburg,VA,24503,510950,4,2.5,Boonsboro Meadows,2910,16117,2023,168,176,15,Active,,,https://www.redfin.com/VA/Lynchburg/15-Wild-Fox-CT-24503/home/179892492,LMLS,338814,N,Y,37.428005,-79.266562
MLS Listing,,Townhouse,94 Titleist Dr,Forest,VA,24551,459900,3,2.0,Ivalace by The Greens,2400,8712,,169,192,225,Active,,,https://www.redfin.com/VA/Forest/94-Titleist-Dr-24551/home/179024497,LMLS,338828,N,Y,37.3930719,-79.3246829
MLS Listing,,Single Family Residential,6 Lochwood Hill Dr,Goode,VA,24556,429950,3,2.5,Lochwood,2204,31799,,172,195,15,Active,,,https://www.redfin.com/VA/Goode/6-Lochwood-Hill-Dr-24556/home/179024231,LMLS,336499,N,Y,37.370232,-79.39492
MLS Listing,,Single Family Residential,5 Lochwood Hill Dr,Goode,VA,24556,429950,3,2.5,Lochwood,2131,43560,,172,202,15,Active,,,https://www.redfin.com/VA/Goode/5-Lochwood-Hill-Dr-24556/home/179024081,LMLS,336496,N,Y,37.370697,-79.394051
